2025-03-19 14:45:47.563997 -- $GNRMC,134547.80,A,4546.99505,N,00452.86579,E,0.070,,190325,,,D*6D

2025-03-19 14:45:47.564218 -- $GNVTG,,T,,M,0.070,N,0.130,K,D*3D

2025-03-19 14:45:48.673565 -- $GNRMC,134548.90,A,4546.99513,N,00452.86586,E,0.028,,190325,,,D*69

2025-03-19 14:45:48.673740 -- $GNVTG,,T,,M,0.028,N,0.052,K,D*35

2025-03-19 14:45:49.072144 -- $GNRMC,134549.30,A,4546.99518,N,00452.86587,E,0.023,,190325,,,D*63

2025-03-19 14:45:49.072292 -- $GNVTG,,T,,M,0.023,N,0.043,K,D*3E

2025-03-19 14:45:49.887894 -- $GNRMC,134550.10,A,4546.99523,N,00452.86584,E,0.057,,190325,,,D*61

2025-03-19 14:45:49.888042 -- $GNVTG,,T,,M,0.057,N,0.105,K,D*3E

2025-03-19 14:45:50.307138 -- $GNRMC,134550.50,A,4546.99527,N,00452.86583,E,0.014,,190325,,,D*61

2025-03-19 14:45:50.307287 -- $GNVTG,,T,,M,0.014,N,0.025,K,D*3A

2025-03-19 14:45:50.578072 -- $GNRMC,134550.80,A,4546.99528,N,00452.86583,E,0.039,,190325,,,D*6C

2025-03-19 14:45:50.578256 -- $GNVTG,,T,,M,0.039,N,0.072,K,D*37

2025-03-19 14:45:50.973022 -- $GNVTG,,T,,M,0.117,N,0.218,K,D*34

2025-03-19 14:45:51.182108 -- $GNRMC,134551.40,A,4546.99532,N,00452.86581,E,0.056,,190325,,,D*61

2025-03-19 14:45:51.182363 -- $GNVTG,,T,,M,0.056,N,0.103,K,D*39

2025-03-19 14:45:52.076397 -- $GNRMC,134552.30,A,4546.99540,N,00452.86574,E,0.156,,190325,,,D*6B

2025-03-19 14:45:52.076628 -- $GNVTG,,T,,M,0.156,N,0.290,K,D*31

2025-03-19 14:45:52.276246 -- $GNRMC,134552.50,A,4546.99543,N,00452.86572,E,0.150,,190325,,,D*6E

2025-03-19 14:45:52.277097 -- $GNVTG,,T,,M,0.150,N,0.278,K,D*31

2025-03-19 14:45:52.664443 -- $GNRMC,134552.90,A,4546.99548,N,00452.86567,E,0.034,,190325,,,D*6E

2025-03-19 14:45:52.664678 -- $GNVTG,,T,,M,0.034,N,0.063,K,D*3A

2025-03-19 14:45:53.268072 -- $GNRMC,134553.50,A,4546.99550,N,00452.86560,E,0.065,,190325,,,D*69

2025-03-19 14:45:53.268258 -- $GNVTG,,T,,M,0.065,N,0.121,K,D*39

2025-03-19 14:45:53.661126 -- $GNRMC,134553.90,A,4546.99554,N,00452.86556,E,0.036,,190325,,,D*62

2025-03-19 14:45:53.863121 -- $GNRMC,134554.10,A,4546.99556,N,00452.86555,E,0.050,,190325,,,D*6C

2025-03-19 14:45:54.061910 -- $GNRMC,134554.30,A,4546.99558,N,00452.86553,E,0.048,,190325,,,D*6F

2025-03-19 14:45:54.062061 -- $GNVTG,,T,,M,0.048,N,0.090,K,D*3D

2025-03-19 14:45:54.661986 -- $GNRMC,134554.90,A,4546.99567,N,00452.86547,E,0.047,,190325,,,D*63

2025-03-19 14:45:54.662149 -- $GNVTG,,T,,M,0.047,N,0.086,K,D*35

2025-03-19 14:45:55.063506 -- $GNRMC,134555.30,A,4546.99574,N,00452.86536,E,0.047,,190325,,,D*6C

2025-03-19 14:45:55.063814 -- $GNVTG,,T,,M,0.047,N,0.086,K,D*35

2025-03-19 14:45:56.059274 -- $GNRMC,134556.30,A,4546.99588,N,00452.86526,E,0.032,,190325,,,D*6F

2025-03-19 14:45:56.059529 -- $GNVTG,,T,,M,0.032,N,0.060,K,D*3F

2025-03-19 14:45:56.465688 -- $GNRMC,134556.70,A,4546.99594,N,00452.86525,E,0.087,,190325,,,D*6B

2025-03-19 14:45:56.465851 -- $GNVTG,,T,,M,0.087,N,0.161,K,D*31

2025-03-19 14:45:56.649190 -- $GNRMC,134556.90,A,4546.99599,N,00452.86522,E,0.034,,190325,,,D*67

2025-03-19 14:45:56.649600 -- $GNVTG,,T,,M,0.034,N,0.064,K,D*3D

2025-03-19 14:45:57.262199 -- $GNRMC,134557.50,A,4546.99608,N,00452.86521,E,0.083,,190325,,,D*6E

2025-03-19 14:45:57.263093 -- $GNVTG,,T,,M,0.083,N,0.153,K,D*34

2025-03-19 14:45:58.885009 -- $GNRMC,134559.10,A,4546.99629,N,00452.86513,E,0.031,,190325,,,D*6F

2025-03-19 14:45:58.885237 -- $GNVTG,,T,,M,0.031,N,0.058,K,D*37

2025-03-19 14:45:59.458825 -- $GNRMC,134559.70,A,4546.99633,N,00452.86521,E,0.041,,190325,,,D*64

2025-03-19 14:45:59.458994 -- $GNVTG,,T,,M,0.041,N,0.076,K,D*3C

2025-03-19 14:45:59.880754 -- $GNRMC,134600.10,A,4546.99635,N,00452.86523,E,0.047,,190325,,,D*6F

2025-03-19 14:45:59.881008 -- $GNVTG,,T,,M,0.047,N,0.087,K,D*34

2025-03-19 14:46:00.269538 -- $GNRMC,134600.50,A,4546.99638,N,00452.86523,E,0.106,,190325,,,D*62

2025-03-19 14:46:00.269759 -- $GNVTG,,T,,M,0.106,N,0.195,K,D*32

2025-03-19 14:46:01.462572 -- $GNRMC,134601.70,A,4546.99647,N,00452.86525,E,0.051,,190325,,,D*6C

2025-03-19 14:46:01.463016 -- $GNVTG,,T,,M,0.051,N,0.094,K,D*31

2025-03-19 14:46:01.856434 -- $GNRMC,134602.10,A,4546.99650,N,00452.86529,E,0.033,,190325,,,D*67

2025-03-19 14:46:01.856836 -- $GNVTG,,T,,M,0.033,N,0.060,K,D*3E

2025-03-19 14:46:02.461983 -- $GNRMC,134602.70,A,4546.99656,N,00452.86530,E,0.069,,190325,,,D*60

2025-03-19 14:46:02.462755 -- $GNVTG,,T,,M,0.069,N,0.128,K,D*3C

2025-03-19 14:46:02.661688 -- $GNRMC,134602.90,A,4546.99657,N,00452.86530,E,0.033,,190325,,,D*60

2025-03-19 14:46:02.661847 -- $GNVTG,,T,,M,0.033,N,0.061,K,D*3F

2025-03-19 14:46:02.865233 -- $GNRMC,134603.10,A,4546.99658,N,00452.86529,E,0.013,,190325,,,D*6C

2025-03-19 14:46:02.865401 -- $GNVTG,,T,,M,0.013,N,0.025,K,D*3D

2025-03-19 14:46:03.060183 -- $GNRMC,134603.30,A,4546.99660,N,00452.86529,E,0.124,,190325,,,D*60

2025-03-19 14:46:03.060337 -- $GNVTG,,T,,M,0.124,N,0.230,K,D*3E

2025-03-19 14:46:03.259851 -- $GNRMC,134603.50,A,4546.99662,N,00452.86529,E,0.022,,190325,,,D*63

2025-03-19 14:46:03.260023 -- $GNVTG,,T,,M,0.022,N,0.041,K,D*3D

2025-03-19 14:46:03.658858 -- $GNRMC,134603.90,A,4546.99664,N,00452.86530,E,0.124,,190325,,,D*66

2025-03-19 14:46:03.659547 -- $GNVTG,,T,,M,0.124,N,0.230,K,D*3E

2025-03-19 14:46:04.460242 -- $GNRMC,134604.70,A,4546.99668,N,00452.86533,E,0.022,,190325,,,D*67

2025-03-19 14:46:04.846790 -- $GNRMC,134605.10,A,4546.99672,N,00452.86534,E,0.058,,190325,,,D*61

2025-03-19 14:46:04.846939 -- $GNVTG,,T,,M,0.058,N,0.107,K,D*33

2025-03-19 14:46:05.057650 -- $GNRMC,134605.30,A,4546.99673,N,00452.86534,E,0.017,,190325,,,D*69

2025-03-19 14:46:05.454393 -- $GNRMC,134605.70,A,4546.99675,N,00452.86536,E,0.096,,190325,,,D*60

2025-03-19 14:46:05.658108 -- $GNRMC,134605.90,A,4546.99676,N,00452.86536,E,0.025,,190325,,,D*65

2025-03-19 14:46:05.859385 -- $GNRMC,134606.10,A,4546.99678,N,00452.86537,E,0.015,,190325,,,D*62

2025-03-19 14:46:06.249877 -- $GNRMC,134606.50,A,4546.99682,N,00452.86540,E,0.098,,190325,,,D*66

2025-03-19 14:46:06.250025 -- $GNVTG,,T,,M,0.098,N,0.181,K,D*31

2025-03-19 14:46:06.449208 -- $GNRMC,134606.70,A,4546.99684,N,00452.86541,E,0.108,,190325,,,D*6B

2025-03-19 14:46:06.859772 -- $GNRMC,134607.10,A,4546.99687,N,00452.86545,E,0.073,,190325,,,D*66

2025-03-19 14:46:06.859922 -- $GNVTG,,T,,M,0.073,N,0.134,K,D*3A

2025-03-19 14:46:07.058715 -- $GNRMC,134607.30,A,4546.99687,N,00452.86547,E,0.040,,190325,,,D*66

2025-03-19 14:46:07.058865 -- $GNVTG,,T,,M,0.040,N,0.075,K,D*3E

2025-03-19 14:46:07.860862 -- $GNRMC,134608.10,A,4546.99696,N,00452.86557,E,0.063,,190325,,,D*6B

2025-03-19 14:46:07.861007 -- $GNVTG,,T,,M,0.063,N,0.117,K,D*3A

2025-03-19 14:46:08.662086 -- $GNRMC,134608.50,A,4546.99704,N,00452.86558,E,0.068,,190325,,,D*61

2025-03-19 14:46:08.862696 -- $GNRMC,134608.70,A,4546.99708,N,00452.86558,E,0.039,,190325,,,D*6B

2025-03-19 14:46:09.282290 -- $GNRMC,134609.10,A,4546.99709,N,00452.86561,E,0.092,,190325,,,D*66

2025-03-19 14:46:09.282599 -- $GNVTG,,T,,M,0.092,N,0.171,K,D*34

2025-03-19 14:46:09.453220 -- $GNRMC,134609.30,A,4546.99709,N,00452.86564,E,0.049,,190325,,,D*67

2025-03-19 14:46:09.453501 -- $GNVTG,,T,,M,0.049,N,0.092,K,D*3E

2025-03-19 14:46:09.661076 -- $GNRMC,134609.50,A,4546.99709,N,00452.86567,E,0.131,,190325,,,D*6C

2025-03-19 14:46:09.859016 -- $GNVTG,,T,,M,0.047,N,0.087,K,D*34

2025-03-19 14:46:10.061074 -- $GNRMC,134609.90,A,4546.99709,N,00452.86574,E,0.116,,190325,,,D*67

2025-03-19 14:46:10.061429 -- $GNVTG,,T,,M,0.116,N,0.215,K,D*38

2025-03-19 14:46:10.459379 -- $GNRMC,134610.30,A,4546.99710,N,00452.86581,E,0.061,,190325,,,D*66

2025-03-19 14:46:10.664371 -- $GNRMC,134610.50,A,4546.99711,N,00452.86584,E,0.034,,190325,,,D*64

2025-03-19 14:46:10.664705 -- $GNVTG,,T,,M,0.034,N,0.062,K,D*3B

2025-03-19 14:46:11.685502 -- $GNRMC,134611.50,A,4546.99712,N,00452.86599,E,0.090,,190325,,,D*64

2025-03-19 14:46:11.874415 -- $GNRMC,134611.70,A,4546.99712,N,00452.86602,E,0.072,,190325,,,D*6B

2025-03-19 14:46:11.874773 -- $GNVTG,,T,,M,0.072,N,0.133,K,D*3C

2025-03-19 14:46:12.081172 -- $GNRMC,134611.90,A,4546.99713,N,00452.86605,E,0.069,,190325,,,D*69

2025-03-19 14:46:12.081520 -- $GNVTG,,T,,M,0.069,N,0.128,K,D*3C

2025-03-19 14:46:12.676528 -- $GNRMC,134612.50,A,4546.99716,N,00452.86615,E,0.086,,190325,,,D*63

2025-03-19 14:46:12.876088 -- $GNRMC,134612.70,A,4546.99718,N,00452.86618,E,0.128,,190325,,,D*67

2025-03-19 14:46:12.877489 -- $GNVTG,,T,,M,0.128,N,0.236,K,D*34

2025-03-19 14:46:13.276902 -- $GNRMC,134613.10,A,4546.99720,N,00452.86626,E,0.087,,190325,,,D*62

2025-03-19 14:46:13.277105 -- $GNVTG,,T,,M,0.087,N,0.161,K,D*31

2025-03-19 14:46:13.673990 -- $GNRMC,134613.50,A,4546.99722,N,00452.86634,E,0.110,,190325,,,D*68

2025-03-19 14:46:13.878312 -- $GNRMC,134613.70,A,4546.99722,N,00452.86639,E,0.080,,190325,,,D*6F

2025-03-19 14:46:13.878501 -- $GNVTG,,T,,M,0.080,N,0.149,K,D*3C

2025-03-19 14:46:14.285634 -- $GNRMC,134614.10,A,4546.99722,N,00452.86646,E,0.055,,190325,,,D*6E

2025-03-19 14:46:14.286014 -- $GNVTG,,T,,M,0.055,N,0.103,K,D*3A

2025-03-19 14:46:14.479023 -- $GNRMC,134614.30,A,4546.99722,N,00452.86650,E,0.136,,190325,,,D*6F

2025-03-19 14:46:14.479208 -- $GNVTG,,T,,M,0.136,N,0.252,K,D*39

2025-03-19 14:46:14.863807 -- $GNRMC,134614.70,A,4546.99725,N,00452.86655,E,0.239,,190325,,,D*65

2025-03-19 14:46:14.864211 -- $GNVTG,,T,,M,0.239,N,0.443,K,D*33

2025-03-19 14:46:15.490457 -- $GNRMC,134615.30,A,4546.99727,N,00452.86666,E,0.087,,190325,,,D*65

2025-03-19 14:46:16.283249 -- $GNRMC,134616.10,A,4546.99732,N,00452.86678,E,0.088,,190325,,,D*60

2025-03-19 14:46:16.283610 -- $GNVTG,,T,,M,0.088,N,0.163,K,D*3C

2025-03-19 14:46:16.677280 -- $GNRMC,134616.50,A,4546.99733,N,00452.86684,E,0.158,,190325,,,D*6A

2025-03-19 14:46:17.076235 -- $GNRMC,134616.90,A,4546.99732,N,00452.86688,E,0.054,,190325,,,D*66

2025-03-19 14:46:17.076439 -- $GNVTG,,T,,M,0.054,N,0.100,K,D*38

2025-03-19 14:46:17.471679 -- $GNRMC,134617.30,A,4546.99731,N,00452.86690,E,0.066,,190325,,,D*66

2025-03-19 14:46:17.679979 -- $GNRMC,134617.50,A,4546.99732,N,00452.86690,E,0.082,,190325,,,D*69

2025-03-19 14:46:17.680190 -- $GNVTG,,T,,M,0.082,N,0.152,K,D*34

2025-03-19 14:46:18.878547 -- $GNRMC,134618.70,A,4546.99734,N,00452.86697,E,0.063,,190325,,,D*6A

2025-03-19 14:46:18.878754 -- $GNVTG,,T,,M,0.063,N,0.116,K,D*3B

2025-03-19 14:46:19.496550 -- $GNRMC,134619.30,A,4546.99738,N,00452.86689,E,0.033,,190325,,,D*69

2025-03-19 14:46:19.496939 -- $GNVTG,,T,,M,0.033,N,0.062,K,D*3C

2025-03-19 14:46:19.673246 -- $GNRMC,134619.50,A,4546.99740,N,00452.86685,E,0.039,,190325,,,D*66

2025-03-19 14:46:19.673745 -- $GNVTG,,T,,M,0.039,N,0.072,K,D*37

2025-03-19 14:46:20.288713 -- $GNRMC,134620.10,A,4546.99747,N,00452.86676,E,0.049,,190325,,,D*64

2025-03-19 14:46:20.682780 -- $GNRMC,134620.50,A,4546.99750,N,00452.86680,E,0.071,,190325,,,D*64

2025-03-19 14:46:20.683065 -- $GNVTG,,T,,M,0.071,N,0.132,K,D*3E

2025-03-19 14:46:21.099980 -- $GNRMC,134620.90,A,4546.99752,N,00452.86686,E,0.019,,190325,,,D*62

2025-03-19 14:46:21.259110 -- $GNRMC,134621.10,A,4546.99753,N,00452.86688,E,0.130,,190325,,,D*6E

2025-03-19 14:46:21.259488 -- $GNVTG,,T,,M,0.130,N,0.240,K,D*3C

2025-03-19 14:46:21.863122 -- $GNRMC,134621.70,A,4546.99758,N,00452.86687,E,0.096,,190325,,,D*61

2025-03-19 14:46:21.863482 -- $GNVTG,,T,,M,0.096,N,0.177,K,D*36

2025-03-19 14:46:23.859282 -- $GNRMC,134623.70,A,4546.99775,N,00452.86679,E,0.145,,190325,,,D*62

2025-03-19 14:46:23.859559 -- $GNVTG,,T,,M,0.145,N,0.269,K,D*35

2025-03-19 14:46:24.473736 -- $GNRMC,134624.30,A,4546.99778,N,00452.86674,E,0.067,,190325,,,D*60

2025-03-19 14:46:25.260830 -- $GNRMC,134625.10,A,4546.99784,N,00452.86662,E,0.160,,190325,,,D*61

2025-03-19 14:46:25.461469 -- $GNRMC,134625.30,A,4546.99786,N,00452.86658,E,0.057,,190325,,,D*6D

2025-03-19 14:46:25.461724 -- $GNVTG,,T,,M,0.057,N,0.106,K,D*3D

2025-03-19 14:46:25.859335 -- $GNRMC,134625.70,A,4546.99791,N,00452.86651,E,0.040,,190325,,,D*60

2025-03-19 14:46:26.865240 -- $GNRMC,134626.70,A,4546.99801,N,00452.86644,E,0.085,,190325,,,D*68

2025-03-19 14:46:26.865454 -- $GNVTG,,T,,M,0.085,N,0.158,K,D*39

2025-03-19 14:46:27.464254 -- $GNRMC,134627.30,A,4546.99803,N,00452.86637,E,0.150,,190325,,,D*62

2025-03-19 14:46:29.259524 -- $GNRMC,134629.10,A,4546.99831,N,00452.86601,E,0.103,,190325,,,D*6C

2025-03-19 14:46:29.472047 -- $GNRMC,134629.30,A,4546.99833,N,00452.86598,E,0.031,,190325,,,D*6F

2025-03-19 14:46:29.472448 -- $GNVTG,,T,,M,0.031,N,0.057,K,D*38

2025-03-19 14:46:29.664054 -- $GNRMC,134629.50,A,4546.99835,N,00452.86596,E,0.104,,190325,,,D*66

2025-03-19 14:46:29.664535 -- $GNVTG,,T,,M,0.104,N,0.193,K,D*36

2025-03-19 14:46:30.276220 -- $GNRMC,134630.10,A,4546.99840,N,00452.86587,E,0.095,,190325,,,D*61

2025-03-19 14:46:30.276584 -- $GNVTG,,T,,M,0.095,N,0.175,K,D*37

2025-03-19 14:46:30.662612 -- $GNRMC,134630.50,A,4546.99843,N,00452.86581,E,0.184,,190325,,,D*61

2025-03-19 14:46:30.662907 -- $GNVTG,,T,,M,0.184,N,0.341,K,D*33

2025-03-19 14:46:30.859745 -- $GNRMC,134630.70,A,4546.99844,N,00452.86579,E,0.067,,190325,,,D*6F

2025-03-19 14:46:31.862666 -- $GNRMC,134631.70,A,4546.99849,N,00452.86567,E,0.080,,190325,,,D*65

2025-03-19 14:46:32.461720 -- $GNRMC,134632.30,A,4546.99851,N,00452.86560,E,0.095,,190325,,,D*68

2025-03-19 14:46:32.462092 -- $GNVTG,,T,,M,0.095,N,0.175,K,D*37

2025-03-19 14:46:33.066620 -- $GNRMC,134632.90,A,4546.99852,N,00452.86552,E,0.064,,190325,,,D*6E

2025-03-19 14:46:34.055961 -- $GNRMC,134633.90,A,4546.99844,N,00452.86544,E,0.025,,190325,,,D*6A

2025-03-19 14:46:34.056400 -- $GNVTG,,T,,M,0.025,N,0.047,K,D*3C

2025-03-19 14:46:34.460547 -- $GNRMC,134634.30,A,4546.99845,N,00452.86541,E,0.136,,190325,,,D*60

2025-03-19 14:46:34.460779 -- $GNVTG,,T,,M,0.136,N,0.252,K,D*39

2025-03-19 14:46:35.068881 -- $GNRMC,134634.90,A,4546.99847,N,00452.86536,E,0.066,,190325,,,D*6C

2025-03-19 14:46:35.273680 -- $GNRMC,134635.10,A,4546.99846,N,00452.86536,E,0.069,,190325,,,D*6B

2025-03-19 14:46:35.273905 -- $GNVTG,,T,,M,0.069,N,0.128,K,D*3C

2025-03-19 14:46:35.669670 -- $GNRMC,134635.50,A,4546.99852,N,00452.86534,E,0.132,,190325,,,D*67

2025-03-19 14:46:36.062966 -- $GNRMC,134635.90,A,4546.99856,N,00452.86530,E,0.102,,190325,,,D*68

2025-03-19 14:46:36.255438 -- $GNRMC,134636.10,A,4546.99857,N,00452.86529,E,0.079,,190325,,,D*67

2025-03-19 14:46:36.255655 -- $GNVTG,,T,,M,0.079,N,0.147,K,D*34

2025-03-19 14:46:36.866791 -- $GNRMC,134636.70,A,4546.99865,N,00452.86524,E,0.062,,190325,,,D*67

2025-03-19 14:46:37.468903 -- $GNRMC,134637.30,A,4546.99875,N,00452.86518,E,0.167,,190325,,,D*68

2025-03-19 14:46:38.068873 -- $GNRMC,134637.90,A,4546.99876,N,00452.86513,E,0.158,,190325,,,D*66

2025-03-19 14:46:38.663318 -- $GNRMC,134638.50,A,4546.99878,N,00452.86510,E,0.141,,190325,,,D*60

2025-03-19 14:46:38.663677 -- $GNVTG,,T,,M,0.141,N,0.260,K,D*38

2025-03-19 14:46:38.854505 -- $GNVTG,,T,,M,0.051,N,0.094,K,D*31

2025-03-19 14:46:39.277311 -- $GNVTG,,T,,M,0.170,N,0.316,K,D*3A

2025-03-19 14:46:39.459680 -- $GNRMC,134639.30,A,4546.99886,N,00452.86503,E,0.138,,190325,,,D*6A

2025-03-19 14:46:39.460070 -- $GNVTG,,T,,M,0.138,N,0.256,K,D*33

2025-03-19 14:46:39.861246 -- $GNRMC,134639.70,A,4546.99889,N,00452.86501,E,0.131,,190325,,,D*6A

2025-03-19 14:46:39.861773 -- $GNVTG,,T,,M,0.131,N,0.242,K,D*3F

2025-03-19 14:46:40.464916 -- $GNRMC,134640.30,A,4546.99890,N,00452.86500,E,0.049,,190325,,,D*67

2025-03-19 14:46:40.465446 -- $GNVTG,,T,,M,0.049,N,0.091,K,D*3D

2025-03-19 14:46:40.660112 -- $GNRMC,134640.50,A,4546.99890,N,00452.86500,E,0.080,,190325,,,D*64

2025-03-19 14:46:40.660330 -- $GNVTG,,T,,M,0.080,N,0.148,K,D*3D

2025-03-19 14:46:41.070615 -- $GNRMC,134640.90,A,4546.99890,N,00452.86498,E,0.038,,190325,,,D*6B

2025-03-19 14:46:41.277508 -- $GNRMC,134641.10,A,4546.99891,N,00452.86497,E,0.008,,190325,,,D*6F

2025-03-19 14:46:41.278045 -- $GNVTG,,T,,M,0.008,N,0.015,K,D*34

2025-03-19 14:46:41.863267 -- $GNRMC,134641.70,A,4546.99889,N,00452.86494,E,0.053,,190325,,,D*6D

2025-03-19 14:46:42.072906 -- $GNRMC,134641.90,A,4546.99880,N,00452.86496,E,0.056,,190325,,,D*6D

2025-03-19 14:46:42.472095 -- $GNRMC,134642.30,A,4546.99877,N,00452.86497,E,0.058,,190325,,,D*63

2025-03-19 14:46:42.673986 -- $GNRMC,134642.50,A,4546.99878,N,00452.86500,E,0.032,,190325,,,D*69

2025-03-19 14:46:43.287371 -- $GNRMC,134643.10,A,4546.99879,N,00452.86505,E,0.111,,190325,,,D*68

2025-03-19 14:46:43.477275 -- $GNRMC,134643.30,A,4546.99879,N,00452.86508,E,0.019,,190325,,,D*6E

2025-03-19 14:46:43.675298 -- $GNRMC,134643.50,A,4546.99880,N,00452.86510,E,0.104,,190325,,,D*6A

2025-03-19 14:46:43.675641 -- $GNVTG,,T,,M,0.104,N,0.193,K,D*36

2025-03-19 14:46:44.077376 -- $GNRMC,134643.90,A,4546.99880,N,00452.86515,E,0.083,,190325,,,D*6D

2025-03-19 14:46:44.465703 -- $GNRMC,134644.30,A,4546.99881,N,00452.86518,E,0.076,,190325,,,D*66

2025-03-19 14:46:44.673698 -- $GNRMC,134644.50,A,4546.99881,N,00452.86519,E,0.122,,190325,,,D*61

2025-03-19 14:46:44.674073 -- $GNVTG,,T,,M,0.122,N,0.227,K,D*3E

2025-03-19 14:46:44.874800 -- $GNRMC,134644.70,A,4546.99880,N,00452.86522,E,0.129,,190325,,,D*61

2025-03-19 14:46:44.875291 -- $GNVTG,,T,,M,0.129,N,0.238,K,D*3B

2025-03-19 14:46:45.080477 -- $GNRMC,134644.90,A,4546.99878,N,00452.86524,E,0.116,,190325,,,D*62

2025-03-19 14:46:45.080704 -- $GNVTG,,T,,M,0.116,N,0.214,K,D*39

2025-03-19 14:46:45.482126 -- $GNRMC,134645.30,A,4546.99878,N,00452.86528,E,0.202,,190325,,,D*63

2025-03-19 14:46:45.688001 -- $GNRMC,134645.50,A,4546.99878,N,00452.86531,E,0.124,,190325,,,D*6A

2025-03-19 14:46:46.086206 -- $GNRMC,134645.90,A,4546.99877,N,00452.86536,E,0.068,,190325,,,D*67

2025-03-19 14:46:46.300788 -- $GNRMC,134646.10,A,4546.99876,N,00452.86538,E,0.094,,190325,,,D*60

2025-03-19 14:46:46.673466 -- $GNRMC,134646.50,A,4546.99873,N,00452.86545,E,0.099,,190325,,,D*66

2025-03-19 14:46:46.673803 -- $GNVTG,,T,,M,0.099,N,0.183,K,D*32

2025-03-19 14:46:46.874753 -- $GNRMC,134646.70,A,4546.99872,N,00452.86547,E,0.100,,190325,,,D*66

2025-03-19 14:46:46.874993 -- $GNVTG,,T,,M,0.100,N,0.185,K,D*35

2025-03-19 14:46:47.085012 -- $GNRMC,134646.90,A,4546.99873,N,00452.86550,E,0.039,,190325,,,D*64

2025-03-19 14:46:47.488714 -- $GNRMC,134647.30,A,4546.99871,N,00452.86553,E,0.060,,190325,,,D*62

2025-03-19 14:46:48.072199 -- $GNRMC,134647.90,A,4546.99869,N,00452.86560,E,0.046,,190325,,,D*65

2025-03-19 14:46:48.304682 -- $GNRMC,134648.10,A,4546.99870,N,00452.86563,E,0.061,,190325,,,D*6C

2025-03-19 14:46:48.688192 -- $GNRMC,134648.50,A,4546.99869,N,00452.86572,E,0.054,,190325,,,D*66

2025-03-19 14:46:48.688487 -- $GNVTG,,T,,M,0.054,N,0.099,K,D*39

2025-03-19 14:46:48.882175 -- $GNRMC,134648.70,A,4546.99870,N,00452.86575,E,0.058,,190325,,,D*67

2025-03-19 14:46:48.882515 -- $GNVTG,,T,,M,0.058,N,0.107,K,D*33

2025-03-19 14:46:49.083964 -- $GNRMC,134648.90,A,4546.99871,N,00452.86579,E,0.081,,190325,,,D*60

2025-03-19 14:46:49.084348 -- $GNVTG,,T,,M,0.081,N,0.150,K,D*35

2025-03-19 14:46:49.305288 -- $GNRMC,134649.10,A,4546.99871,N,00452.86584,E,0.096,,190325,,,D*6D

2025-03-19 14:46:49.305699 -- $GNVTG,,T,,M,0.096,N,0.177,K,D*36

2025-03-19 14:46:49.488060 -- $GNRMC,134649.30,A,4546.99871,N,00452.86587,E,0.070,,190325,,,D*64

2025-03-19 14:46:49.488647 -- $GNVTG,,T,,M,0.070,N,0.129,K,D*35

2025-03-19 14:46:49.684163 -- $GNRMC,134649.50,A,4546.99871,N,00452.86591,E,0.042,,190325,,,D*64

2025-03-19 14:46:49.684544 -- $GNVTG,,T,,M,0.042,N,0.077,K,D*3E

2025-03-19 14:46:49.886691 -- $GNRMC,134649.70,A,4546.99871,N,00452.86594,E,0.096,,190325,,,D*6A

2025-03-19 14:46:49.887038 -- $GNVTG,,T,,M,0.096,N,0.178,K,D*39

2025-03-19 14:46:50.301701 -- $GNRMC,134650.10,A,4546.99870,N,00452.86598,E,0.095,,190325,,,D*6A

2025-03-19 14:46:50.302216 -- $GNVTG,,T,,M,0.095,N,0.176,K,D*34

2025-03-19 14:46:50.489044 -- $GNRMC,134650.30,A,4546.99870,N,00452.86601,E,0.097,,190325,,,D*69

2025-03-19 14:46:50.682234 -- $GNRMC,134650.50,A,4546.99871,N,00452.86605,E,0.057,,190325,,,D*66

2025-03-19 14:46:51.323467 -- $GNRMC,134651.10,A,4546.99871,N,00452.86613,E,0.129,,190325,,,D*6C

2025-03-19 14:46:51.323696 -- $GNVTG,,T,,M,0.129,N,0.239,K,D*3A

2025-03-19 14:46:51.624039 -- $GNRMC,134651.40,A,4546.99871,N,00452.86616,E,0.053,,190325,,,D*60

2025-03-19 14:46:51.624401 -- $GNVTG,,T,,M,0.053,N,0.098,K,D*3F

2025-03-19 14:46:52.095181 -- $GNRMC,134651.90,A,4546.99869,N,00452.86623,E,0.081,,190325,,,D*6D

2025-03-19 14:46:52.095415 -- $GNVTG,,T,,M,0.081,N,0.149,K,D*3D

2025-03-19 14:46:52.788596 -- $GNRMC,134652.60,A,4546.99868,N,00452.86632,E,0.128,,190325,,,D*62

2025-03-19 14:46:52.788767 -- $GNVTG,,T,,M,0.128,N,0.238,K,D*3A

2025-03-19 14:46:53.203956 -- $GNRMC,134653.00,A,4546.99867,N,00452.86637,E,0.117,,190325,,,D*63

2025-03-19 14:46:53.391764 -- $GNRMC,134653.20,A,4546.99866,N,00452.86640,E,0.219,,190325,,,D*6D

2025-03-19 14:46:53.391997 -- $GNVTG,,T,,M,0.219,N,0.406,K,D*30

2025-03-19 14:46:53.597012 -- $GNRMC,134653.40,A,4546.99865,N,00452.86643,E,0.125,,190325,,,D*67

2025-03-19 14:46:53.597515 -- $GNVTG,,T,,M,0.125,N,0.232,K,D*3D

2025-03-19 14:46:53.798968 -- $GNRMC,134653.60,A,4546.99866,N,00452.86645,E,0.070,,190325,,,D*61

2025-03-19 14:46:53.799281 -- $GNVTG,,T,,M,0.070,N,0.130,K,D*3D

2025-03-19 14:46:54.499602 -- $GNRMC,134654.30,A,4546.99866,N,00452.86649,E,0.103,,190325,,,D*6A

2025-03-19 14:46:54.893741 -- $GNRMC,134654.70,A,4546.99866,N,00452.86653,E,0.034,,190325,,,D*60

2025-03-19 14:46:54.893998 -- $GNVTG,,T,,M,0.034,N,0.064,K,D*3D

2025-03-19 14:46:55.094912 -- $GNRMC,134654.90,A,4546.99867,N,00452.86654,E,0.140,,190325,,,D*6A

2025-03-19 14:46:55.095279 -- $GNVTG,,T,,M,0.140,N,0.259,K,D*33

2025-03-19 14:46:55.310586 -- $GNRMC,134655.10,A,4546.99869,N,00452.86654,E,0.108,,190325,,,D*61

2025-03-19 14:46:55.310944 -- $GNVTG,,T,,M,0.108,N,0.200,K,D*33

2025-03-19 14:46:55.589465 -- $GNRMC,134655.40,A,4546.99871,N,00452.86651,E,0.153,,190325,,,D*66

2025-03-19 14:46:55.589686 -- $GNVTG,,T,,M,0.153,N,0.284,K,D*31

2025-03-19 14:46:55.978844 -- $GNRMC,134655.80,A,4546.99870,N,00452.86648,E,0.040,,190325,,,D*60

2025-03-19 14:46:56.204791 -- $GNRMC,134656.00,A,4546.99870,N,00452.86648,E,0.054,,190325,,,D*6E

2025-03-19 14:46:56.205027 -- $GNVTG,,T,,M,0.054,N,0.101,K,D*39

2025-03-19 14:46:56.584635 -- $GNRMC,134656.40,A,4546.99868,N,00452.86649,E,0.062,,190325,,,D*67

2025-03-19 14:46:56.584940 -- $GNVTG,,T,,M,0.062,N,0.115,K,D*39

2025-03-19 14:46:57.189118 -- $GNRMC,134657.00,A,4546.99870,N,00452.86643,E,0.077,,190325,,,D*65

2025-03-19 14:46:58.203626 -- $GNRMC,134658.00,A,4546.99872,N,00452.86630,E,0.052,,190325,,,D*6B

2025-03-19 14:46:58.388037 -- $GNRMC,134658.20,A,4546.99874,N,00452.86627,E,0.111,,190325,,,D*6F

2025-03-19 14:46:59.201376 -- $GNRMC,134659.00,A,4546.99874,N,00452.86616,E,0.132,,190325,,,D*6F

2025-03-19 14:46:59.201709 -- $GNVTG,,T,,M,0.132,N,0.245,K,D*3B

2025-03-19 14:46:59.675035 -- $GNRMC,134659.50,A,4546.99869,N,00452.86612,E,0.011,,190325,,,D*62

2025-03-19 14:46:59.675468 -- $GNVTG,,T,,M,0.011,N,0.020,K,D*3A

2025-03-19 14:46:59.884641 -- $GNRMC,134659.70,A,4546.99869,N,00452.86609,E,0.132,,190325,,,D*6A

2025-03-19 14:47:00.288570 -- $GNRMC,134700.10,A,4546.99874,N,00452.86604,E,0.055,,190325,,,D*60

2025-03-19 14:47:00.288819 -- $GNVTG,,T,,M,0.055,N,0.102,K,D*3B

2025-03-19 14:47:00.482628 -- $GNRMC,134700.30,A,4546.99876,N,00452.86602,E,0.056,,190325,,,D*65

2025-03-19 14:47:00.482877 -- $GNVTG,,T,,M,0.056,N,0.103,K,D*39

2025-03-19 14:47:01.490790 -- $GNRMC,134701.30,A,4546.99892,N,00452.86585,E,0.065,,190325,,,D*62

2025-03-19 14:47:01.491014 -- $GNVTG,,T,,M,0.065,N,0.121,K,D*39

2025-03-19 14:47:02.096903 -- $GNRMC,134701.90,A,4546.99895,N,00452.86575,E,0.019,,190325,,,D*6B

2025-03-19 14:47:02.290375 -- $GNRMC,134702.10,A,4546.99897,N,00452.86571,E,0.139,,190325,,,D*65

2025-03-19 14:47:02.290709 -- $GNVTG,,T,,M,0.139,N,0.258,K,D*3C

2025-03-19 14:47:02.476863 -- $GNRMC,134702.30,A,4546.99898,N,00452.86569,E,0.050,,190325,,,D*6F

2025-03-19 14:47:02.477133 -- $GNVTG,,T,,M,0.050,N,0.093,K,D*37

2025-03-19 14:47:02.685439 -- $GNRMC,134702.50,A,4546.99898,N,00452.86568,E,0.092,,190325,,,D*66

2025-03-19 14:47:02.882547 -- $GNRMC,134702.70,A,4546.99900,N,00452.86565,E,0.076,,190325,,,D*63

2025-03-19 14:47:03.295715 -- $GNRMC,134703.10,A,4546.99902,N,00452.86561,E,0.091,,190325,,,D*6B

2025-03-19 14:47:03.295942 -- $GNVTG,,T,,M,0.091,N,0.168,K,D*3F

2025-03-19 14:47:03.486026 -- $GNRMC,134703.30,A,4546.99903,N,00452.86560,E,0.088,,190325,,,D*61

2025-03-19 14:47:03.486316 -- $GNVTG,,T,,M,0.088,N,0.162,K,D*3D

2025-03-19 14:47:03.680962 -- $GNRMC,134703.50,A,4546.99904,N,00452.86558,E,0.076,,190325,,,D*6A

2025-03-19 14:47:04.676153 -- $GNRMC,134704.50,A,4546.99908,N,00452.86554,E,0.076,,190325,,,D*6D

2025-03-19 14:47:04.676474 -- $GNVTG,,T,,M,0.076,N,0.141,K,D*3D

2025-03-19 14:47:04.881208 -- $GNRMC,134704.70,A,4546.99906,N,00452.86558,E,0.030,,190325,,,D*6F

2025-03-19 14:47:04.881430 -- $GNVTG,,T,,M,0.030,N,0.056,K,D*38

2025-03-19 14:47:05.068948 -- $GNRMC,134704.90,A,4546.99907,N,00452.86562,E,0.061,,190325,,,D*6D

2025-03-19 14:47:05.486714 -- $GNRMC,134705.30,A,4546.99909,N,00452.86571,E,0.125,,190325,,,D*6B

2025-03-19 14:47:05.487108 -- $GNVTG,,T,,M,0.125,N,0.231,K,D*3E

2025-03-19 14:47:05.679724 -- $GNRMC,134705.50,A,4546.99911,N,00452.86575,E,0.078,,190325,,,D*69

2025-03-19 14:47:05.679949 -- $GNVTG,,T,,M,0.078,N,0.144,K,D*36

2025-03-19 14:47:05.874922 -- $GNRMC,134705.70,A,4546.99913,N,00452.86580,E,0.059,,190325,,,D*60

2025-03-19 14:47:05.875291 -- $GNVTG,,T,,M,0.059,N,0.109,K,D*3C

2025-03-19 14:47:06.077353 -- $GNRMC,134705.90,A,4546.99914,N,00452.86585,E,0.116,,190325,,,D*66

2025-03-19 14:47:06.077584 -- $GNVTG,,T,,M,0.116,N,0.215,K,D*38

2025-03-19 14:47:06.291511 -- $GNRMC,134706.10,A,4546.99915,N,00452.86589,E,0.106,,190325,,,D*61

2025-03-19 14:47:06.293483 -- $GNVTG,,T,,M,0.106,N,0.196,K,D*31

2025-03-19 14:47:06.481535 -- $GNRMC,134706.30,A,4546.99916,N,00452.86592,E,0.046,,190325,,,D*6F

2025-03-19 14:47:06.879323 -- $GNRMC,134706.70,A,4546.99920,N,00452.86599,E,0.057,,190325,,,D*65

2025-03-19 14:47:06.879678 -- $GNVTG,,T,,M,0.057,N,0.106,K,D*3D

2025-03-19 14:47:07.078858 -- $GNRMC,134706.90,A,4546.99922,N,00452.86601,E,0.116,,190325,,,D*6F

2025-03-19 14:47:07.079247 -- $GNVTG,,T,,M,0.116,N,0.215,K,D*38

2025-03-19 14:47:07.290340 -- $GNRMC,134707.10,A,4546.99925,N,00452.86603,E,0.038,,190325,,,D*6E

2025-03-19 14:47:07.290596 -- $GNVTG,,T,,M,0.038,N,0.070,K,D*34

2025-03-19 14:47:07.871769 -- $GNRMC,134707.70,A,4546.99927,N,00452.86602,E,0.050,,190325,,,D*65

2025-03-19 14:47:07.874079 -- $GNVTG,,T,,M,0.050,N,0.093,K,D*37

2025-03-19 14:47:08.082386 -- $GNRMC,134707.90,A,4546.99931,N,00452.86599,E,0.041,,190325,,,D*6D

2025-03-19 14:47:08.082723 -- $GNVTG,,T,,M,0.041,N,0.077,K,D*3D

2025-03-19 14:47:08.297090 -- $GNRMC,134708.10,A,4546.99934,N,00452.86598,E,0.085,,190325,,,D*66

2025-03-19 14:47:08.297314 -- $GNVTG,,T,,M,0.085,N,0.158,K,D*39

2025-03-19 14:47:08.483822 -- $GNRMC,134708.30,A,4546.99936,N,00452.86596,E,0.046,,190325,,,D*67

2025-03-19 14:47:08.484225 -- $GNVTG,,T,,M,0.046,N,0.085,K,D*37

2025-03-19 14:47:09.068088 -- $GNRMC,134708.90,A,4546.99948,N,00452.86588,E,0.042,,190325,,,D*6F

2025-03-19 14:47:09.684126 -- $GNRMC,134709.50,A,4546.99960,N,00452.86576,E,0.044,,190325,,,D*6F

2025-03-19 14:47:09.684352 -- $GNVTG,,T,,M,0.044,N,0.082,K,D*32

2025-03-19 14:47:10.288220 -- $GNRMC,134710.10,A,4546.99965,N,00452.86566,E,0.055,,190325,,,D*67

2025-03-19 14:47:10.288492 -- $GNVTG,,T,,M,0.055,N,0.102,K,D*3B

2025-03-19 14:47:10.659688 -- $GNRMC,134710.50,A,4546.99968,N,00452.86561,E,0.025,,190325,,,D*6E

2025-03-19 14:47:10.880039 -- $GNRMC,134710.70,A,4546.99969,N,00452.86559,E,0.152,,190325,,,D*67

2025-03-19 14:47:12.087022 -- $GNRMC,134711.90,A,4546.99982,N,00452.86538,E,0.043,,190325,,,D*6B

2025-03-19 14:47:12.983392 -- $GNRMC,134712.80,A,4546.99986,N,00452.86530,E,0.064,,190325,,,D*60

2025-03-19 14:47:13.199696 -- $GNRMC,134713.00,A,4546.99986,N,00452.86528,E,0.088,,190325,,,D*62

2025-03-19 14:47:13.784504 -- $GNRMC,134713.60,A,4546.99987,N,00452.86524,E,0.051,,190325,,,D*6D

2025-03-19 14:47:13.784702 -- $GNVTG,,T,,M,0.051,N,0.094,K,D*31

2025-03-19 14:47:14.387468 -- $GNRMC,134714.20,A,4546.99988,N,00452.86523,E,0.136,,190325,,,D*66

2025-03-19 14:47:14.387808 -- $GNVTG,,T,,M,0.136,N,0.252,K,D*39

2025-03-19 14:47:15.581574 -- $GNRMC,134715.40,A,4546.99984,N,00452.86520,E,0.178,,190325,,,D*64

2025-03-19 14:47:15.582047 -- $GNVTG,,T,,M,0.178,N,0.330,K,D*36

2025-03-19 14:47:15.783093 -- $GNRMC,134715.60,A,4546.99985,N,00452.86518,E,0.115,,190325,,,D*67

2025-03-19 14:47:15.783429 -- $GNVTG,,T,,M,0.115,N,0.214,K,D*3A

2025-03-19 14:47:16.188141 -- $GNRMC,134716.00,A,4546.99986,N,00452.86515,E,0.020,,190325,,,D*6B

2025-03-19 14:47:16.376426 -- $GNRMC,134716.20,A,4546.99987,N,00452.86513,E,0.081,,190325,,,D*65

2025-03-19 14:47:16.779275 -- $GNRMC,134716.60,A,4546.99994,N,00452.86504,E,0.032,,190325,,,D*6D

2025-03-19 14:47:16.781255 -- $GNVTG,,T,,M,0.032,N,0.059,K,D*35

2025-03-19 14:47:17.187255 -- $GNRMC,134717.00,A,4546.99999,N,00452.86492,E,0.092,,190325,,,D*63

2025-03-19 14:47:17.376972 -- $GNRMC,134717.20,A,4547.00002,N,00452.86487,E,0.063,,190325,,,D*61

2025-03-19 14:47:17.377155 -- $GNVTG,,T,,M,0.063,N,0.118,K,D*35

2025-03-19 14:47:17.569798 -- $GNRMC,134717.40,A,4547.00006,N,00452.86483,E,0.110,,190325,,,D*62

2025-03-19 14:47:17.765176 -- $GNRMC,134717.60,A,4547.00010,N,00452.86477,E,0.089,,190325,,,D*6D

2025-03-19 14:47:17.765368 -- $GNVTG,,T,,M,0.089,N,0.165,K,D*3B

2025-03-19 14:47:17.970541 -- $GNRMC,134717.80,A,4547.00013,N,00452.86472,E,0.008,,190325,,,D*6C

2025-03-19 14:47:17.970709 -- $GNVTG,,T,,M,0.008,N,0.015,K,D*34

2025-03-19 14:47:18.219324 -- $GNRMC,134718.00,A,4547.00016,N,00452.86465,E,0.129,,190325,,,D*6A

2025-03-19 14:47:18.219490 -- $GNVTG,,T,,M,0.129,N,0.238,K,D*3B

2025-03-19 14:47:18.481933 -- $GNRMC,134718.30,A,4547.00018,N,00452.86460,E,0.022,,190325,,,D*68

2025-03-19 14:47:18.482236 -- $GNVTG,,T,,M,0.022,N,0.040,K,D*3C

2025-03-19 14:47:18.863154 -- $GNRMC,134718.70,A,4547.00022,N,00452.86450,E,0.064,,190325,,,D*64

2025-03-19 14:47:18.863321 -- $GNVTG,,T,,M,0.064,N,0.119,K,D*33

2025-03-19 14:47:19.073972 -- $GNRMC,134718.90,A,4547.00025,N,00452.86444,E,0.023,,190325,,,D*6B

2025-03-19 14:47:19.074232 -- $GNVTG,,T,,M,0.023,N,0.042,K,D*3F

2025-03-19 14:47:19.487822 -- $GNRMC,134719.30,A,4547.00032,N,00452.86435,E,0.117,,190325,,,D*66

2025-03-19 14:47:19.488020 -- $GNVTG,,T,,M,0.117,N,0.216,K,D*3A

2025-03-19 14:47:19.876730 -- $GNRMC,134719.70,A,4547.00036,N,00452.86429,E,0.086,,190325,,,D*62

2025-03-19 14:47:19.877162 -- $GNVTG,,T,,M,0.086,N,0.159,K,D*3B

2025-03-19 14:47:21.868808 -- $GNRMC,134721.70,A,4547.00046,N,00452.86416,E,0.025,,190325,,,D*6B

2025-03-19 14:47:22.313704 -- $GNRMC,134722.10,A,4547.00043,N,00452.86412,E,0.052,,190325,,,D*6F

2025-03-19 14:47:22.665896 -- $GNRMC,134722.50,A,4547.00046,N,00452.86408,E,0.037,,190325,,,D*66

2025-03-19 14:47:22.666349 -- $GNVTG,,T,,M,0.037,N,0.068,K,D*32

2025-03-19 14:47:22.870376 -- $GNRMC,134722.70,A,4547.00048,N,00452.86406,E,0.076,,190325,,,D*61

2025-03-19 14:47:22.870740 -- $GNVTG,,T,,M,0.076,N,0.140,K,D*3C

2025-03-19 14:47:23.288777 -- $GNRMC,134723.10,A,4547.00054,N,00452.86403,E,0.104,,190325,,,D*6A

2025-03-19 14:47:23.289190 -- $GNVTG,,T,,M,0.104,N,0.193,K,D*36

2025-03-19 14:47:23.469372 -- $GNRMC,134723.30,A,4547.00058,N,00452.86401,E,0.071,,190325,,,D*65

2025-03-19 14:47:24.666783 -- $GNRMC,134724.50,A,4547.00063,N,00452.86403,E,0.021,,190325,,,D*6B

2025-03-19 14:47:24.666966 -- $GNVTG,,T,,M,0.021,N,0.038,K,D*30

2025-03-19 14:47:25.869660 -- $GNRMC,134725.70,A,4547.00075,N,00452.86401,E,0.083,,190325,,,D*65

2025-03-19 14:47:25.869901 -- $GNVTG,,T,,M,0.083,N,0.154,K,D*33

2025-03-19 14:47:26.876948 -- $GNRMC,134726.70,A,4547.00083,N,00452.86402,E,0.025,,190325,,,D*60

2025-03-19 14:47:27.268090 -- $GNRMC,134727.10,A,4547.00084,N,00452.86403,E,0.067,,190325,,,D*67

2025-03-19 14:47:27.479493 -- $GNRMC,134727.30,A,4547.00083,N,00452.86404,E,0.012,,190325,,,D*67

2025-03-19 14:47:27.479823 -- $GNVTG,,T,,M,0.012,N,0.022,K,D*3B

2025-03-19 14:47:28.286543 -- $GNRMC,134728.10,A,4547.00078,N,00452.86408,E,0.101,,190325,,,D*61

2025-03-19 14:47:28.286714 -- $GNVTG,,T,,M,0.101,N,0.187,K,D*36

2025-03-19 14:47:28.464849 -- $GNRMC,134728.30,A,4547.00077,N,00452.86408,E,0.009,,190325,,,D*65

2025-03-19 14:47:29.265041 -- $GNRMC,134729.10,A,4547.00077,N,00452.86409,E,0.121,,190325,,,D*6C

2025-03-19 14:47:29.265391 -- $GNVTG,,T,,M,0.121,N,0.225,K,D*3F

2025-03-19 14:47:29.468868 -- $GNRMC,134729.30,A,4547.00077,N,00452.86408,E,0.039,,190325,,,D*67

2025-03-19 14:47:29.469042 -- $GNVTG,,T,,M,0.039,N,0.073,K,D*36

2025-03-19 14:47:29.671242 -- $GNRMC,134729.50,A,4547.00078,N,00452.86407,E,0.059,,190325,,,D*67

2025-03-19 14:47:30.060941 -- $GNRMC,134729.90,A,4547.00079,N,00452.86406,E,0.085,,190325,,,D*6A

2025-03-19 14:47:30.061210 -- $GNVTG,,T,,M,0.085,N,0.158,K,D*39

2025-03-19 14:47:30.461809 -- $GNVTG,,T,,M,0.047,N,0.087,K,D*34

2025-03-19 14:47:30.867106 -- $GNRMC,134730.70,A,4547.00080,N,00452.86403,E,0.062,,190325,,,D*66

2025-03-19 14:47:31.885709 -- $GNRMC,134731.70,A,4547.00071,N,00452.86406,E,0.076,,190325,,,D*69

2025-03-19 14:47:31.886018 -- $GNVTG,,T,,M,0.076,N,0.141,K,D*3D

2025-03-19 14:47:32.289450 -- $GNRMC,134732.10,A,4547.00074,N,00452.86405,E,0.036,,190325,,,D*6E

2025-03-19 14:47:32.289623 -- $GNVTG,,T,,M,0.036,N,0.067,K,D*3C

2025-03-19 14:47:32.467203 -- $GNRMC,134732.30,A,4547.00076,N,00452.86405,E,0.007,,190325,,,D*6C

2025-03-19 14:47:32.650744 -- $GNRMC,134732.50,A,4547.00078,N,00452.86404,E,0.043,,190325,,,D*65

2025-03-19 14:47:32.651304 -- $GNVTG,,T,,M,0.043,N,0.080,K,D*37

2025-03-19 14:47:33.265544 -- $GNRMC,134733.10,A,4547.00076,N,00452.86404,E,0.034,,190325,,,D*6E

2025-03-19 14:47:33.463444 -- $GNRMC,134733.30,A,4547.00076,N,00452.86405,E,0.036,,190325,,,D*6F

2025-03-19 14:47:33.463640 -- $GNVTG,,T,,M,0.036,N,0.067,K,D*3C

2025-03-19 14:47:34.462897 -- $GNRMC,134734.30,A,4547.00074,N,00452.86406,E,0.045,,190325,,,D*6D

2025-03-19 14:47:34.463108 -- $GNVTG,,T,,M,0.045,N,0.083,K,D*32

2025-03-19 14:47:34.662440 -- $GNRMC,134734.50,A,4547.00074,N,00452.86405,E,0.037,,190325,,,D*6D

2025-03-19 14:47:34.662640 -- $GNVTG,,T,,M,0.037,N,0.069,K,D*33

2025-03-19 14:47:35.061692 -- $GNRMC,134734.90,A,4547.00071,N,00452.86407,E,0.050,,190325,,,D*67

2025-03-19 14:47:35.661707 -- $GNRMC,134735.50,A,4547.00067,N,00452.86408,E,0.030,,190325,,,D*64

2025-03-19 14:47:35.662038 -- $GNVTG,,T,,M,0.030,N,0.056,K,D*38

2025-03-19 14:47:35.858549 -- $GNRMC,134735.70,A,4547.00067,N,00452.86408,E,0.127,,190325,,,D*61

2025-03-19 14:47:35.858858 -- $GNVTG,,T,,M,0.127,N,0.234,K,D*39

2025-03-19 14:47:36.262284 -- $GNRMC,134736.10,A,4547.00068,N,00452.86406,E,0.052,,190325,,,D*66

2025-03-19 14:47:36.262738 -- $GNVTG,,T,,M,0.052,N,0.097,K,D*31

2025-03-19 14:47:36.461801 -- $GNRMC,134736.30,A,4547.00068,N,00452.86405,E,0.037,,190325,,,D*64

2025-03-19 14:47:36.462120 -- $GNVTG,,T,,M,0.037,N,0.069,K,D*33

2025-03-19 14:47:36.860630 -- $GNRMC,134736.70,A,4547.00071,N,00452.86403,E,0.086,,190325,,,D*64

2025-03-19 14:47:36.860898 -- $GNVTG,,T,,M,0.086,N,0.159,K,D*3B

2025-03-19 14:47:37.063871 -- $GNRMC,134736.90,A,4547.00071,N,00452.86402,E,0.044,,190325,,,D*65

2025-03-19 14:47:37.064060 -- $GNVTG,,T,,M,0.044,N,0.081,K,D*31

2025-03-19 14:47:37.267240 -- $GNRMC,134737.10,A,4547.00071,N,00452.86400,E,0.034,,190325,,,D*69

2025-03-19 14:47:37.267430 -- $GNVTG,,T,,M,0.034,N,0.062,K,D*3B

2025-03-19 14:47:37.466598 -- $GNRMC,134737.30,A,4547.00070,N,00452.86400,E,0.053,,190325,,,D*6B

2025-03-19 14:47:37.667103 -- $GNRMC,134737.50,A,4547.00069,N,00452.86399,E,0.125,,190325,,,D*62

2025-03-19 14:47:38.060023 -- $GNRMC,134737.90,A,4547.00071,N,00452.86397,E,0.024,,190325,,,D*69

2025-03-19 14:47:38.060288 -- $GNVTG,,T,,M,0.024,N,0.045,K,D*3F

2025-03-19 14:47:38.261471 -- $GNRMC,134738.10,A,4547.00072,N,00452.86396,E,0.039,,190325,,,D*60

2025-03-19 14:47:38.261720 -- $GNVTG,,T,,M,0.039,N,0.072,K,D*37

2025-03-19 14:47:39.284212 -- $GNRMC,134739.10,A,4547.00069,N,00452.86389,E,0.083,,190325,,,D*64

2025-03-19 14:47:39.284387 -- $GNVTG,,T,,M,0.083,N,0.154,K,D*33

2025-03-19 14:47:39.663307 -- $GNRMC,134739.50,A,4547.00065,N,00452.86388,E,0.049,,190325,,,D*6B

2025-03-19 14:47:40.059096 -- $GNRMC,134739.90,A,4547.00063,N,00452.86388,E,0.082,,190325,,,D*66

2025-03-19 14:47:41.461600 -- $GNRMC,134741.30,A,4547.00054,N,00452.86395,E,0.047,,190325,,,D*62

2025-03-19 14:47:41.461772 -- $GNVTG,,T,,M,0.047,N,0.088,K,D*3B

2025-03-19 14:47:41.664890 -- $GNRMC,134741.50,A,4547.00054,N,00452.86396,E,0.036,,190325,,,D*61

2025-03-19 14:47:41.862442 -- $GNRMC,134741.70,A,4547.00053,N,00452.86398,E,0.051,,190325,,,D*6B

2025-03-19 14:47:41.862626 -- $GNVTG,,T,,M,0.051,N,0.094,K,D*31

2025-03-19 14:47:42.264529 -- $GNRMC,134742.10,A,4547.00051,N,00452.86399,E,0.039,,190325,,,D*63

2025-03-19 14:47:42.264740 -- $GNVTG,,T,,M,0.039,N,0.073,K,D*36

2025-03-19 14:47:42.670315 -- $GNRMC,134742.50,A,4547.00049,N,00452.86401,E,0.038,,190325,,,D*69

2025-03-19 14:47:42.670498 -- $GNVTG,,T,,M,0.038,N,0.070,K,D*34

2025-03-19 14:47:43.071040 -- $GNRMC,134742.90,A,4547.00044,N,00452.86404,E,0.101,,190325,,,D*66

2025-03-19 14:47:43.657839 -- $GNRMC,134743.50,A,4547.00041,N,00452.86406,E,0.043,,190325,,,D*6B

2025-03-19 14:47:43.658095 -- $GNVTG,,T,,M,0.043,N,0.080,K,D*37

2025-03-19 14:47:44.067108 -- $GNRMC,134743.90,A,4547.00039,N,00452.86407,E,0.020,,190325,,,D*6C

2025-03-19 14:47:44.067383 -- $GNVTG,,T,,M,0.020,N,0.037,K,D*3E

2025-03-19 14:47:44.470674 -- $GNRMC,134744.30,A,4547.00038,N,00452.86407,E,0.043,,190325,,,D*65

2025-03-19 14:47:44.471371 -- $GNVTG,,T,,M,0.043,N,0.081,K,D*36

2025-03-19 14:47:44.666818 -- $GNRMC,134744.50,A,4547.00038,N,00452.86407,E,0.041,,190325,,,D*61

2025-03-19 14:47:45.066425 -- $GNRMC,134744.90,A,4547.00037,N,00452.86408,E,0.058,,190325,,,D*65

2025-03-19 14:47:45.066881 -- $GNVTG,,T,,M,0.058,N,0.107,K,D*33

2025-03-19 14:47:45.666713 -- $GNRMC,134745.50,A,4547.00037,N,00452.86408,E,0.035,,190325,,,D*63

2025-03-19 14:47:46.660169 -- $GNRMC,134746.50,A,4547.00030,N,00452.86404,E,0.148,,190325,,,D*60

2025-03-19 14:47:46.660523 -- $GNVTG,,T,,M,0.148,N,0.274,K,D*34

2025-03-19 14:47:47.668427 -- $GNRMC,134747.50,A,4547.00019,N,00452.86403,E,0.024,,190325,,,D*66

2025-03-19 14:47:47.668774 -- $GNVTG,,T,,M,0.024,N,0.044,K,D*3E

2025-03-19 14:47:48.067353 -- $GNRMC,134747.90,A,4547.00016,N,00452.86402,E,0.069,,190325,,,D*6D

2025-03-19 14:47:48.860887 -- $GNRMC,134748.70,A,4547.00010,N,00452.86399,E,0.077,,190325,,,D*60

2025-03-19 14:47:48.861272 -- $GNVTG,,T,,M,0.077,N,0.143,K,D*3E

2025-03-19 14:47:49.264211 -- $GNRMC,134749.10,A,4547.00010,N,00452.86397,E,0.067,,190325,,,D*68

2025-03-19 14:47:49.264368 -- $GNVTG,,T,,M,0.067,N,0.124,K,D*3E

2025-03-19 14:47:49.475095 -- $GNRMC,134749.30,A,4547.00010,N,00452.86395,E,0.064,,190325,,,D*6B

2025-03-19 14:47:49.475257 -- $GNVTG,,T,,M,0.064,N,0.118,K,D*32

2025-03-19 14:47:49.874815 -- $GNRMC,134749.70,A,4547.00013,N,00452.86394,E,0.055,,190325,,,D*6F

2025-03-19 14:47:50.460991 -- $GNRMC,134750.30,A,4547.00013,N,00452.86390,E,0.113,,190325,,,D*64

2025-03-19 14:47:50.461281 -- $GNVTG,,T,,M,0.113,N,0.208,K,D*31

2025-03-19 14:47:51.068431 -- $GNRMC,134750.90,A,4547.00011,N,00452.86380,E,0.031,,190325,,,D*6C

2025-03-19 14:47:51.470581 -- $GNRMC,134751.30,A,4547.00003,N,00452.86373,E,0.056,,190325,,,D*69

2025-03-19 14:47:51.470770 -- $GNVTG,,T,,M,0.056,N,0.104,K,D*3E

2025-03-19 14:47:52.290332 -- $GNRMC,134752.10,A,4546.99990,N,00452.86362,E,0.077,,190325,,,D*69

2025-03-19 14:47:52.290631 -- $GNVTG,,T,,M,0.077,N,0.142,K,D*3F

2025-03-19 14:47:52.473163 -- $GNRMC,134752.30,A,4546.99989,N,00452.86359,E,0.065,,190325,,,D*68

2025-03-19 14:47:52.473349 -- $GNVTG,,T,,M,0.065,N,0.120,K,D*38

2025-03-19 14:47:52.864836 -- $GNRMC,134752.70,A,4546.99977,N,00452.86352,E,0.057,,190325,,,D*67

2025-03-19 14:47:52.865020 -- $GNVTG,,T,,M,0.057,N,0.106,K,D*3D

2025-03-19 14:47:53.063905 -- $GNRMC,134752.90,A,4546.99972,N,00452.86349,E,0.040,,190325,,,D*60

2025-03-19 14:47:53.064092 -- $GNVTG,,T,,M,0.040,N,0.074,K,D*3F

2025-03-19 14:47:53.265903 -- $GNRMC,134753.10,A,4546.99967,N,00452.86347,E,0.047,,190325,,,D*64

2025-03-19 14:47:53.266280 -- $GNVTG,,T,,M,0.047,N,0.088,K,D*3B

2025-03-19 14:47:53.667853 -- $GNRMC,134753.50,A,4546.99965,N,00452.86343,E,0.151,,190325,,,D*60

2025-03-19 14:47:53.863207 -- $GNRMC,134753.70,A,4546.99964,N,00452.86341,E,0.068,,190325,,,D*6A

2025-03-19 14:47:53.863797 -- $GNVTG,,T,,M,0.068,N,0.125,K,D*30

2025-03-19 14:47:54.261219 -- $GNRMC,134754.10,A,4546.99955,N,00452.86343,E,0.128,,190325,,,D*6E

2025-03-19 14:47:54.649903 -- $GNRMC,134754.50,A,4546.99946,N,00452.86345,E,0.037,,190325,,,D*61

2025-03-19 14:47:54.650488 -- $GNVTG,,T,,M,0.037,N,0.069,K,D*33

2025-03-19 14:47:54.846373 -- $GNRMC,134754.70,A,4546.99946,N,00452.86344,E,0.082,,190325,,,D*6C

2025-03-19 14:47:55.464623 -- $GNRMC,134755.30,A,4546.99934,N,00452.86338,E,0.068,,190325,,,D*63

2025-03-19 14:47:55.464791 -- $GNVTG,,T,,M,0.068,N,0.125,K,D*30

2025-03-19 14:47:56.052093 -- $GNRMC,134755.90,A,4546.99922,N,00452.86331,E,0.234,,190325,,,D*6C

2025-03-19 14:47:56.052274 -- $GNVTG,,T,,M,0.234,N,0.433,K,D*39

2025-03-19 14:47:56.461678 -- $GNRMC,134756.30,A,4546.99925,N,00452.86326,E,0.084,,190325,,,D*6D

2025-03-19 14:47:56.461884 -- $GNVTG,,T,,M,0.084,N,0.156,K,D*36

2025-03-19 14:47:56.661319 -- $GNRMC,134756.50,A,4546.99927,N,00452.86323,E,0.114,,190325,,,D*64

2025-03-19 14:47:56.661477 -- $GNVTG,,T,,M,0.114,N,0.211,K,D*3E

2025-03-19 14:47:57.260500 -- $GNRMC,134757.10,A,4546.99932,N,00452.86315,E,0.109,,190325,,,D*6C

2025-03-19 14:47:57.260710 -- $GNVTG,,T,,M,0.109,N,0.201,K,D*33

2025-03-19 14:47:57.455848 -- $GNRMC,134757.30,A,4546.99932,N,00452.86313,E,0.066,,190325,,,D*60

2025-03-19 14:47:57.456066 -- $GNVTG,,T,,M,0.066,N,0.122,K,D*39

2025-03-19 14:47:58.056141 -- $GNRMC,134757.90,A,4546.99925,N,00452.86307,E,0.078,,190325,,,D*66

2025-03-19 14:47:58.655702 -- $GNRMC,134758.50,A,4546.99926,N,00452.86300,E,0.071,,190325,,,D*68

2025-03-19 14:47:58.655858 -- $GNVTG,,T,,M,0.071,N,0.131,K,D*3D

2025-03-19 14:47:59.263372 -- $GNRMC,134759.10,A,4546.99909,N,00452.86298,E,0.036,,190325,,,D*63

2025-03-19 14:47:59.264100 -- $GNVTG,,T,,M,0.036,N,0.066,K,D*3D

2025-03-19 14:47:59.661734 -- $GNRMC,134759.50,A,4546.99906,N,00452.86294,E,0.147,,190325,,,D*63

2025-03-19 14:47:59.661992 -- $GNVTG,,T,,M,0.147,N,0.272,K,D*3D

2025-03-19 14:48:00.063640 -- $GNRMC,134759.90,A,4546.99898,N,00452.86289,E,0.069,,190325,,,D*68

2025-03-19 14:48:00.254178 -- $GNRMC,134800.10,A,4546.99895,N,00452.86286,E,0.026,,190325,,,D*6A

2025-03-19 14:48:00.254424 -- $GNVTG,,T,,M,0.026,N,0.047,K,D*3F

2025-03-19 14:48:00.455795 -- $GNRMC,134800.30,A,4546.99897,N,00452.86284,E,0.050,,190325,,,D*69

2025-03-19 14:48:00.455951 -- $GNVTG,,T,,M,0.050,N,0.093,K,D*37

2025-03-19 14:48:00.660985 -- $GNRMC,134800.50,A,4546.99898,N,00452.86281,E,0.051,,190325,,,D*64

2025-03-19 14:48:00.856340 -- $GNRMC,134800.70,A,4546.99899,N,00452.86278,E,0.014,,190325,,,D*60

2025-03-19 14:48:01.058968 -- $GNRMC,134800.90,A,4546.99899,N,00452.86277,E,0.074,,190325,,,D*67

2025-03-19 14:48:01.059137 -- $GNVTG,,T,,M,0.074,N,0.137,K,D*3E

2025-03-19 14:48:01.262734 -- $GNRMC,134801.10,A,4546.99900,N,00452.86275,E,0.068,,190325,,,D*60

2025-03-19 14:48:01.262917 -- $GNVTG,,T,,M,0.068,N,0.126,K,D*33

2025-03-19 14:48:02.064671 -- $GNRMC,134801.90,A,4546.99882,N,00452.86273,E,0.058,,190325,,,D*66

2025-03-19 14:48:02.264332 -- $GNRMC,134802.10,A,4546.99877,N,00452.86272,E,0.083,,190325,,,D*60

2025-03-19 14:48:02.264639 -- $GNVTG,,T,,M,0.083,N,0.155,K,D*32

2025-03-19 14:48:02.475744 -- $GNRMC,134802.30,A,4546.99872,N,00452.86271,E,0.050,,190325,,,D*6A

2025-03-19 14:48:02.475951 -- $GNVTG,,T,,M,0.050,N,0.093,K,D*37

2025-03-19 14:48:02.855958 -- $GNRMC,134802.70,A,4546.99869,N,00452.86268,E,0.055,,190325,,,D*69

2025-03-19 14:48:02.856217 -- $GNVTG,,T,,M,0.055,N,0.101,K,D*38

2025-03-19 14:48:03.043819 -- $GNRMC,134802.90,A,4546.99870,N,00452.86266,E,0.106,,190325,,,D*66

2025-03-19 14:48:03.259009 -- $GNVTG,,T,,M,0.103,N,0.191,K,D*33

2025-03-19 14:48:03.460665 -- $GNRMC,134803.30,A,4546.99872,N,00452.86261,E,0.089,,190325,,,D*6E

2025-03-19 14:48:03.461089 -- $GNVTG,,T,,M,0.089,N,0.164,K,D*3A

2025-03-19 14:48:03.861016 -- $GNRMC,134803.70,A,4546.99871,N,00452.86260,E,0.131,,190325,,,D*6A

2025-03-19 14:48:03.861214 -- $GNVTG,,T,,M,0.131,N,0.242,K,D*3F

2025-03-19 14:48:04.445263 -- $GNRMC,134804.30,A,4546.99854,N,00452.86261,E,0.098,,190325,,,D*6D

2025-03-19 14:48:04.445567 -- $GNVTG,,T,,M,0.098,N,0.182,K,D*32

2025-03-19 14:48:04.652885 -- $GNRMC,134804.50,A,4546.99847,N,00452.86262,E,0.051,,190325,,,D*6F

2025-03-19 14:48:05.051636 -- $GNRMC,134804.90,A,4546.99835,N,00452.86262,E,0.154,,190325,,,D*62

2025-03-19 14:48:05.051843 -- $GNVTG,,T,,M,0.154,N,0.286,K,D*34

2025-03-19 14:48:05.255430 -- $GNRMC,134805.10,A,4546.99829,N,00452.86262,E,0.013,,190325,,,D*64

2025-03-19 14:48:05.255637 -- $GNVTG,,T,,M,0.013,N,0.024,K,D*3C

2025-03-19 14:48:05.843761 -- $GNRMC,134805.70,A,4546.99814,N,00452.86258,E,0.115,,190325,,,D*62

2025-03-19 14:48:05.843936 -- $GNVTG,,T,,M,0.115,N,0.213,K,D*3D

2025-03-19 14:48:06.048420 -- $GNRMC,134805.90,A,4546.99810,N,00452.86256,E,0.011,,190325,,,D*63

2025-03-19 14:48:06.048591 -- $GNVTG,,T,,M,0.011,N,0.019,K,D*30

2025-03-19 14:48:07.048768 -- $GNRMC,134806.90,A,4546.99816,N,00452.86245,E,0.120,,190325,,,D*67

2025-03-19 14:48:07.048944 -- $GNVTG,,T,,M,0.120,N,0.222,K,D*39

2025-03-19 14:48:07.648485 -- $GNRMC,134807.50,A,4546.99814,N,00452.86242,E,0.024,,190325,,,D*6A

2025-03-19 14:48:07.648757 -- $GNVTG,,T,,M,0.024,N,0.045,K,D*3F

2025-03-19 14:48:07.848284 -- $GNRMC,134807.70,A,4546.99814,N,00452.86242,E,0.037,,190325,,,D*6A

2025-03-19 14:48:07.848543 -- $GNVTG,,T,,M,0.037,N,0.068,K,D*32

2025-03-19 14:48:08.251927 -- $GNRMC,134808.10,A,4546.99817,N,00452.86238,E,0.104,,190325,,,D*6C

2025-03-19 14:48:08.252087 -- $GNVTG,,T,,M,0.104,N,0.192,K,D*37

2025-03-19 14:48:08.442259 -- $GNRMC,134808.30,A,4546.99819,N,00452.86235,E,0.161,,190325,,,D*6E

2025-03-19 14:48:08.643035 -- $GNRMC,134808.50,A,4546.99822,N,00452.86235,E,0.124,,190325,,,D*61

2025-03-19 14:48:08.846899 -- $GNRMC,134808.70,A,4546.99824,N,00452.86236,E,0.142,,190325,,,D*66

2025-03-19 14:48:08.847175 -- $GNVTG,,T,,M,0.142,N,0.262,K,D*39

2025-03-19 14:48:09.447180 -- $GNRMC,134809.30,A,4546.99832,N,00452.86232,E,0.056,,190325,,,D*64

2025-03-19 14:48:09.448143 -- $GNVTG,,T,,M,0.056,N,0.104,K,D*3E

2025-03-19 14:48:09.846297 -- $GNRMC,134809.70,A,4546.99834,N,00452.86229,E,0.034,,190325,,,D*68

2025-03-19 14:48:09.846504 -- $GNVTG,,T,,M,0.034,N,0.063,K,D*3A

2025-03-19 14:48:10.442557 -- $GNRMC,134810.30,A,4546.99840,N,00452.86224,E,0.047,,190325,,,D*6E

2025-03-19 14:48:10.643751 -- $GNRMC,134810.50,A,4546.99839,N,00452.86224,E,0.123,,190325,,,D*65

2025-03-19 14:48:10.643921 -- $GNVTG,,T,,M,0.123,N,0.228,K,D*30

2025-03-19 14:48:11.436142 -- $GNRMC,134811.30,A,4546.99840,N,00452.86222,E,0.035,,190325,,,D*6C

2025-03-19 14:48:11.651187 -- $GNRMC,134811.50,A,4546.99839,N,00452.86221,E,0.084,,190325,,,D*6D

2025-03-19 14:48:11.651624 -- $GNVTG,,T,,M,0.084,N,0.156,K,D*36

2025-03-19 14:48:12.648226 -- $GNRMC,134812.50,A,4546.99845,N,00452.86222,E,0.016,,190325,,,D*6D

2025-03-19 14:48:12.648583 -- $GNVTG,,T,,M,0.016,N,0.029,K,D*34

2025-03-19 14:48:12.851824 -- $GNRMC,134812.70,A,4546.99846,N,00452.86224,E,0.035,,190325,,,D*6B

2025-03-19 14:48:13.054853 -- $GNRMC,134812.90,A,4546.99846,N,00452.86225,E,0.084,,190325,,,D*6E

2025-03-19 14:48:13.457093 -- $GNRMC,134813.30,A,4546.99847,N,00452.86227,E,0.141,,190325,,,D*6E

2025-03-19 14:48:13.457388 -- $GNVTG,,T,,M,0.141,N,0.261,K,D*39

2025-03-19 14:48:14.255812 -- $GNRMC,134814.10,A,4546.99852,N,00452.86233,E,0.070,,190325,,,D*69

2025-03-19 14:48:14.457411 -- $GNRMC,134814.30,A,4546.99852,N,00452.86234,E,0.163,,190325,,,D*6F

2025-03-19 14:48:14.656196 -- $GNRMC,134814.50,A,4546.99851,N,00452.86235,E,0.032,,190325,,,D*6E

2025-03-19 14:48:14.657746 -- $GNVTG,,T,,M,0.032,N,0.059,K,D*35

2025-03-19 14:48:14.862143 -- $GNRMC,134814.70,A,4546.99842,N,00452.86236,E,0.109,,190325,,,D*64

2025-03-19 14:48:15.261716 -- $GNRMC,134815.10,A,4546.99840,N,00452.86239,E,0.072,,190325,,,D*63

2025-03-19 14:48:15.262013 -- $GNVTG,,T,,M,0.072,N,0.133,K,D*3C

2025-03-19 14:48:15.661877 -- $GNRMC,134815.50,A,4546.99840,N,00452.86242,E,0.136,,190325,,,D*6A

2025-03-19 14:48:15.858066 -- $GNRMC,134815.70,A,4546.99839,N,00452.86243,E,0.093,,190325,,,D*69

2025-03-19 14:48:16.262539 -- $GNRMC,134816.10,A,4546.99830,N,00452.86244,E,0.048,,190325,,,D*64

2025-03-19 14:48:16.455820 -- $GNRMC,134816.30,A,4546.99822,N,00452.86245,E,0.023,,190325,,,D*69

2025-03-19 14:48:16.456127 -- $GNVTG,,T,,M,0.023,N,0.042,K,D*3F

2025-03-19 14:48:17.857960 -- $GNRMC,134817.70,A,4546.99786,N,00452.86250,E,0.056,,190325,,,D*6B

2025-03-19 14:48:18.057431 -- $GNRMC,134817.90,A,4546.99781,N,00452.86250,E,0.048,,190325,,,D*6D

2025-03-19 14:48:18.457868 -- $GNRMC,134818.30,A,4546.99772,N,00452.86252,E,0.024,,190325,,,D*6C

2025-03-19 14:48:18.458054 -- $GNVTG,,T,,M,0.024,N,0.044,K,D*3E

2025-03-19 14:48:19.060493 -- $GNRMC,134818.90,A,4546.99769,N,00452.86251,E,0.105,,190325,,,D*6D

2025-03-19 14:48:19.060781 -- $GNVTG,,T,,M,0.105,N,0.194,K,D*30

2025-03-19 14:48:19.269084 -- $GNRMC,134819.10,A,4546.99764,N,00452.86251,E,0.049,,190325,,,D*60

2025-03-19 14:48:19.269268 -- $GNVTG,,T,,M,0.049,N,0.091,K,D*3D

2025-03-19 14:48:19.462613 -- $GNRMC,134819.30,A,4546.99760,N,00452.86250,E,0.033,,190325,,,D*6A

2025-03-19 14:48:19.462785 -- $GNVTG,,T,,M,0.033,N,0.061,K,D*3F

2025-03-19 14:48:19.653789 -- $GNRMC,134819.50,A,4546.99756,N,00452.86249,E,0.060,,190325,,,D*67

2025-03-19 14:48:19.654023 -- $GNVTG,,T,,M,0.060,N,0.110,K,D*3E

2025-03-19 14:48:19.877260 -- $GNRMC,134819.70,A,4546.99742,N,00452.86248,E,0.070,,190325,,,D*60

2025-03-19 14:48:19.877513 -- $GNVTG,,T,,M,0.070,N,0.130,K,D*3D

2025-03-19 14:48:20.065865 -- $GNRMC,134819.90,A,4546.99730,N,00452.86247,E,0.067,,190325,,,D*62

2025-03-19 14:48:20.066028 -- $GNVTG,,T,,M,0.067,N,0.124,K,D*3E

2025-03-19 14:48:20.272678 -- $GNRMC,134820.10,A,4546.99729,N,00452.86246,E,0.045,,190325,,,D*69

2025-03-19 14:48:20.272874 -- $GNVTG,,T,,M,0.045,N,0.083,K,D*32

2025-03-19 14:48:20.660470 -- $GNRMC,134820.50,A,4546.99724,N,00452.86246,E,0.063,,190325,,,D*64

2025-03-19 14:48:20.864232 -- $GNRMC,134820.70,A,4546.99724,N,00452.86247,E,0.027,,190325,,,D*67

2025-03-19 14:48:21.062648 -- $GNRMC,134820.90,A,4546.99725,N,00452.86247,E,0.015,,190325,,,D*69

2025-03-19 14:48:21.462986 -- $GNRMC,134821.30,A,4546.99728,N,00452.86250,E,0.013,,190325,,,D*6F

2025-03-19 14:48:21.667466 -- $GNRMC,134821.50,A,4546.99729,N,00452.86252,E,0.015,,190325,,,D*6C

2025-03-19 14:48:21.859324 -- $GNRMC,134821.70,A,4546.99730,N,00452.86254,E,0.023,,190325,,,D*65

2025-03-19 14:48:22.270642 -- $GNRMC,134822.10,A,4546.99738,N,00452.86259,E,0.024,,190325,,,D*62

2025-03-19 14:48:22.270850 -- $GNVTG,,T,,M,0.024,N,0.045,K,D*3F

2025-03-19 14:48:22.456145 -- $GNRMC,134822.30,A,4546.99740,N,00452.86261,E,0.108,,190325,,,D*6B

2025-03-19 14:48:22.456364 -- $GNVTG,,T,,M,0.108,N,0.199,K,D*30

2025-03-19 14:48:23.066156 -- $GNRMC,134822.90,A,4546.99742,N,00452.86270,E,0.102,,190325,,,D*69

2025-03-19 14:48:24.060728 -- $GNRMC,134823.90,A,4546.99736,N,00452.86275,E,0.029,,190325,,,D*66

2025-03-19 14:48:24.060949 -- $GNVTG,,T,,M,0.029,N,0.054,K,D*32

2025-03-19 14:48:24.468035 -- $GNRMC,134824.30,A,4546.99733,N,00452.86276,E,0.115,,190325,,,D*63

2025-03-19 14:48:24.468198 -- $GNVTG,,T,,M,0.115,N,0.214,K,D*3A

2025-03-19 14:48:24.861719 -- $GNRMC,134824.70,A,4546.99729,N,00452.86278,E,0.108,,190325,,,D*6E

2025-03-19 14:48:24.861879 -- $GNVTG,,T,,M,0.108,N,0.201,K,D*32

2025-03-19 14:48:25.260817 -- $GNRMC,134825.10,A,4546.99720,N,00452.86282,E,0.093,,190325,,,D*66

2025-03-19 14:48:25.260980 -- $GNVTG,,T,,M,0.093,N,0.173,K,D*37

2025-03-19 14:48:26.466694 -- $GNRMC,134826.30,A,4546.99707,N,00452.86301,E,0.029,,190325,,,D*69

2025-03-19 14:48:26.466967 -- $GNVTG,,T,,M,0.029,N,0.053,K,D*35

2025-03-19 14:48:26.874627 -- $GNRMC,134826.70,A,4546.99695,N,00452.86317,E,0.097,,190325,,,D*65

2025-03-19 14:48:27.665460 -- $GNRMC,134827.50,A,4546.99683,N,00452.86340,E,0.047,,190325,,,D*6E

2025-03-19 14:48:27.665719 -- $GNVTG,,T,,M,0.047,N,0.087,K,D*34

2025-03-19 14:48:28.063306 -- $GNRMC,134827.90,A,4546.99673,N,00452.86348,E,0.055,,190325,,,D*66

2025-03-19 14:48:28.457650 -- $GNRMC,134828.30,A,4546.99670,N,00452.86351,E,0.040,,190325,,,D*6C

2025-03-19 14:48:29.463407 -- $GNRMC,134829.30,A,4546.99667,N,00452.86363,E,0.059,,190325,,,D*62

2025-03-19 14:48:29.863567 -- $GNRMC,134829.70,A,4546.99667,N,00452.86365,E,0.078,,190325,,,D*63

2025-03-19 14:48:30.268642 -- $GNRMC,134830.10,A,4546.99667,N,00452.86367,E,0.113,,190325,,,D*63

2025-03-19 14:48:30.269215 -- $GNVTG,,T,,M,0.113,N,0.210,K,D*38

2025-03-19 14:48:30.647621 -- $GNRMC,134830.50,A,4546.99665,N,00452.86369,E,0.055,,190325,,,D*68

2025-03-19 14:48:30.648129 -- $GNVTG,,T,,M,0.055,N,0.102,K,D*3B

2025-03-19 14:48:31.271561 -- $GNRMC,134831.10,A,4546.99664,N,00452.86372,E,0.122,,190325,,,D*67

2025-03-19 14:48:31.473149 -- $GNRMC,134831.30,A,4546.99659,N,00452.86373,E,0.054,,190325,,,D*6A

2025-03-19 14:48:31.473331 -- $GNVTG,,T,,M,0.054,N,0.100,K,D*38

2025-03-19 14:48:31.870779 -- $GNRMC,134831.70,A,4546.99650,N,00452.86374,E,0.043,,190325,,,D*66

2025-03-19 14:48:31.871235 -- $GNVTG,,T,,M,0.043,N,0.079,K,D*31

2025-03-19 14:48:32.076349 -- $GNRMC,134831.90,A,4546.99643,N,00452.86379,E,0.061,,190325,,,D*67

2025-03-19 14:48:32.278131 -- $GNRMC,134832.10,A,4546.99639,N,00452.86383,E,0.031,,190325,,,D*61

2025-03-19 14:48:32.278294 -- $GNVTG,,T,,M,0.031,N,0.057,K,D*38

2025-03-19 14:48:33.072895 -- $GNRMC,134832.90,A,4546.99632,N,00452.86394,E,0.080,,190325,,,D*6E

2025-03-19 14:48:33.073076 -- $GNVTG,,T,,M,0.080,N,0.148,K,D*3D

2025-03-19 14:48:33.283507 -- $GNRMC,134833.10,A,4546.99633,N,00452.86396,E,0.142,,190325,,,D*6B

2025-03-19 14:48:33.283672 -- $GNVTG,,T,,M,0.142,N,0.262,K,D*39

2025-03-19 14:48:33.677516 -- $GNRMC,134833.50,A,4546.99633,N,00452.86399,E,0.021,,190325,,,D*64

2025-03-19 14:48:33.677771 -- $GNVTG,,T,,M,0.021,N,0.039,K,D*31

2025-03-19 14:48:34.078622 -- $GNRMC,134833.90,A,4546.99631,N,00452.86403,E,0.033,,190325,,,D*6D

2025-03-19 14:48:34.079004 -- $GNVTG,,T,,M,0.033,N,0.062,K,D*3C

2025-03-19 14:48:34.676703 -- $GNRMC,134834.50,A,4546.99630,N,00452.86407,E,0.128,,190325,,,D*68

2025-03-19 14:48:34.878969 -- $GNRMC,134834.70,A,4546.99631,N,00452.86409,E,0.132,,190325,,,D*6E

2025-03-19 14:48:34.879133 -- $GNVTG,,T,,M,0.132,N,0.245,K,D*3B

2025-03-19 14:48:35.082696 -- $GNRMC,134834.90,A,4546.99631,N,00452.86411,E,0.116,,190325,,,D*6F

2025-03-19 14:48:35.294327 -- $GNRMC,134835.10,A,4546.99630,N,00452.86412,E,0.154,,190325,,,D*62

2025-03-19 14:48:35.294481 -- $GNVTG,,T,,M,0.154,N,0.285,K,D*37

2025-03-19 14:48:35.479566 -- $GNRMC,134835.30,A,4546.99629,N,00452.86414,E,0.113,,190325,,,D*6D

2025-03-19 14:48:35.683692 -- $GNRMC,134835.50,A,4546.99628,N,00452.86416,E,0.127,,190325,,,D*6F

2025-03-19 14:48:35.684013 -- $GNVTG,,T,,M,0.127,N,0.236,K,D*3B

2025-03-19 14:48:35.879216 -- $GNRMC,134835.70,A,4546.99628,N,00452.86419,E,0.039,,190325,,,D*6C

2025-03-19 14:48:36.064446 -- $GNRMC,134835.90,A,4546.99628,N,00452.86421,E,0.081,,190325,,,D*6A

2025-03-19 14:48:36.064759 -- $GNVTG,,T,,M,0.081,N,0.151,K,D*34

2025-03-19 14:48:36.273866 -- $GNRMC,134836.10,A,4546.99629,N,00452.86422,E,0.075,,190325,,,D*68

2025-03-19 14:48:36.274153 -- $GNVTG,,T,,M,0.075,N,0.139,K,D*31

2025-03-19 14:48:36.470492 -- $GNRMC,134836.30,A,4546.99629,N,00452.86424,E,0.075,,190325,,,D*6C

2025-03-19 14:48:36.470808 -- $GNVTG,,T,,M,0.075,N,0.139,K,D*31

2025-03-19 14:48:36.673746 -- $GNRMC,134836.50,A,4546.99628,N,00452.86428,E,0.135,,190325,,,D*62

2025-03-19 14:48:36.674305 -- $GNVTG,,T,,M,0.135,N,0.249,K,D*30

2025-03-19 14:48:36.865919 -- $GNRMC,134836.70,A,4546.99622,N,00452.86434,E,0.181,,190325,,,D*68

2025-03-19 14:48:36.866297 -- $GNVTG,,T,,M,0.181,N,0.335,K,D*35

2025-03-19 14:48:37.870059 -- $GNRMC,134837.70,A,4546.99613,N,00452.86451,E,0.142,,190325,,,D*67

2025-03-19 14:48:37.870302 -- $GNVTG,,T,,M,0.142,N,0.264,K,D*3F

2025-03-19 14:48:38.072339 -- $GNRMC,134837.90,A,4546.99613,N,00452.86453,E,0.078,,190325,,,D*63

2025-03-19 14:48:38.072510 -- $GNVTG,,T,,M,0.078,N,0.145,K,D*37

2025-03-19 14:48:38.282103 -- $GNRMC,134838.10,A,4546.99612,N,00452.86454,E,0.010,,190325,,,D*6C

2025-03-19 14:48:38.282292 -- $GNVTG,,T,,M,0.010,N,0.019,K,D*31

2025-03-19 14:48:38.470293 -- $GNRMC,134838.30,A,4546.99613,N,00452.86457,E,0.091,,190325,,,D*65

2025-03-19 14:48:38.470566 -- $GNVTG,,T,,M,0.091,N,0.168,K,D*3F

2025-03-19 14:48:39.665236 -- $GNRMC,134839.50,A,4546.99611,N,00452.86468,E,0.019,,190325,,,D*6C

2025-03-19 14:48:39.665527 -- $GNVTG,,T,,M,0.019,N,0.035,K,D*36

2025-03-19 14:48:40.266690 -- $GNRMC,134840.10,A,4546.99616,N,00452.86475,E,0.076,,190325,,,D*64

2025-03-19 14:48:40.266850 -- $GNVTG,,T,,M,0.076,N,0.141,K,D*3D

2025-03-19 14:48:40.466950 -- $GNRMC,134840.30,A,4546.99617,N,00452.86478,E,0.056,,190325,,,D*68

2025-03-19 14:48:40.467121 -- $GNVTG,,T,,M,0.056,N,0.103,K,D*39

2025-03-19 14:48:41.070230 -- $GNRMC,134840.90,A,4546.99619,N,00452.86485,E,0.042,,190325,,,D*6B

2025-03-19 14:48:41.268185 -- $GNRMC,134841.10,A,4546.99620,N,00452.86487,E,0.047,,190325,,,D*6F

2025-03-19 14:48:41.268513 -- $GNVTG,,T,,M,0.047,N,0.087,K,D*34

2025-03-19 14:48:41.458431 -- $GNRMC,134841.30,A,4546.99620,N,00452.86488,E,0.018,,190325,,,D*68

2025-03-19 14:48:41.458591 -- $GNVTG,,T,,M,0.018,N,0.034,K,D*36

2025-03-19 14:48:41.851224 -- $GNRMC,134841.70,A,4546.99622,N,00452.86490,E,0.085,,190325,,,D*63

2025-03-19 14:48:41.851485 -- $GNVTG,,T,,M,0.085,N,0.158,K,D*39

