2025-06-13 03:46:59.717795 -- $GNVTG,236.12,T,,M,2.596,N,4.808,K,D*2E

2025-06-13 03:46:59.917126 -- $GNRMC,014659.75,A,4546.10889,N,00501.55154,E,2.545,237.00,130625,,,D*74

2025-06-13 03:47:00.130587 -- $GNRMC,014659.95,A,4546.10881,N,00501.55138,E,2.500,239.75,130625,,,D*75

2025-06-13 03:47:00.130997 -- $GNVTG,239.75,T,,M,2.500,N,4.629,K,D*22

2025-06-13 03:47:00.713804 -- $GNRMC,014700.55,A,4546.10863,N,00501.55090,E,2.170,239.84,130625,,,D*76

2025-06-13 03:47:01.111414 -- $GNRMC,014700.95,A,4546.10851,N,00501.55062,E,1.918,241.06,130625,,,D*76

2025-06-13 03:47:01.112133 -- $GNVTG,241.06,T,,M,1.918,N,3.552,K,D*27

2025-06-13 03:47:01.321366 -- $GNRMC,014701.15,A,4546.10846,N,00501.55049,E,1.783,245.27,130625,,,D*7B

2025-06-13 03:47:01.321629 -- $GNVTG,245.27,T,,M,1.783,N,3.302,K,D*2F

2025-06-13 03:47:01.501644 -- $GNRMC,014701.35,A,4546.10841,N,00501.55036,E,1.781,245.60,130625,,,D*77

2025-06-13 03:47:01.714143 -- $GNRMC,014701.55,A,4546.10836,N,00501.55024,E,1.700,242.97,130625,,,D*74

2025-06-13 03:47:02.518140 -- $GNRMC,014702.35,A,4546.10820,N,00501.54984,E,1.463,244.67,130625,,,D*7B

2025-06-13 03:47:02.518721 -- $GNVTG,244.67,T,,M,1.463,N,2.709,K,D*29

2025-06-13 03:47:03.313474 -- $GNRMC,014703.15,A,4546.10810,N,00501.54961,E,0.189,,130625,,,D*6D

2025-06-13 03:47:03.313697 -- $GNVTG,,T,,M,0.189,N,0.351,K,D*3F

2025-06-13 03:47:03.719406 -- $GNRMC,014703.55,A,4546.10808,N,00501.54965,E,0.212,,130625,,,D*65

2025-06-13 03:47:03.719784 -- $GNVTG,,T,,M,0.212,N,0.392,K,D*31

2025-06-13 03:47:04.122437 -- $GNRMC,014703.95,A,4546.10805,N,00501.54967,E,0.083,,130625,,,D*6C

2025-06-13 03:47:04.310414 -- $GNRMC,014704.15,A,4546.10805,N,00501.54969,E,0.059,,130625,,,D*6A

2025-06-13 03:47:04.310762 -- $GNVTG,,T,,M,0.059,N,0.110,K,D*34

2025-06-13 03:47:04.513380 -- $GNRMC,014704.35,A,4546.10804,N,00501.54970,E,0.041,,130625,,,D*68

2025-06-13 03:47:04.513620 -- $GNVTG,,T,,M,0.041,N,0.077,K,D*3D

2025-06-13 03:47:04.722434 -- $GNRMC,014704.55,A,4546.10804,N,00501.54971,E,0.031,,130625,,,D*68

2025-06-13 03:47:04.925608 -- $GNRMC,014704.75,A,4546.10803,N,00501.54973,E,0.052,,130625,,,D*6A

2025-06-13 03:47:04.925841 -- $GNVTG,,T,,M,0.052,N,0.097,K,D*31

2025-06-13 03:47:05.334429 -- $GNRMC,014705.15,A,4546.10802,N,00501.54976,E,0.020,,130625,,,D*6C

2025-06-13 03:47:05.334759 -- $GNVTG,,T,,M,0.020,N,0.038,K,D*31

2025-06-13 03:47:05.522659 -- $GNRMC,014705.35,A,4546.10802,N,00501.54977,E,0.026,,130625,,,D*69

2025-06-13 03:47:05.522919 -- $GNVTG,,T,,M,0.026,N,0.048,K,D*30

2025-06-13 03:47:05.724561 -- $GNRMC,014705.55,A,4546.10802,N,00501.54979,E,0.004,,130625,,,D*61

2025-06-13 03:47:06.136674 -- $GNRMC,014705.95,A,4546.10802,N,00501.54982,E,0.020,,130625,,,D*6F

2025-06-13 03:47:06.136928 -- $GNVTG,,T,,M,0.020,N,0.038,K,D*31

2025-06-13 03:47:06.516116 -- $GNRMC,014706.35,A,4546.10801,N,00501.54984,E,0.050,,130625,,,D*64

2025-06-13 03:47:06.516520 -- $GNVTG,,T,,M,0.050,N,0.093,K,D*37

2025-06-13 03:47:07.111486 -- $GNRMC,014706.95,A,4546.10801,N,00501.54988,E,0.096,,130625,,,D*68

2025-06-13 03:47:07.111811 -- $GNVTG,,T,,M,0.096,N,0.179,K,D*38

2025-06-13 03:47:08.131511 -- $GNVTG,,T,,M,0.030,N,0.055,K,D*3B

2025-06-13 03:47:08.510887 -- $GNRMC,014708.35,A,4546.10801,N,00501.54997,E,0.014,,130625,,,D*68

2025-06-13 03:47:08.511110 -- $GNVTG,,T,,M,0.014,N,0.026,K,D*39

2025-06-13 03:47:09.335424 -- $GNRMC,014709.15,A,4546.10800,N,00501.55002,E,0.026,,130625,,,D*6F

2025-06-13 03:47:09.335770 -- $GNVTG,,T,,M,0.026,N,0.048,K,D*30

2025-06-13 03:47:09.721081 -- $GNRMC,014709.55,A,4546.10800,N,00501.55004,E,0.061,,130625,,,D*6E

2025-06-13 03:47:09.721446 -- $GNVTG,,T,,M,0.061,N,0.113,K,D*3C

2025-06-13 03:47:10.134709 -- $GNRMC,014709.95,A,4546.10799,N,00501.55005,E,0.023,,130625,,,D*6A

2025-06-13 03:47:10.134989 -- $GNVTG,,T,,M,0.023,N,0.043,K,D*3E

2025-06-13 03:47:10.928984 -- $GNRMC,014710.75,A,4546.10799,N,00501.55008,E,0.060,,130625,,,D*66

2025-06-13 03:47:10.929336 -- $GNVTG,,T,,M,0.060,N,0.112,K,D*3C

2025-06-13 03:47:11.332687 -- $GNRMC,014711.15,A,4546.10798,N,00501.55009,E,0.062,,130625,,,D*63

2025-06-13 03:47:11.333051 -- $GNVTG,,T,,M,0.062,N,0.114,K,D*38

2025-06-13 03:47:11.721685 -- $GNRMC,014711.55,A,4546.10796,N,00501.55008,E,0.297,,130625,,,D*60

2025-06-13 03:47:11.942943 -- $GNRMC,014711.75,A,4546.10794,N,00501.55005,E,0.631,240.43,130625,,,D*7A

2025-06-13 03:47:11.943404 -- $GNVTG,240.43,T,,M,0.631,N,1.169,K,D*2C

2025-06-13 03:47:12.152585 -- $GNRMC,014711.95,A,4546.10792,N,00501.54999,E,0.972,247.68,130625,,,D*79

2025-06-13 03:47:12.342188 -- $GNRMC,014712.15,A,4546.10788,N,00501.54990,E,1.441,246.64,130625,,,D*71

2025-06-13 03:47:12.342459 -- $GNVTG,246.64,T,,M,1.441,N,2.668,K,D*2E

2025-06-13 03:47:12.525982 -- $GNRMC,014712.35,A,4546.10784,N,00501.54978,E,1.819,242.11,130625,,,D*7E

2025-06-13 03:47:12.526282 -- $GNVTG,242.11,T,,M,1.819,N,3.369,K,D*2C

2025-06-13 03:47:12.723558 -- $GNRMC,014712.55,A,4546.10777,N,00501.54963,E,2.284,240.30,130625,,,D*72

2025-06-13 03:47:13.136635 -- $GNRMC,014712.95,A,4546.10766,N,00501.54928,E,2.663,248.15,130625,,,D*73

2025-06-13 03:47:13.344604 -- $GNRMC,014713.15,A,4546.10760,N,00501.54908,E,3.071,246.98,130625,,,D*71

2025-06-13 03:47:13.344969 -- $GNVTG,246.98,T,,M,3.071,N,5.687,K,D*2E

2025-06-13 03:47:13.532821 -- $GNRMC,014713.35,A,4546.10754,N,00501.54884,E,3.332,252.12,130625,,,D*72

2025-06-13 03:47:13.533270 -- $GNVTG,252.12,T,,M,3.332,N,6.171,K,D*20

2025-06-13 03:47:13.737241 -- $GNRMC,014713.55,A,4546.10749,N,00501.54859,E,3.564,253.30,130625,,,D*7C

2025-06-13 03:47:13.737489 -- $GNVTG,253.30,T,,M,3.564,N,6.601,K,D*24

2025-06-13 03:47:13.933596 -- $GNRMC,014713.75,A,4546.10744,N,00501.54832,E,3.694,254.56,130625,,,D*75

2025-06-13 03:47:13.933924 -- $GNVTG,254.56,T,,M,3.694,N,6.841,K,D*25

2025-06-13 03:47:14.140569 -- $GNRMC,014713.95,A,4546.10738,N,00501.54803,E,4.046,254.78,130625,,,D*70

2025-06-13 03:47:14.140897 -- $GNVTG,254.78,T,,M,4.046,N,7.494,K,D*22

2025-06-13 03:47:14.345670 -- $GNRMC,014714.15,A,4546.10730,N,00501.54771,E,4.397,251.82,130625,,,D*72

2025-06-13 03:47:14.345982 -- $GNVTG,251.82,T,,M,4.397,N,8.143,K,D*2D

2025-06-13 03:47:14.739038 -- $GNRMC,014714.55,A,4546.10715,N,00501.54699,E,4.984,256.43,130625,,,D*74

2025-06-13 03:47:14.739414 -- $GNVTG,256.43,T,,M,4.984,N,9.230,K,D*29

2025-06-13 03:47:14.937499 -- $GNRMC,014714.75,A,4546.10707,N,00501.54660,E,5.133,254.55,130625,,,D*73

2025-06-13 03:47:14.937762 -- $GNVTG,254.55,T,,M,5.133,N,9.506,K,D*2B

2025-06-13 03:47:15.338027 -- $GNRMC,014715.15,A,4546.10694,N,00501.54578,E,5.468,258.67,130625,,,D*73

2025-06-13 03:47:15.338471 -- $GNVTG,258.67,T,,M,5.468,N,10.127,K,D*12

2025-06-13 03:47:15.528532 -- $GNRMC,014715.35,A,4546.10687,N,00501.54534,E,5.762,259.29,130625,,,D*79

2025-06-13 03:47:15.528897 -- $GNVTG,259.29,T,,M,5.762,N,10.672,K,D*17

2025-06-13 03:47:15.733273 -- $GNRMC,014715.55,A,4546.10682,N,00501.54489,E,5.829,262.27,130625,,,D*7B

2025-06-13 03:47:15.734001 -- $GNVTG,262.27,T,,M,5.829,N,10.795,K,D*19

2025-06-13 03:47:15.930212 -- $GNRMC,014715.75,A,4546.10677,N,00501.54441,E,6.081,261.99,130625,,,D*78

2025-06-13 03:47:15.930464 -- $GNVTG,261.99,T,,M,6.081,N,11.261,K,D*19

2025-06-13 03:47:16.148838 -- $GNRMC,014715.95,A,4546.10673,N,00501.54392,E,6.435,264.19,130625,,,D*7D

2025-06-13 03:47:16.149101 -- $GNVTG,264.19,T,,M,6.435,N,11.917,K,D*15

2025-06-13 03:47:16.326383 -- $GNRMC,014716.15,A,4546.10671,N,00501.54342,E,6.383,266.31,130625,,,D*7B

2025-06-13 03:47:16.327356 -- $GNVTG,266.31,T,,M,6.383,N,11.821,K,D*13

2025-06-13 03:47:16.529618 -- $GNRMC,014716.35,A,4546.10671,N,00501.54292,E,6.539,268.80,130625,,,D*76

2025-06-13 03:47:16.720195 -- $GNRMC,014716.55,A,4546.10669,N,00501.54240,E,6.651,266.15,130625,,,D*79

2025-06-13 03:47:16.720487 -- $GNVTG,266.15,T,,M,6.651,N,12.318,K,D*1D

2025-06-13 03:47:17.134527 -- $GNRMC,014716.95,A,4546.10673,N,00501.54136,E,6.537,274.01,130625,,,D*79

2025-06-13 03:47:17.332347 -- $GNRMC,014717.15,A,4546.10677,N,00501.54083,E,6.755,275.76,130625,,,D*7C

2025-06-13 03:47:17.926690 -- $GNRMC,014717.75,A,4546.10692,N,00501.53925,E,6.741,273.63,130625,,,D*74

2025-06-13 03:47:18.348206 -- $GNRMC,014718.15,A,4546.10696,N,00501.53819,E,6.726,271.54,130625,,,D*70

2025-06-13 03:47:18.348710 -- $GNVTG,271.54,T,,M,6.726,N,12.457,K,D*13

2025-06-13 03:47:18.937870 -- $GNRMC,014718.75,A,4546.10708,N,00501.53659,E,6.964,275.23,130625,,,D*76

2025-06-13 03:47:18.938238 -- $GNVTG,275.23,T,,M,6.964,N,12.898,K,D*10

2025-06-13 03:47:19.142316 -- $GNRMC,014718.95,A,4546.10712,N,00501.53605,E,6.914,274.65,130625,,,D*7E

2025-06-13 03:47:19.142743 -- $GNVTG,274.65,T,,M,6.914,N,12.805,K,D*10

2025-06-13 03:47:19.340728 -- $GNRMC,014719.15,A,4546.10717,N,00501.53550,E,6.890,272.90,130625,,,D*70

2025-06-13 03:47:19.343144 -- $GNVTG,272.90,T,,M,6.890,N,12.761,K,D*1C

2025-06-13 03:47:19.534802 -- $GNRMC,014719.35,A,4546.10720,N,00501.53496,E,6.966,273.94,130625,,,D*70

2025-06-13 03:47:19.739036 -- $GNRMC,014719.55,A,4546.10724,N,00501.53441,E,6.911,272.39,130625,,,D*7E

2025-06-13 03:47:20.138848 -- $GNRMC,014719.95,A,4546.10733,N,00501.53332,E,6.983,275.25,130625,,,D*76

2025-06-13 03:47:20.139283 -- $GNVTG,275.25,T,,M,6.983,N,12.933,K,D*1F

2025-06-13 03:47:20.544458 -- $GNRMC,014720.35,A,4546.10740,N,00501.53221,E,7.000,274.07,130625,,,D*73

2025-06-13 03:47:20.544711 -- $GNVTG,274.07,T,,M,7.000,N,12.964,K,D*1F

2025-06-13 03:47:21.146529 -- $GNRMC,014720.95,A,4546.10750,N,00501.53055,E,7.140,272.94,130625,,,D*70

2025-06-13 03:47:21.146814 -- $GNVTG,272.94,T,,M,7.140,N,13.224,K,D*18

2025-06-13 03:47:21.345592 -- $GNRMC,014721.15,A,4546.10752,N,00501.52999,E,7.151,272.90,130625,,,D*77

2025-06-13 03:47:21.345878 -- $GNVTG,272.90,T,,M,7.151,N,13.244,K,D*1A

2025-06-13 03:47:21.746446 -- $GNRMC,014721.55,A,4546.10760,N,00501.52887,E,7.319,273.43,130625,,,D*7D

2025-06-13 03:47:22.639396 -- $GNRMC,014722.45,A,4546.10777,N,00501.52624,E,7.500,274.35,130625,,,D*76

2025-06-13 03:47:22.834730 -- $GNRMC,014722.65,A,4546.10780,N,00501.52566,E,7.500,273.03,130625,,,D*7B

2025-06-13 03:47:22.835145 -- $GNVTG,273.03,T,,M,7.500,N,13.890,K,D*12

2025-06-13 03:47:23.034096 -- $GNRMC,014722.85,A,4546.10783,N,00501.52507,E,7.510,272.39,130625,,,D*78

2025-06-13 03:47:23.245417 -- $GNRMC,014723.05,A,4546.10788,N,00501.52449,E,7.577,274.75,130625,,,D*7E

2025-06-13 03:47:23.245793 -- $GNVTG,274.75,T,,M,7.577,N,14.032,K,D*13

2025-06-13 03:47:23.440582 -- $GNRMC,014723.25,A,4546.10793,N,00501.52389,E,7.622,276.48,130625,,,D*72

2025-06-13 03:47:23.441009 -- $GNVTG,276.48,T,,M,7.622,N,14.116,K,D*1B

2025-06-13 03:47:23.638749 -- $GNRMC,014723.45,A,4546.10799,N,00501.52330,E,7.705,275.56,130625,,,D*74

2025-06-13 03:47:23.639043 -- $GNVTG,275.56,T,,M,7.705,N,14.270,K,D*10

2025-06-13 03:47:23.845394 -- $GNRMC,014723.65,A,4546.10803,N,00501.52271,E,7.653,273.33,130625,,,D*79

2025-06-13 03:47:24.052734 -- $GNRMC,014723.85,A,4546.10807,N,00501.52211,E,7.698,275.29,130625,,,D*7F

2025-06-13 03:47:24.053110 -- $GNVTG,275.29,T,,M,7.698,N,14.257,K,D*18

2025-06-13 03:47:24.287020 -- $GNRMC,014724.05,A,4546.10813,N,00501.52152,E,7.669,277.14,130625,,,D*73

2025-06-13 03:47:24.287437 -- $GNVTG,277.14,T,,M,7.669,N,14.204,K,D*1C

2025-06-13 03:47:24.561028 -- $GNRMC,014724.35,A,4546.10821,N,00501.52061,E,7.684,276.06,130625,,,D*71

2025-06-13 03:47:24.561486 -- $GNVTG,276.06,T,,M,7.684,N,14.231,K,D*1B

2025-06-13 03:47:24.748357 -- $GNRMC,014724.55,A,4546.10825,N,00501.52001,E,7.684,273.43,130625,,,D*71

2025-06-13 03:47:24.748636 -- $GNVTG,273.43,T,,M,7.684,N,14.232,K,D*1C

2025-06-13 03:47:24.957893 -- $GNRMC,014724.75,A,4546.10830,N,00501.51941,E,7.852,275.95,130625,,,D*71

2025-06-13 03:47:24.958327 -- $GNVTG,275.95,T,,M,7.852,N,14.542,K,D*14

2025-06-13 03:47:25.138154 -- $GNRMC,014724.95,A,4546.10835,N,00501.51880,E,7.776,275.29,130625,,,D*78

2025-06-13 03:47:25.138415 -- $GNVTG,275.29,T,,M,7.776,N,14.402,K,D*1F

2025-06-13 03:47:25.347007 -- $GNRMC,014725.15,A,4546.10840,N,00501.51820,E,7.765,276.06,130625,,,D*75

2025-06-13 03:47:25.347263 -- $GNVTG,276.06,T,,M,7.765,N,14.382,K,D*1C

2025-06-13 03:47:25.544831 -- $GNRMC,014725.35,A,4546.10846,N,00501.51760,E,7.692,277.41,130625,,,D*71

2025-06-13 03:47:25.545170 -- $GNVTG,277.41,T,,M,7.692,N,14.245,K,D*1D

2025-06-13 03:47:25.750501 -- $GNRMC,014725.55,A,4546.10851,N,00501.51701,E,7.598,277.14,130625,,,D*7F

2025-06-13 03:47:25.750967 -- $GNVTG,277.14,T,,M,7.598,N,14.072,K,D*12

2025-06-13 03:47:25.947560 -- $GNRMC,014725.75,A,4546.10857,N,00501.51641,E,7.665,276.93,130625,,,D*71

2025-06-13 03:47:26.156731 -- $GNRMC,014725.95,A,4546.10862,N,00501.51581,E,7.557,276.92,130625,,,D*75

2025-06-13 03:47:26.157157 -- $GNVTG,276.92,T,,M,7.557,N,13.996,K,D*1A

2025-06-13 03:47:26.341427 -- $GNRMC,014726.15,A,4546.10868,N,00501.51523,E,7.550,277.07,130625,,,D*76

2025-06-13 03:47:26.341685 -- $GNVTG,277.07,T,,M,7.550,N,13.983,K,D*14

2025-06-13 03:47:26.546739 -- $GNRMC,014726.35,A,4546.10874,N,00501.51463,E,7.547,277.61,130625,,,D*7A

2025-06-13 03:47:26.547375 -- $GNVTG,277.61,T,,M,7.547,N,13.977,K,D*19

2025-06-13 03:47:26.947949 -- $GNRMC,014726.75,A,4546.10886,N,00501.51347,E,7.496,276.92,130625,,,D*72

2025-06-13 03:47:26.948213 -- $GNVTG,276.92,T,,M,7.496,N,13.882,K,D*12

2025-06-13 03:47:27.142350 -- $GNRMC,014726.95,A,4546.10892,N,00501.51288,E,7.529,278.08,130625,,,D*73

2025-06-13 03:47:27.142837 -- $GNVTG,278.08,T,,M,7.529,N,13.943,K,D*16

2025-06-13 03:47:27.340736 -- $GNRMC,014727.15,A,4546.10898,N,00501.51230,E,7.436,278.37,130625,,,D*70

2025-06-13 03:47:27.341108 -- $GNVTG,278.37,T,,M,7.436,N,13.772,K,D*19

2025-06-13 03:47:27.545877 -- $GNRMC,014727.35,A,4546.10905,N,00501.51173,E,7.368,278.14,130625,,,D*7E

2025-06-13 03:47:27.546322 -- $GNVTG,278.14,T,,M,7.368,N,13.645,K,D*11

2025-06-13 03:47:27.740624 -- $GNRMC,014727.55,A,4546.10911,N,00501.51115,E,7.469,278.36,130625,,,D*7B

2025-06-13 03:47:27.740924 -- $GNVTG,278.36,T,,M,7.469,N,13.832,K,D*19

2025-06-13 03:47:27.943678 -- $GNRMC,014727.75,A,4546.10918,N,00501.51057,E,7.532,278.87,130625,,,D*72

2025-06-13 03:47:28.350990 -- $GNRMC,014728.15,A,4546.10931,N,00501.50940,E,7.555,278.51,130625,,,D*74

2025-06-13 03:47:28.351296 -- $GNVTG,278.51,T,,M,7.555,N,13.991,K,D*1E

2025-06-13 03:47:28.751893 -- $GNRMC,014728.55,A,4546.10945,N,00501.50824,E,7.390,278.81,130625,,,D*72

2025-06-13 03:47:28.752303 -- $GNVTG,278.81,T,,M,7.390,N,13.687,K,D*14

2025-06-13 03:47:28.947448 -- $GNRMC,014728.75,A,4546.10951,N,00501.50766,E,7.381,278.84,130625,,,D*79

2025-06-13 03:47:28.948078 -- $GNVTG,278.84,T,,M,7.381,N,13.670,K,D*19

2025-06-13 03:47:29.141339 -- $GNRMC,014728.95,A,4546.10957,N,00501.50709,E,7.251,278.95,130625,,,D*74

2025-06-13 03:47:29.348149 -- $GNRMC,014729.15,A,4546.10964,N,00501.50651,E,7.397,279.00,130625,,,D*77

2025-06-13 03:47:29.349014 -- $GNVTG,279.00,T,,M,7.397,N,13.699,K,D*14

2025-06-13 03:47:29.551122 -- $GNRMC,014729.35,A,4546.10970,N,00501.50593,E,7.299,279.11,130625,,,D*72

2025-06-13 03:47:29.753639 -- $GNRMC,014729.55,A,4546.10976,N,00501.50536,E,7.237,279.59,130625,,,D*75

2025-06-13 03:47:29.947077 -- $GNRMC,014729.75,A,4546.10982,N,00501.50479,E,7.184,280.02,130625,,,D*75

2025-06-13 03:47:29.947475 -- $GNVTG,280.02,T,,M,7.184,N,13.305,K,D*10

2025-06-13 03:47:30.189949 -- $GNRMC,014729.95,A,4546.10988,N,00501.50422,E,7.169,279.70,130625,,,D*7F

2025-06-13 03:47:30.190440 -- $GNVTG,279.70,T,,M,7.169,N,13.276,K,D*15

2025-06-13 03:47:30.646472 -- $GNRMC,014730.45,A,4546.11004,N,00501.50280,E,7.124,280.11,130625,,,D*70

2025-06-13 03:47:30.852142 -- $GNRMC,014730.65,A,4546.11012,N,00501.50224,E,7.134,280.69,130625,,,D*75

2025-06-13 03:47:30.852528 -- $GNVTG,280.69,T,,M,7.134,N,13.213,K,D*10

2025-06-13 03:47:31.050456 -- $GNRMC,014730.85,A,4546.11018,N,00501.50168,E,7.097,279.18,130625,,,D*72

2025-06-13 03:47:31.050888 -- $GNVTG,279.18,T,,M,7.097,N,13.143,K,D*1E

2025-06-13 03:47:31.254632 -- $GNRMC,014731.05,A,4546.11023,N,00501.50112,E,7.085,278.52,130625,,,D*72

2025-06-13 03:47:31.453270 -- $GNRMC,014731.25,A,4546.11029,N,00501.50057,E,7.059,278.87,130625,,,D*73

2025-06-13 03:47:31.650160 -- $GNRMC,014731.45,A,4546.11036,N,00501.50001,E,7.014,279.84,130625,,,D*73

2025-06-13 03:47:31.650573 -- $GNVTG,279.84,T,,M,7.014,N,12.990,K,D*17

2025-06-13 03:47:31.843320 -- $GNRMC,014731.65,A,4546.11043,N,00501.49946,E,7.003,279.36,130625,,,D*7E

2025-06-13 03:47:31.843616 -- $GNVTG,279.36,T,,M,7.003,N,12.970,K,D*16

2025-06-13 03:47:32.048522 -- $GNRMC,014731.85,A,4546.11050,N,00501.49891,E,6.972,280.73,130625,,,D*70

2025-06-13 03:47:32.050100 -- $GNVTG,280.73,T,,M,6.972,N,12.912,K,D*1B

2025-06-13 03:47:32.312881 -- $GNRMC,014732.05,A,4546.11057,N,00501.49836,E,6.970,280.03,130625,,,D*74

2025-06-13 03:47:32.313487 -- $GNVTG,280.03,T,,M,6.970,N,12.909,K,D*14

2025-06-13 03:47:32.558790 -- $GNRMC,014732.35,A,4546.11067,N,00501.49755,E,6.944,280.09,130625,,,D*73

2025-06-13 03:47:32.559054 -- $GNVTG,280.09,T,,M,6.944,N,12.860,K,D*17

2025-06-13 03:47:32.756329 -- $GNRMC,014732.55,A,4546.11074,N,00501.49701,E,6.913,279.83,130625,,,D*70

2025-06-13 03:47:32.756989 -- $GNVTG,279.83,T,,M,6.913,N,12.803,K,D*14

2025-06-13 03:47:32.955438 -- $GNRMC,014732.75,A,4546.11081,N,00501.49647,E,6.913,280.22,130625,,,D*76

2025-06-13 03:47:32.955863 -- $GNVTG,280.22,T,,M,6.913,N,12.803,K,D*19

2025-06-13 03:47:33.153541 -- $GNRMC,014732.95,A,4546.11088,N,00501.49592,E,6.919,280.18,130625,,,D*79

2025-06-13 03:47:33.153969 -- $GNVTG,280.18,T,,M,6.919,N,12.814,K,D*1C

2025-06-13 03:47:33.347945 -- $GNRMC,014733.15,A,4546.11094,N,00501.49538,E,6.884,279.23,130625,,,D*76

2025-06-13 03:47:33.348262 -- $GNVTG,279.23,T,,M,6.884,N,12.749,K,D*10

2025-06-13 03:47:33.746780 -- $GNRMC,014733.55,A,4546.11107,N,00501.49428,E,7.023,279.65,130625,,,D*7F

2025-06-13 03:47:33.943422 -- $GNRMC,014733.75,A,4546.11114,N,00501.49373,E,6.951,279.84,130625,,,D*74

2025-06-13 03:47:34.159513 -- $GNRMC,014733.95,A,4546.11119,N,00501.49317,E,7.053,278.72,130625,,,D*77

2025-06-13 03:47:34.361767 -- $GNRMC,014734.15,A,4546.11125,N,00501.49260,E,7.005,279.77,130625,,,D*71

2025-06-13 03:47:34.547740 -- $GNRMC,014734.35,A,4546.11132,N,00501.49205,E,7.064,279.79,130625,,,D*7F

2025-06-13 03:47:34.548158 -- $GNVTG,279.79,T,,M,7.064,N,13.082,K,D*19

2025-06-13 03:47:34.739181 -- $GNRMC,014734.55,A,4546.11138,N,00501.49149,E,7.066,280.39,130625,,,D*78

2025-06-13 03:47:34.741200 -- $GNVTG,280.39,T,,M,7.066,N,13.086,K,D*1D

2025-06-13 03:47:34.957699 -- $GNRMC,014734.75,A,4546.11145,N,00501.49093,E,7.183,280.60,130625,,,D*70

2025-06-13 03:47:34.958130 -- $GNVTG,280.60,T,,M,7.183,N,13.302,K,D*14

2025-06-13 03:47:35.153567 -- $GNRMC,014734.95,A,4546.11151,N,00501.49036,E,7.121,279.57,130625,,,D*7E

2025-06-13 03:47:35.154029 -- $GNVTG,279.57,T,,M,7.121,N,13.188,K,D*1E

2025-06-13 03:47:35.372460 -- $GNRMC,014735.15,A,4546.11158,N,00501.48980,E,7.065,280.54,130625,,,D*7F

2025-06-13 03:47:35.562624 -- $GNRMC,014735.35,A,4546.11163,N,00501.48923,E,7.170,279.09,130625,,,D*77

2025-06-13 03:47:35.563147 -- $GNVTG,279.09,T,,M,7.170,N,13.280,K,D*1A

2025-06-13 03:47:35.755465 -- $GNRMC,014735.55,A,4546.11169,N,00501.48866,E,7.121,279.01,130625,,,D*77

2025-06-13 03:47:35.755902 -- $GNVTG,279.01,T,,M,7.121,N,13.189,K,D*1C

2025-06-13 03:47:35.957850 -- $GNRMC,014735.75,A,4546.11174,N,00501.48809,E,7.169,279.42,130625,,,D*7B

2025-06-13 03:47:36.171043 -- $GNRMC,014735.95,A,4546.11180,N,00501.48751,E,7.366,280.59,130625,,,D*7D

2025-06-13 03:47:36.346422 -- $GNRMC,014736.15,A,4546.11186,N,00501.48693,E,7.214,278.91,130625,,,D*78

2025-06-13 03:47:36.346939 -- $GNVTG,278.91,T,,M,7.214,N,13.361,K,D*15

2025-06-13 03:47:36.758507 -- $GNRMC,014736.55,A,4546.11199,N,00501.48576,E,7.388,279.96,130625,,,D*78

2025-06-13 03:47:36.759159 -- $GNVTG,279.96,T,,M,7.388,N,13.682,K,D*1F

2025-06-13 03:47:36.953630 -- $GNRMC,014736.75,A,4546.11205,N,00501.48517,E,7.369,279.03,130625,,,D*78

2025-06-13 03:47:37.154769 -- $GNRMC,014736.95,A,4546.11211,N,00501.48459,E,7.457,279.96,130625,,,D*7E

2025-06-13 03:47:37.155155 -- $GNVTG,279.96,T,,M,7.457,N,13.810,K,D*1F

2025-06-13 03:47:37.349529 -- $GNRMC,014737.15,A,4546.11218,N,00501.48399,E,7.571,280.18,130625,,,D*70

2025-06-13 03:47:37.349807 -- $GNVTG,280.18,T,,M,7.571,N,14.022,K,D*14

2025-06-13 03:47:37.542827 -- $GNRMC,014737.35,A,4546.11225,N,00501.48339,E,7.691,280.97,130625,,,D*7C

2025-06-13 03:47:37.543107 -- $GNVTG,280.97,T,,M,7.691,N,14.244,K,D*1C

2025-06-13 03:47:37.764345 -- $GNRMC,014737.55,A,4546.11232,N,00501.48276,E,7.920,279.76,130625,,,D*7A

2025-06-13 03:47:37.764620 -- $GNVTG,279.76,T,,M,7.920,N,14.667,K,D*15

2025-06-13 03:47:37.960224 -- $GNRMC,014737.75,A,4546.11237,N,00501.48214,E,7.934,278.53,130625,,,D*7A

2025-06-13 03:47:38.168321 -- $GNRMC,014737.95,A,4546.11244,N,00501.48150,E,8.078,279.92,130625,,,D*71

2025-06-13 03:47:38.361358 -- $GNRMC,014738.15,A,4546.11251,N,00501.48085,E,8.246,279.72,130625,,,D*7A

2025-06-13 03:47:38.558125 -- $GNRMC,014738.35,A,4546.11259,N,00501.48019,E,8.386,280.27,130625,,,D*7E

2025-06-13 03:47:39.170646 -- $GNRMC,014738.95,A,4546.11283,N,00501.47812,E,9.043,279.91,130625,,,D*7F

2025-06-13 03:47:39.175446 -- $GNVTG,279.91,T,,M,9.043,N,16.747,K,D*1F

2025-06-13 03:47:39.564612 -- $GNRMC,014739.35,A,4546.11299,N,00501.47666,E,9.436,279.59,130625,,,D*70

2025-06-13 03:47:39.564888 -- $GNVTG,279.59,T,,M,9.436,N,17.475,K,D*1E

2025-06-13 03:47:39.765136 -- $GNRMC,014739.55,A,4546.11308,N,00501.47591,E,9.731,279.76,130625,,,D*7D

2025-06-13 03:47:39.765398 -- $GNVTG,279.76,T,,M,9.731,N,18.022,K,D*1E

2025-06-13 03:47:39.961216 -- $GNRMC,014739.75,A,4546.11317,N,00501.47513,E,9.910,279.60,130625,,,D*71

2025-06-13 03:47:40.168685 -- $GNRMC,014739.95,A,4546.11326,N,00501.47433,E,10.155,279.56,130625,,,D*4A

2025-06-13 03:47:40.169135 -- $GNVTG,279.56,T,,M,10.155,N,18.807,K,D*2F

2025-06-13 03:47:40.353644 -- $GNRMC,014740.15,A,4546.11335,N,00501.47352,E,10.327,279.72,130625,,,D*4F

2025-06-13 03:47:40.564848 -- $GNRMC,014740.35,A,4546.11344,N,00501.47270,E,10.525,279.38,130625,,,D*40

2025-06-13 03:47:40.565294 -- $GNVTG,279.38,T,,M,10.525,N,19.492,K,D*25

2025-06-13 03:47:41.157126 -- $GNRMC,014740.95,A,4546.11373,N,00501.47019,E,10.609,279.33,130625,,,D*45

2025-06-13 03:47:41.159519 -- $GNVTG,279.33,T,,M,10.609,N,19.648,K,D*26

2025-06-13 03:47:41.364502 -- $GNRMC,014741.15,A,4546.11383,N,00501.46935,E,10.597,280.29,130625,,,D*4C

2025-06-13 03:47:41.364967 -- $GNVTG,280.29,T,,M,10.597,N,19.625,K,D*24

2025-06-13 03:47:41.559394 -- $GNRMC,014741.35,A,4546.11393,N,00501.46852,E,10.552,280.17,130625,,,D*4B

2025-06-13 03:47:41.761118 -- $GNRMC,014741.55,A,4546.11403,N,00501.46768,E,10.594,280.03,130625,,,D*4A

2025-06-13 03:47:42.203549 -- $GNRMC,014741.95,A,4546.11423,N,00501.46602,E,10.476,280.03,130625,,,D*44

2025-06-13 03:47:42.203937 -- $GNVTG,280.03,T,,M,10.476,N,19.402,K,D*25

2025-06-13 03:47:42.476499 -- $GNRMC,014742.25,A,4546.11438,N,00501.46479,E,10.512,279.99,130625,,,D*4E

2025-06-13 03:47:42.477146 -- $GNVTG,279.99,T,,M,10.512,N,19.468,K,D*2F

2025-06-13 03:47:42.666569 -- $GNRMC,014742.45,A,4546.11448,N,00501.46396,E,10.549,280.61,130625,,,D*46

2025-06-13 03:47:42.666856 -- $GNVTG,280.61,T,,M,10.549,N,19.536,K,D*2A

2025-06-13 03:47:42.863935 -- $GNRMC,014742.65,A,4546.11457,N,00501.46313,E,10.489,279.97,130625,,,D*45

2025-06-13 03:47:43.048214 -- $GNRMC,014742.85,A,4546.11467,N,00501.46230,E,10.533,279.75,130625,,,D*44

2025-06-13 03:47:43.048630 -- $GNVTG,279.75,T,,M,10.533,N,19.508,K,D*29

2025-06-13 03:47:43.262915 -- $GNRMC,014743.05,A,4546.11476,N,00501.46146,E,10.529,279.54,130625,,,D*47

2025-06-13 03:47:43.263198 -- $GNVTG,279.54,T,,M,10.529,N,19.499,K,D*28

2025-06-13 03:47:43.465625 -- $GNRMC,014743.25,A,4546.11486,N,00501.46063,E,10.486,280.29,130625,,,D*44

2025-06-13 03:47:43.466044 -- $GNVTG,280.29,T,,M,10.486,N,19.420,K,D*22

2025-06-13 03:47:43.884605 -- $GNRMC,014743.65,A,4546.11507,N,00501.45898,E,10.458,280.35,130625,,,D*49

2025-06-13 03:47:43.885112 -- $GNVTG,280.35,T,,M,10.458,N,19.369,K,D*26

2025-06-13 03:47:44.180415 -- $GNRMC,014743.95,A,4546.11522,N,00501.45776,E,10.455,280.02,130625,,,D*47

2025-06-13 03:47:44.180837 -- $GNVTG,280.02,T,,M,10.455,N,19.363,K,D*25

2025-06-13 03:47:44.454811 -- $GNRMC,014744.25,A,4546.11536,N,00501.45653,E,10.382,279.42,130625,,,D*47

2025-06-13 03:47:44.455214 -- $GNVTG,279.42,T,,M,10.382,N,19.228,K,D*24

2025-06-13 03:47:44.673699 -- $GNRMC,014744.45,A,4546.11545,N,00501.45571,E,10.385,279.80,130625,,,D*4F

2025-06-13 03:47:44.674090 -- $GNVTG,279.80,T,,M,10.385,N,19.233,K,D*27

2025-06-13 03:47:44.867742 -- $GNRMC,014744.65,A,4546.11555,N,00501.45490,E,10.304,279.84,130625,,,D*4F

2025-06-13 03:47:44.868036 -- $GNVTG,279.84,T,,M,10.304,N,19.083,K,D*23

2025-06-13 03:47:45.066083 -- $GNRMC,014744.85,A,4546.11564,N,00501.45408,E,10.351,279.80,130625,,,D*46

2025-06-13 03:47:45.070082 -- $GNVTG,279.80,T,,M,10.351,N,19.170,K,D*2A

2025-06-13 03:47:45.852714 -- $GNRMC,014745.65,A,4546.11602,N,00501.45085,E,10.241,280.15,130625,,,D*41

2025-06-13 03:47:46.293358 -- $GNRMC,014746.05,A,4546.11621,N,00501.44923,E,10.334,280.01,130625,,,D*47

2025-06-13 03:47:46.293803 -- $GNVTG,280.01,T,,M,10.334,N,19.138,K,D*2A

2025-06-13 03:47:46.568977 -- $GNRMC,014746.35,A,4546.11636,N,00501.44802,E,10.308,279.58,130625,,,D*45

2025-06-13 03:47:46.569271 -- $GNVTG,279.58,T,,M,10.308,N,19.091,K,D*2D

2025-06-13 03:47:46.776045 -- $GNRMC,014746.55,A,4546.11645,N,00501.44721,E,10.199,278.98,130625,,,D*4E

2025-06-13 03:47:47.176064 -- $GNRMC,014746.95,A,4546.11664,N,00501.44561,E,10.168,279.68,130625,,,D*47

2025-06-13 03:47:47.176400 -- $GNVTG,279.68,T,,M,10.168,N,18.831,K,D*29

2025-06-13 03:47:47.570454 -- $GNRMC,014747.35,A,4546.11684,N,00501.44402,E,10.241,280.30,130625,,,D*45

2025-06-13 03:47:47.570866 -- $GNVTG,280.30,T,,M,10.241,N,18.967,K,D*28

2025-06-13 03:47:48.452163 -- $GNRMC,014748.25,A,4546.11728,N,00501.44046,E,10.135,280.00,130625,,,D*4B

2025-06-13 03:47:48.452560 -- $GNVTG,280.00,T,,M,10.135,N,18.771,K,D*22

2025-06-13 03:47:48.649307 -- $GNRMC,014748.45,A,4546.11738,N,00501.43967,E,10.043,280.11,130625,,,D*41

2025-06-13 03:47:48.861755 -- $GNRMC,014748.65,A,4546.11748,N,00501.43888,E,10.171,280.17,130625,,,D*42

2025-06-13 03:47:49.054003 -- $GNRMC,014748.85,A,4546.11758,N,00501.43808,E,10.166,279.85,130625,,,D*4E

2025-06-13 03:47:49.054339 -- $GNVTG,279.85,T,,M,10.166,N,18.828,K,D*2C

2025-06-13 03:47:49.455656 -- $GNRMC,014749.25,A,4546.11777,N,00501.43650,E,9.959,280.14,130625,,,D*79

2025-06-13 03:47:49.864452 -- $GNRMC,014749.65,A,4546.11796,N,00501.43493,E,9.988,279.86,130625,,,D*7E

2025-06-13 03:47:49.864725 -- $GNVTG,279.86,T,,M,9.988,N,18.498,K,D*18

2025-06-13 03:47:50.285592 -- $GNRMC,014750.05,A,4546.11814,N,00501.43334,E,10.047,280.15,130625,,,D*41

2025-06-13 03:47:50.469011 -- $GNRMC,014750.25,A,4546.11823,N,00501.43256,E,10.011,279.66,130625,,,D*43

2025-06-13 03:47:50.469436 -- $GNVTG,279.66,T,,M,10.011,N,18.540,K,D*23

2025-06-13 03:47:50.867366 -- $GNRMC,014750.65,A,4546.11841,N,00501.43099,E,9.948,280.07,130625,,,D*7E

2025-06-13 03:47:51.066730 -- $GNRMC,014750.85,A,4546.11850,N,00501.43021,E,9.910,280.02,130625,,,D*7B

2025-06-13 03:47:51.274093 -- $GNRMC,014751.05,A,4546.11859,N,00501.42944,E,9.843,279.38,130625,,,D*78

2025-06-13 03:47:51.468168 -- $GNVTG,279.53,T,,M,9.909,N,18.351,K,D*1B

2025-06-13 03:47:51.678596 -- $GNRMC,014751.45,A,4546.11877,N,00501.42789,E,9.894,280.19,130625,,,D*70

2025-06-13 03:47:51.872756 -- $GNVTG,280.14,T,,M,9.861,N,18.262,K,D*10

2025-06-13 03:47:52.071141 -- $GNRMC,014751.85,A,4546.11896,N,00501.42634,E,9.904,280.09,130625,,,D*7D

2025-06-13 03:47:52.071402 -- $GNVTG,280.09,T,,M,9.904,N,18.341,K,D*1E

2025-06-13 03:47:52.342392 -- $GNRMC,014752.05,A,4546.11905,N,00501.42557,E,9.873,279.68,130625,,,D*7B

2025-06-13 03:47:52.342669 -- $GNVTG,279.68,T,,M,9.873,N,18.284,K,D*16

2025-06-13 03:47:52.961352 -- $GNRMC,014752.75,A,4546.11938,N,00501.42288,E,9.735,280.03,130625,,,D*71

2025-06-13 03:47:53.154033 -- $GNRMC,014752.95,A,4546.11947,N,00501.42211,E,9.856,279.41,130625,,,D*7D

2025-06-13 03:47:53.154324 -- $GNVTG,279.41,T,,M,9.856,N,18.254,K,D*17

2025-06-13 03:47:53.371420 -- $GNRMC,014753.15,A,4546.11956,N,00501.42134,E,9.939,279.40,130625,,,D*79

2025-06-13 03:47:53.371713 -- $GNVTG,279.40,T,,M,9.939,N,18.406,K,D*1F

2025-06-13 03:47:53.759741 -- $GNRMC,014753.55,A,4546.11976,N,00501.41975,E,10.297,280.45,130625,,,D*45

2025-06-13 03:47:53.968569 -- $GNRMC,014753.75,A,4546.11986,N,00501.41893,E,10.629,280.11,130625,,,D*41

2025-06-13 03:47:53.968937 -- $GNVTG,280.11,T,,M,10.629,N,19.685,K,D*23

2025-06-13 03:47:54.556517 -- $GNRMC,014754.35,A,4546.12019,N,00501.41628,E,12.079,279.97,130625,,,D*49

2025-06-13 03:47:54.556804 -- $GNVTG,279.97,T,,M,12.079,N,22.370,K,D*2D

2025-06-13 03:47:54.756265 -- $GNRMC,014754.55,A,4546.12031,N,00501.41532,E,12.463,279.82,130625,,,D*46

2025-06-13 03:47:55.155223 -- $GNRMC,014754.95,A,4546.12055,N,00501.41330,E,13.580,279.21,130625,,,D*48

2025-06-13 03:47:55.368974 -- $GNRMC,014755.15,A,4546.12068,N,00501.41222,E,14.022,279.89,130625,,,D*45

2025-06-13 03:47:55.751452 -- $GNRMC,014755.55,A,4546.12096,N,00501.40997,E,15.061,280.11,130625,,,D*45

2025-06-13 03:47:55.751733 -- $GNVTG,280.11,T,,M,15.061,N,27.892,K,D*29

2025-06-13 03:47:55.955615 -- $GNRMC,014755.75,A,4546.12110,N,00501.40879,E,15.324,279.52,130625,,,D*4A

2025-06-13 03:47:56.164077 -- $GNRMC,014755.95,A,4546.12125,N,00501.40756,E,16.081,280.02,130625,,,D*4C

2025-06-13 03:47:56.366350 -- $GNRMC,014756.15,A,4546.12140,N,00501.40627,E,16.617,279.99,130625,,,D*4E

2025-06-13 03:47:56.552537 -- $GNRMC,014756.35,A,4546.12157,N,00501.40496,E,17.000,280.13,130625,,,D*47

2025-06-13 03:47:56.552846 -- $GNVTG,280.13,T,,M,17.000,N,31.484,K,D*22

2025-06-13 03:47:56.747572 -- $GNRMC,014756.55,A,4546.12174,N,00501.40361,E,17.574,280.05,130625,,,D*4E

2025-06-13 03:47:57.554604 -- $GNRMC,014757.35,A,4546.12246,N,00501.39781,E,19.492,279.86,130625,,,D*45

2025-06-13 03:47:57.554888 -- $GNVTG,279.86,T,,M,19.492,N,36.099,K,D*26

2025-06-13 03:47:58.162549 -- $GNRMC,014757.95,A,4546.12304,N,00501.39304,E,21.009,279.67,130625,,,D*43

2025-06-13 03:47:58.163244 -- $GNVTG,279.67,T,,M,21.009,N,38.909,K,D*2A

2025-06-13 03:47:58.381406 -- $GNRMC,014758.15,A,4546.12324,N,00501.39138,E,21.546,279.91,130625,,,D*4C

2025-06-13 03:47:58.381673 -- $GNVTG,279.91,T,,M,21.546,N,39.903,K,D*26

2025-06-13 03:47:58.760732 -- $GNRMC,014758.55,A,4546.12366,N,00501.38795,E,22.224,279.86,130625,,,D*48

2025-06-13 03:47:58.962066 -- $GNRMC,014758.75,A,4546.12387,N,00501.38621,E,22.439,280.10,130625,,,D*48

2025-06-13 03:47:58.962458 -- $GNVTG,280.10,T,,M,22.439,N,41.557,K,D*21

2025-06-13 03:47:59.365939 -- $GNRMC,014759.15,A,4546.12431,N,00501.38267,E,22.869,280.07,130625,,,D*4C

2025-06-13 03:47:59.549260 -- $GNRMC,014759.35,A,4546.12454,N,00501.38088,E,23.153,280.11,130625,,,D*48

2025-06-13 03:47:59.549793 -- $GNVTG,280.11,T,,M,23.153,N,42.879,K,D*2A

2025-06-13 03:47:59.761057 -- $GNRMC,014759.55,A,4546.12476,N,00501.37905,E,23.452,279.90,130625,,,D*46

2025-06-13 03:47:59.761479 -- $GNVTG,279.90,T,,M,23.452,N,43.434,K,D*25

2025-06-13 03:48:00.186117 -- $GNRMC,014759.95,A,4546.12523,N,00501.37529,E,24.465,280.08,130625,,,D*4D

2025-06-13 03:48:00.380696 -- $GNRMC,014800.15,A,4546.12547,N,00501.37337,E,24.703,279.90,130625,,,D*49

2025-06-13 03:48:00.381233 -- $GNVTG,279.90,T,,M,24.703,N,45.751,K,D*23

2025-06-13 03:48:00.761876 -- $GNRMC,014800.55,A,4546.12597,N,00501.36943,E,25.565,280.17,130625,,,D*42

2025-06-13 03:48:00.762418 -- $GNVTG,280.17,T,,M,25.565,N,47.346,K,D*29

2025-06-13 03:48:00.951596 -- $GNRMC,014800.75,A,4546.12621,N,00501.36741,E,25.981,279.77,130625,,,D*44

2025-06-13 03:48:01.372926 -- $GNRMC,014801.15,A,4546.12673,N,00501.36327,E,26.881,280.15,130625,,,D*40

2025-06-13 03:48:01.560508 -- $GNRMC,014801.35,A,4546.12699,N,00501.36115,E,27.090,279.95,130625,,,D*42

2025-06-13 03:48:01.560918 -- $GNVTG,279.95,T,,M,27.090,N,50.171,K,D*28

2025-06-13 03:48:01.760590 -- $GNRMC,014801.55,A,4546.12725,N,00501.35901,E,27.540,280.01,130625,,,D*4F

2025-06-13 03:48:02.361860 -- $GNRMC,014802.15,A,4546.12807,N,00501.35241,E,28.641,279.88,130625,,,D*42

2025-06-13 03:48:02.580844 -- $GNRMC,014802.35,A,4546.12835,N,00501.35016,E,28.904,279.84,130625,,,D*43

2025-06-13 03:48:02.767615 -- $GNRMC,014802.55,A,4546.12863,N,00501.34788,E,29.189,279.66,130625,,,D*47

2025-06-13 03:48:02.767918 -- $GNVTG,279.66,T,,M,29.189,N,54.059,K,D*2C

2025-06-13 03:48:03.158051 -- $GNRMC,014802.95,A,4546.12922,N,00501.34326,E,29.895,280.01,130625,,,D*4C

2025-06-13 03:48:03.158444 -- $GNVTG,280.01,T,,M,29.895,N,55.365,K,D*22

2025-06-13 03:48:03.371076 -- $GNRMC,014803.15,A,4546.12952,N,00501.34092,E,30.126,279.96,130625,,,D*4F

2025-06-13 03:48:03.551329 -- $GNRMC,014803.35,A,4546.12981,N,00501.33855,E,30.389,279.95,130625,,,D*43

2025-06-13 03:48:03.551955 -- $GNVTG,279.95,T,,M,30.389,N,56.280,K,D*2E

2025-06-13 03:48:03.956256 -- $GNRMC,014803.75,A,4546.13041,N,00501.33374,E,31.001,279.96,130625,,,D*4A

2025-06-13 03:48:03.956888 -- $GNVTG,279.96,T,,M,31.001,N,57.414,K,D*25

2025-06-13 03:48:04.760477 -- $GNRMC,014804.55,A,4546.13163,N,00501.32387,E,32.048,279.95,130625,,,D*4E

2025-06-13 03:48:04.760935 -- $GNVTG,279.95,T,,M,32.048,N,59.353,K,D*22

2025-06-13 03:48:04.957059 -- $GNRMC,014804.75,A,4546.13194,N,00501.32135,E,32.273,279.97,130625,,,D*47

2025-06-13 03:48:05.153226 -- $GNRMC,014804.95,A,4546.13226,N,00501.31881,E,32.621,280.14,130625,,,D*48

2025-06-13 03:48:05.153919 -- $GNVTG,280.14,T,,M,32.621,N,60.413,K,D*2D

2025-06-13 03:48:05.373119 -- $GNRMC,014805.15,A,4546.13258,N,00501.31625,E,32.795,279.98,130625,,,D*44

2025-06-13 03:48:05.373535 -- $GNVTG,279.98,T,,M,32.795,N,60.736,K,D*25

2025-06-13 03:48:05.559096 -- $GNRMC,014805.35,A,4546.13290,N,00501.31367,E,33.024,279.90,130625,,,D*45

2025-06-13 03:48:05.959988 -- $GNRMC,014805.75,A,4546.13354,N,00501.30846,E,33.479,279.84,130625,,,D*48

2025-06-13 03:48:05.960389 -- $GNVTG,279.84,T,,M,33.479,N,62.003,K,D*2B

2025-06-13 03:48:06.184543 -- $GNRMC,014805.95,A,4546.13387,N,00501.30583,E,33.749,280.05,130625,,,D*43

2025-06-13 03:48:06.377683 -- $GNRMC,014806.15,A,4546.13420,N,00501.30319,E,33.870,280.01,130625,,,D*46

2025-06-13 03:48:06.379574 -- $GNVTG,280.01,T,,M,33.870,N,62.728,K,D*2B

2025-06-13 03:48:06.763938 -- $GNRMC,014806.55,A,4546.13487,N,00501.29785,E,34.370,279.95,130625,,,D*41

2025-06-13 03:48:07.162348 -- $GNRMC,014806.95,A,4546.13553,N,00501.29243,E,34.809,280.11,130625,,,D*45

2025-06-13 03:48:07.162777 -- $GNVTG,280.11,T,,M,34.809,N,64.466,K,D*2C

2025-06-13 03:48:07.371405 -- $GNRMC,014807.15,A,4546.13587,N,00501.28971,E,34.953,279.84,130625,,,D*4A

2025-06-13 03:48:07.371834 -- $GNVTG,279.84,T,,M,34.953,N,64.733,K,D*2B

2025-06-13 03:48:07.753216 -- $GNRMC,014807.55,A,4546.13654,N,00501.28420,E,35.407,279.89,130625,,,D*4A

2025-06-13 03:48:07.754924 -- $GNVTG,279.89,T,,M,35.407,N,65.574,K,D*2B

2025-06-13 03:48:08.162879 -- $GNRMC,014807.95,A,4546.13724,N,00501.27864,E,35.741,280.16,130625,,,D*42

2025-06-13 03:48:08.163389 -- $GNVTG,280.16,T,,M,35.741,N,66.193,K,D*24

2025-06-13 03:48:08.364327 -- $GNRMC,014808.15,A,4546.13759,N,00501.27584,E,35.922,280.06,130625,,,D*46

2025-06-13 03:48:08.556264 -- $GNRMC,014808.35,A,4546.13794,N,00501.27302,E,36.192,279.86,130625,,,D*43

2025-06-13 03:48:08.556677 -- $GNVTG,279.86,T,,M,36.192,N,67.027,K,D*2F

2025-06-13 03:48:08.754715 -- $GNVTG,279.82,T,,M,36.385,N,67.386,K,D*27

2025-06-13 03:48:08.966096 -- $GNRMC,014808.75,A,4546.13863,N,00501.26732,E,36.544,280.01,130625,,,D*40

2025-06-13 03:48:08.967415 -- $GNVTG,280.01,T,,M,36.544,N,67.680,K,D*22

2025-06-13 03:48:09.361377 -- $GNRMC,014809.15,A,4546.13934,N,00501.26158,E,36.895,279.98,130625,,,D*49

2025-06-13 03:48:09.542027 -- $GNVTG,280.07,T,,M,37.055,N,68.626,K,D*23

2025-06-13 03:48:09.948102 -- $GNRMC,014809.75,A,4546.14044,N,00501.25291,E,36.903,280.24,130625,,,D*4C

2025-06-13 03:48:09.948516 -- $GNVTG,280.24,T,,M,36.903,N,68.344,K,D*28

2025-06-13 03:48:10.154162 -- $GNRMC,014809.95,A,4546.14079,N,00501.25004,E,36.860,279.83,130625,,,D*4D

2025-06-13 03:48:10.154579 -- $GNVTG,279.83,T,,M,36.860,N,68.265,K,D*25

2025-06-13 03:48:10.355868 -- $GNRMC,014810.15,A,4546.14115,N,00501.24717,E,36.828,280.03,130625,,,D*40

2025-06-13 03:48:10.356132 -- $GNVTG,280.03,T,,M,36.828,N,68.205,K,D*21

2025-06-13 03:48:11.151444 -- $GNRMC,014810.95,A,4546.14257,N,00501.23567,E,36.791,279.83,130625,,,D*4C

2025-06-13 03:48:11.151866 -- $GNVTG,279.83,T,,M,36.791,N,68.137,K,D*20

2025-06-13 03:48:11.557488 -- $GNRMC,014811.35,A,4546.14327,N,00501.22992,E,36.744,279.85,130625,,,D*48

2025-06-13 03:48:11.761222 -- $GNRMC,014811.55,A,4546.14362,N,00501.22705,E,36.681,279.89,130625,,,D*4B

2025-06-13 03:48:11.761515 -- $GNVTG,279.89,T,,M,36.681,N,67.933,K,D*29

2025-06-13 03:48:11.946019 -- $GNRMC,014811.75,A,4546.14398,N,00501.22418,E,36.679,279.91,130625,,,D*4D

2025-06-13 03:48:11.946434 -- $GNVTG,279.91,T,,M,36.679,N,67.930,K,D*24

2025-06-13 03:48:12.173541 -- $GNRMC,014811.95,A,4546.14433,N,00501.22131,E,36.650,279.88,130625,,,D*48

2025-06-13 03:48:12.173939 -- $GNVTG,279.88,T,,M,36.650,N,67.875,K,D*27

2025-06-13 03:48:12.360645 -- $GNRMC,014812.15,A,4546.14468,N,00501.21845,E,36.498,279.76,130625,,,D*43

2025-06-13 03:48:12.360936 -- $GNVTG,279.76,T,,M,36.498,N,67.593,K,D*25

2025-06-13 03:48:13.546592 -- $GNRMC,014813.35,A,4546.14677,N,00501.20137,E,36.372,280.03,130625,,,D*46

2025-06-13 03:48:13.547095 -- $GNVTG,280.03,T,,M,36.372,N,67.362,K,D*2A

2025-06-13 03:48:13.947032 -- $GNRMC,014813.75,A,4546.14748,N,00501.19570,E,36.341,280.21,130625,,,D*42

2025-06-13 03:48:13.947450 -- $GNVTG,280.21,T,,M,36.341,N,67.304,K,D*2A

2025-06-13 03:48:14.366160 -- $GNRMC,014814.15,A,4546.14819,N,00501.19004,E,36.160,280.01,130625,,,D*4D

2025-06-13 03:48:14.366427 -- $GNVTG,280.01,T,,M,36.160,N,66.969,K,D*29

2025-06-13 03:48:15.736007 -- $GNRMC,014815.55,A,4546.15066,N,00501.17031,E,35.976,279.83,130625,,,D*41

2025-06-13 03:48:15.736303 -- $GNVTG,279.83,T,,M,35.976,N,66.628,K,D*23

2025-06-13 03:48:15.946072 -- $GNRMC,014815.75,A,4546.15100,N,00501.16749,E,35.940,279.74,130625,,,D*46

2025-06-13 03:48:15.946498 -- $GNVTG,279.74,T,,M,35.940,N,66.561,K,D*20

2025-06-13 03:48:16.347394 -- $GNRMC,014816.15,A,4546.15169,N,00501.16188,E,35.798,279.77,130625,,,D*4F

2025-06-13 03:48:16.947733 -- $GNRMC,014816.75,A,4546.15272,N,00501.15348,E,35.769,280.08,130625,,,D*4D

2025-06-13 03:48:16.948063 -- $GNVTG,280.08,T,,M,35.769,N,66.243,K,D*2F

2025-06-13 03:48:17.149165 -- $GNRMC,014816.95,A,4546.15306,N,00501.15069,E,35.671,279.76,130625,,,D*46

2025-06-13 03:48:17.149432 -- $GNVTG,279.76,T,,M,35.671,N,66.063,K,D*28

2025-06-13 03:48:17.945220 -- $GNRMC,014817.75,A,4546.15434,N,00501.13952,E,35.448,280.02,130625,,,D*45

2025-06-13 03:48:17.945507 -- $GNVTG,280.02,T,,M,35.448,N,65.649,K,D*28

2025-06-13 03:48:18.358457 -- $GNRMC,014818.15,A,4546.15500,N,00501.13395,E,35.537,280.48,130625,,,D*4C

2025-06-13 03:48:18.358878 -- $GNVTG,280.48,T,,M,35.537,N,65.814,K,D*29

2025-06-13 03:48:18.546361 -- $GNRMC,014818.35,A,4546.15534,N,00501.13117,E,35.522,280.01,130625,,,D*48

2025-06-13 03:48:18.546811 -- $GNVTG,280.01,T,,M,35.522,N,65.787,K,D*25

2025-06-13 03:48:19.365161 -- $GNRMC,014819.15,A,4546.15672,N,00501.12008,E,35.325,280.25,130625,,,D*43

2025-06-13 03:48:19.365559 -- $GNVTG,280.25,T,,M,35.325,N,65.421,K,D*2D

2025-06-13 03:48:20.953688 -- $GNRMC,014820.75,A,4546.15947,N,00501.09808,E,35.112,279.81,130625,,,D*4A

2025-06-13 03:48:21.368841 -- $GNRMC,014821.15,A,4546.16018,N,00501.09262,E,35.074,280.00,130625,,,D*45

2025-06-13 03:48:21.369497 -- $GNVTG,280.00,T,,M,35.074,N,64.957,K,D*20

2025-06-13 03:48:21.550670 -- $GNRMC,014821.35,A,4546.16052,N,00501.08990,E,34.967,279.75,130625,,,D*40

2025-06-13 03:48:21.551365 -- $GNVTG,279.75,T,,M,34.967,N,64.759,K,D*2E

2025-06-13 03:48:22.169860 -- $GNRMC,014821.95,A,4546.16153,N,00501.08173,E,34.865,279.78,130625,,,D*41

2025-06-13 03:48:23.568428 -- $GNRMC,014823.35,A,4546.16387,N,00501.06272,E,34.586,280.06,130625,,,D*41

2025-06-13 03:48:23.568719 -- $GNVTG,280.06,T,,M,34.586,N,64.053,K,D*22

2025-06-13 03:48:24.560437 -- $GNRMC,014824.35,A,4546.16554,N,00501.04918,E,34.514,280.03,130625,,,D*45

2025-06-13 03:48:25.558824 -- $GNRMC,014825.35,A,4546.16720,N,00501.03574,E,34.305,280.11,130625,,,D*41

2025-06-13 03:48:25.559335 -- $GNVTG,280.11,T,,M,34.305,N,63.533,K,D*2D

2025-06-13 03:48:25.944920 -- $GNRMC,014825.75,A,4546.16786,N,00501.03038,E,34.349,280.01,130625,,,D*4D

2025-06-13 03:48:25.945351 -- $GNVTG,280.01,T,,M,34.349,N,63.614,K,D*22

2025-06-13 03:48:26.166457 -- $GNRMC,014825.95,A,4546.16818,N,00501.02769,E,34.270,279.80,130625,,,D*4D

2025-06-13 03:48:26.167067 -- $GNVTG,279.80,T,,M,34.270,N,63.468,K,D*2F

2025-06-13 03:48:26.547700 -- $GNRMC,014826.35,A,4546.16881,N,00501.02232,E,34.348,279.62,130625,,,D*49

2025-06-13 03:48:26.547999 -- $GNVTG,279.62,T,,M,34.348,N,63.613,K,D*27

2025-06-13 03:48:26.752167 -- $GNRMC,014826.55,A,4546.16913,N,00501.01965,E,34.272,279.81,130625,,,D*4A

2025-06-13 03:48:26.752629 -- $GNVTG,279.81,T,,M,34.272,N,63.472,K,D*27

2025-06-13 03:48:27.144174 -- $GNRMC,014826.95,A,4546.16979,N,00501.01430,E,34.236,280.06,130625,,,D*4E

2025-06-13 03:48:27.144589 -- $GNVTG,280.06,T,,M,34.236,N,63.404,K,D*2F

2025-06-13 03:48:27.362691 -- $GNRMC,014827.15,A,4546.17012,N,00501.01164,E,34.151,280.09,130625,,,D*4B

2025-06-13 03:48:27.363128 -- $GNVTG,280.09,T,,M,34.151,N,63.247,K,D*23

2025-06-13 03:48:27.762192 -- $GNRMC,014827.55,A,4546.17076,N,00501.00630,E,34.179,279.68,130625,,,D*41

2025-06-13 03:48:27.762471 -- $GNVTG,279.68,T,,M,34.179,N,63.299,K,D*2B

2025-06-13 03:48:28.751824 -- $GNRMC,014828.55,A,4546.17236,N,00500.99297,E,34.107,280.06,130625,,,D*47

2025-06-13 03:48:28.752169 -- $GNVTG,280.06,T,,M,34.107,N,63.165,K,D*2C

2025-06-13 03:48:29.148510 -- $GNRMC,014828.95,A,4546.17301,N,00500.98765,E,34.033,279.81,130625,,,D*48

2025-06-13 03:48:29.148835 -- $GNVTG,279.81,T,,M,34.033,N,63.029,K,D*2A

2025-06-13 03:48:29.754788 -- $GNRMC,014829.55,A,4546.17396,N,00500.97969,E,33.962,279.74,130625,,,D*46

2025-06-13 03:48:30.751364 -- $GNRMC,014830.55,A,4546.17555,N,00500.96667,E,32.737,279.68,130625,,,D*45

2025-06-13 03:48:30.751695 -- $GNVTG,279.68,T,,M,32.737,N,60.628,K,D*2C

2025-06-13 03:48:30.963090 -- $GNRMC,014830.75,A,4546.17586,N,00500.96413,E,32.494,279.70,130625,,,D*4B

2025-06-13 03:48:31.362027 -- $GNRMC,014831.15,A,4546.17647,N,00500.95909,E,32.014,280.04,130625,,,D*4E

2025-06-13 03:48:31.362440 -- $GNVTG,280.04,T,,M,32.014,N,59.289,K,D*23

2025-06-13 03:48:31.552595 -- $GNRMC,014831.35,A,4546.17678,N,00500.95661,E,31.718,280.12,130625,,,D*4E

2025-06-13 03:48:32.166678 -- $GNRMC,014831.95,A,4546.17769,N,00500.94926,E,31.033,279.95,130625,,,D*4F

2025-06-13 03:48:32.369718 -- $GNRMC,014832.15,A,4546.17798,N,00500.94685,E,30.752,279.84,130625,,,D*4D

2025-06-13 03:48:33.557693 -- $GNRMC,014833.35,A,4546.17972,N,00500.93283,E,29.061,279.76,130625,,,D*43

2025-06-13 03:48:33.558115 -- $GNVTG,279.76,T,,M,29.061,N,53.821,K,D*2A

2025-06-13 03:48:33.764436 -- $GNRMC,014833.55,A,4546.17999,N,00500.93057,E,28.670,279.47,130625,,,D*4E

2025-06-13 03:48:34.162693 -- $GNRMC,014833.95,A,4546.18052,N,00500.92617,E,27.811,279.93,130625,,,D*4F

2025-06-13 03:48:34.162979 -- $GNVTG,279.93,T,,M,27.811,N,51.506,K,D*2A

2025-06-13 03:48:34.380231 -- $GNRMC,014834.15,A,4546.18079,N,00500.92403,E,27.343,279.95,130625,,,D*44

2025-06-13 03:48:34.380885 -- $GNVTG,279.95,T,,M,27.343,N,50.639,K,D*2E

2025-06-13 03:48:34.763506 -- $GNRMC,014834.55,A,4546.18130,N,00500.91984,E,26.462,280.03,130625,,,D*41

2025-06-13 03:48:35.367103 -- $GNRMC,014835.15,A,4546.18204,N,00500.91381,E,25.031,279.88,130625,,,D*4B

2025-06-13 03:48:35.550285 -- $GNRMC,014835.35,A,4546.18228,N,00500.91188,E,24.613,279.91,130625,,,D*43

2025-06-13 03:48:35.550565 -- $GNVTG,279.91,T,,M,24.613,N,45.583,K,D*2F

2025-06-13 03:48:35.775001 -- $GNRMC,014835.55,A,4546.18251,N,00500.90997,E,24.185,279.92,130625,,,D*47

2025-06-13 03:48:35.775427 -- $GNVTG,279.92,T,,M,24.185,N,44.790,K,D*25

2025-06-13 03:48:35.959544 -- $GNRMC,014835.75,A,4546.18274,N,00500.90811,E,23.753,279.98,130625,,,D*4D

2025-06-13 03:48:35.960008 -- $GNVTG,279.98,T,,M,23.753,N,43.990,K,D*2C

2025-06-13 03:48:36.180174 -- $GNRMC,014835.95,A,4546.18297,N,00500.90627,E,23.258,279.75,130625,,,D*48

2025-06-13 03:48:37.163190 -- $GNRMC,014836.95,A,4546.18404,N,00500.89763,E,21.217,279.69,130625,,,D*4A

2025-06-13 03:48:37.163859 -- $GNVTG,279.69,T,,M,21.217,N,39.295,K,D*26

2025-06-13 03:48:37.376335 -- $GNRMC,014837.15,A,4546.18425,N,00500.89600,E,20.899,280.16,130625,,,D*47

2025-06-13 03:48:38.767121 -- $GNRMC,014838.55,A,4546.18558,N,00500.88521,E,18.833,280.26,130625,,,D*4E

2025-06-13 03:48:38.767472 -- $GNVTG,280.26,T,,M,18.833,N,34.878,K,D*29

2025-06-13 03:48:38.967696 -- $GNRMC,014838.75,A,4546.18576,N,00500.88376,E,18.457,279.83,130625,,,D*43

2025-06-13 03:48:38.968116 -- $GNVTG,279.83,T,,M,18.457,N,34.183,K,D*23

2025-06-13 03:48:39.966783 -- $GNRMC,014839.75,A,4546.18660,N,00500.87683,E,16.953,279.84,130625,,,D*46

2025-06-13 03:48:39.967191 -- $GNVTG,279.84,T,,M,16.953,N,31.398,K,D*2E

2025-06-13 03:48:40.561446 -- $GNRMC,014840.35,A,4546.18706,N,00500.87298,E,15.958,279.53,130625,,,D*41

2025-06-13 03:48:41.382025 -- $GNRMC,014841.15,A,4546.18763,N,00500.86824,E,14.573,279.57,130625,,,D*4D

2025-06-13 03:48:41.382369 -- $GNVTG,279.57,T,,M,14.573,N,26.989,K,D*20

2025-06-13 03:48:41.570921 -- $GNRMC,014841.35,A,4546.18775,N,00500.86712,E,14.254,279.20,130625,,,D*40

2025-06-13 03:48:42.191717 -- $GNRMC,014841.95,A,4546.18816,N,00500.86385,E,13.884,280.19,130625,,,D*46

2025-06-13 03:48:42.192006 -- $GNVTG,280.19,T,,M,13.884,N,25.713,K,D*20

2025-06-13 03:48:42.566524 -- $GNRMC,014842.35,A,4546.18842,N,00500.86169,E,13.857,279.56,130625,,,D*4D

2025-06-13 03:48:42.566898 -- $GNVTG,279.56,T,,M,13.857,N,25.664,K,D*22

2025-06-13 03:48:43.175522 -- $GNRMC,014842.95,A,4546.18880,N,00500.85843,E,13.835,280.19,130625,,,D*42

2025-06-13 03:48:43.553332 -- $GNRMC,014843.35,A,4546.18903,N,00500.85625,E,13.937,279.89,130625,,,D*41

2025-06-13 03:48:43.968016 -- $GNRMC,014843.75,A,4546.18929,N,00500.85408,E,13.904,279.72,130625,,,D*44

2025-06-13 03:48:45.368025 -- $GNVTG,278.85,T,,M,13.917,N,25.775,K,D*29

2025-06-13 03:48:45.550639 -- $GNRMC,014845.35,A,4546.19024,N,00500.84538,E,13.856,278.96,130625,,,D*4D

2025-06-13 03:48:45.550923 -- $GNVTG,278.96,T,,M,13.856,N,25.661,K,D*2B

2025-06-13 03:48:45.754605 -- $GNRMC,014845.55,A,4546.19036,N,00500.84430,E,13.951,279.73,130625,,,D*4D

2025-06-13 03:48:45.754950 -- $GNVTG,279.73,T,,M,13.951,N,25.837,K,D*2A

2025-06-13 03:48:45.952269 -- $GNRMC,014845.75,A,4546.19049,N,00500.84321,E,13.880,279.00,130625,,,D*49

2025-06-13 03:48:46.766357 -- $GNRMC,014846.55,A,4546.19097,N,00500.83886,E,13.839,279.18,130625,,,D*41

2025-06-13 03:48:47.170308 -- $GNRMC,014846.95,A,4546.19122,N,00500.83669,E,13.920,279.38,130625,,,D*46

2025-06-13 03:48:47.572133 -- $GNRMC,014847.35,A,4546.19146,N,00500.83452,E,13.745,279.10,130625,,,D*42

2025-06-13 03:48:48.567166 -- $GNRMC,014848.35,A,4546.19208,N,00500.82908,E,13.857,279.39,130625,,,D*40

2025-06-13 03:48:48.766390 -- $GNRMC,014848.55,A,4546.19220,N,00500.82799,E,13.821,279.49,130625,,,D*4C

2025-06-13 03:48:48.968953 -- $GNRMC,014848.75,A,4546.19231,N,00500.82690,E,13.780,279.47,130625,,,D*4C

2025-06-13 03:48:48.969440 -- $GNVTG,279.47,T,,M,13.780,N,25.520,K,D*24

2025-06-13 03:48:49.159571 -- $GNRMC,014848.95,A,4546.19244,N,00500.82582,E,13.796,280.25,130625,,,D*45

2025-06-13 03:48:49.966575 -- $GNRMC,014849.75,A,4546.19289,N,00500.82148,E,13.795,278.84,130625,,,D*46

2025-06-13 03:48:50.383045 -- $GNRMC,014850.15,A,4546.19310,N,00500.81931,E,13.867,277.85,130625,,,D*40

2025-06-13 03:48:50.383513 -- $GNVTG,277.85,T,,M,13.867,N,25.681,K,D*2A

2025-06-13 03:48:51.160345 -- $GNRMC,014850.95,A,4546.19363,N,00500.81477,E,15.142,279.39,130625,,,D*42

2025-06-13 03:48:51.160715 -- $GNVTG,279.39,T,,M,15.142,N,28.043,K,D*2E

2025-06-13 03:48:52.378217 -- $GNRMC,014852.15,A,4546.19456,N,00500.80693,E,18.103,279.78,130625,,,D*4D

2025-06-13 03:48:52.571688 -- $GNRMC,014852.35,A,4546.19473,N,00500.80548,E,18.670,279.54,130625,,,D*40

2025-06-13 03:48:53.775940 -- $GNRMC,014853.55,A,4546.19585,N,00500.79596,E,21.674,279.74,130625,,,D*46

2025-06-13 03:48:54.189678 -- $GNRMC,014853.95,A,4546.19628,N,00500.79249,E,22.733,280.00,130625,,,D*4F

2025-06-13 03:48:54.189958 -- $GNVTG,280.00,T,,M,22.733,N,42.101,K,D*2D

2025-06-13 03:48:54.563416 -- $GNRMC,014854.35,A,4546.19672,N,00500.78884,E,23.657,279.73,130625,,,D*47

2025-06-13 03:48:55.384862 -- $GNRMC,014855.15,A,4546.19764,N,00500.78113,E,25.459,279.80,130625,,,D*43

2025-06-13 03:48:56.373734 -- $GNRMC,014856.15,A,4546.19892,N,00500.77077,E,27.364,279.90,130625,,,D*40

2025-06-13 03:48:57.556841 -- $GNRMC,014857.35,A,4546.20054,N,00500.75744,E,29.304,279.87,130625,,,D*40

2025-06-13 03:48:57.557478 -- $GNVTG,279.87,T,,M,29.304,N,54.270,K,D*2D

2025-06-13 03:48:58.965152 -- $GNRMC,014858.75,A,4546.20259,N,00500.74083,E,31.250,280.02,130625,,,D*4B

2025-06-13 03:48:58.965707 -- $GNVTG,280.02,T,,M,31.250,N,57.875,K,D*23

2025-06-13 03:48:59.167092 -- $GNRMC,014858.95,A,4546.20289,N,00500.73837,E,31.716,279.97,130625,,,D*45

2025-06-13 03:48:59.167657 -- $GNVTG,279.97,T,,M,31.716,N,58.737,K,D*28

2025-06-13 03:48:59.378466 -- $GNRMC,014859.15,A,4546.20320,N,00500.73588,E,31.924,279.99,130625,,,D*46

2025-06-13 03:48:59.768842 -- $GNRMC,014859.55,A,4546.20382,N,00500.73086,E,32.526,279.80,130625,,,D*44

2025-06-13 03:48:59.770815 -- $GNVTG,279.80,T,,M,32.526,N,60.239,K,D*2C

2025-06-13 03:49:00.569107 -- $GNRMC,014900.35,A,4546.20508,N,00500.72054,E,33.362,279.91,130625,,,D*42

2025-06-13 03:49:01.182934 -- $GNVTG,279.98,T,,M,34.048,N,63.057,K,D*27

2025-06-13 03:49:01.384513 -- $GNRMC,014901.15,A,4546.20638,N,00500.70993,E,34.404,280.09,130625,,,D*46

2025-06-13 03:49:01.384974 -- $GNVTG,280.09,T,,M,34.404,N,63.716,K,D*27

2025-06-13 03:49:01.572667 -- $GNRMC,014901.35,A,4546.20671,N,00500.70723,E,34.578,279.95,130625,,,D*45

2025-06-13 03:49:02.182344 -- $GNRMC,014901.95,A,4546.20769,N,00500.69903,E,35.231,279.68,130625,,,D*4A

2025-06-13 03:49:02.776540 -- $GNRMC,014902.55,A,4546.20871,N,00500.69068,E,35.867,279.94,130625,,,D*4D

2025-06-13 03:49:02.776992 -- $GNVTG,279.94,T,,M,35.867,N,66.426,K,D*28

2025-06-13 03:49:03.779857 -- $GNRMC,014903.55,A,4546.21043,N,00500.67645,E,36.615,279.87,130625,,,D*49

2025-06-13 03:49:03.780139 -- $GNVTG,279.87,T,,M,36.615,N,67.811,K,D*2B

2025-06-13 03:49:04.183868 -- $GNRMC,014903.95,A,4546.21114,N,00500.67072,E,36.672,280.05,130625,,,D*49

2025-06-13 03:49:04.573686 -- $GNRMC,014904.35,A,4546.21183,N,00500.66498,E,36.766,279.85,130625,,,D*41

2025-06-13 03:49:04.771812 -- $GNRMC,014904.55,A,4546.21217,N,00500.66210,E,36.640,279.59,130625,,,D*4B

2025-06-13 03:49:04.971569 -- $GNRMC,014904.75,A,4546.21251,N,00500.65923,E,36.655,279.76,130625,,,D*4A

2025-06-13 03:49:04.971973 -- $GNVTG,279.76,T,,M,36.655,N,67.885,K,D*2C

2025-06-13 03:49:05.775466 -- $GNRMC,014905.55,A,4546.21391,N,00500.64779,E,36.633,280.12,130625,,,D*40

2025-06-13 03:49:06.389990 -- $GNRMC,014906.15,A,4546.21496,N,00500.63922,E,36.555,279.93,130625,,,D*4C

2025-06-13 03:49:06.390401 -- $GNVTG,279.93,T,,M,36.555,N,67.700,K,D*26

2025-06-13 03:49:06.576947 -- $GNRMC,014906.35,A,4546.21531,N,00500.63636,E,36.479,279.91,130625,,,D*45

2025-06-13 03:49:06.577407 -- $GNVTG,279.91,T,,M,36.479,N,67.560,K,D*2F

2025-06-13 03:49:06.779853 -- $GNRMC,014906.55,A,4546.21566,N,00500.63351,E,36.445,279.96,130625,,,D*4D

2025-06-13 03:49:06.780282 -- $GNVTG,279.96,T,,M,36.445,N,67.497,K,D*2E

2025-06-13 03:49:06.979701 -- $GNRMC,014906.75,A,4546.21600,N,00500.63066,E,36.404,279.90,130625,,,D*48

2025-06-13 03:49:06.979987 -- $GNVTG,279.90,T,,M,36.404,N,67.420,K,D*21

2025-06-13 03:49:07.578211 -- $GNRMC,014907.35,A,4546.21703,N,00500.62212,E,36.363,279.95,130625,,,D*4C

2025-06-13 03:49:07.578477 -- $GNVTG,279.95,T,,M,36.363,N,67.345,K,D*26

2025-06-13 03:49:07.979286 -- $GNRMC,014907.75,A,4546.21772,N,00500.61642,E,36.287,279.91,130625,,,D*43

2025-06-13 03:49:08.390413 -- $GNRMC,014908.15,A,4546.21840,N,00500.61075,E,36.241,280.00,130625,,,D*42

2025-06-13 03:49:08.390826 -- $GNVTG,280.00,T,,M,36.241,N,67.118,K,D*27

2025-06-13 03:49:08.971227 -- $GNRMC,014908.75,A,4546.21942,N,00500.60224,E,36.171,279.78,130625,,,D*49

2025-06-13 03:49:08.971627 -- $GNVTG,279.78,T,,M,36.171,N,66.990,K,D*27

2025-06-13 03:49:09.178625 -- $GNRMC,014908.95,A,4546.21977,N,00500.59941,E,36.270,279.89,130625,,,D*4F

2025-06-13 03:49:09.966164 -- $GNRMC,014909.75,A,4546.22114,N,00500.58809,E,36.124,279.98,130625,,,D*40

2025-06-13 03:49:10.573393 -- $GNRMC,014910.35,A,4546.22217,N,00500.57963,E,36.076,279.73,130625,,,D*4D

2025-06-13 03:49:10.573797 -- $GNVTG,279.73,T,,M,36.076,N,66.812,K,D*21

2025-06-13 03:49:10.774488 -- $GNRMC,014910.55,A,4546.22251,N,00500.57680,E,36.043,279.54,130625,,,D*48

2025-06-13 03:49:11.377981 -- $GNRMC,014911.15,A,4546.22353,N,00500.56835,E,35.994,279.99,130625,,,D*4E

2025-06-13 03:49:11.378631 -- $GNVTG,279.99,T,,M,35.994,N,66.662,K,D*2A

2025-06-13 03:49:11.574716 -- $GNRMC,014911.35,A,4546.22388,N,00500.56554,E,35.969,280.01,130625,,,D*45

2025-06-13 03:49:11.776064 -- $GNRMC,014911.55,A,4546.22421,N,00500.56272,E,35.897,279.76,130625,,,D*42

2025-06-13 03:49:11.776332 -- $GNVTG,279.76,T,,M,35.897,N,66.482,K,D*25

2025-06-13 03:49:12.397015 -- $GNRMC,014912.15,A,4546.22523,N,00500.55428,E,35.858,279.81,130625,,,D*47

2025-06-13 03:49:12.397876 -- $GNVTG,279.81,T,,M,35.858,N,66.409,K,D*2D

2025-06-13 03:49:12.571570 -- $GNRMC,014912.35,A,4546.22557,N,00500.55147,E,35.811,279.84,130625,,,D*42

2025-06-13 03:49:12.571960 -- $GNVTG,279.84,T,,M,35.811,N,66.321,K,D*28

2025-06-13 03:49:12.764253 -- $GNRMC,014912.55,A,4546.22590,N,00500.54866,E,35.829,279.89,130625,,,D*42

2025-06-13 03:49:12.764870 -- $GNVTG,279.89,T,,M,35.829,N,66.355,K,D*2D

2025-06-13 03:49:12.976588 -- $GNRMC,014912.75,A,4546.22624,N,00500.54586,E,35.795,279.84,130625,,,D*4A

2025-06-13 03:49:13.171710 -- $GNRMC,014912.95,A,4546.22658,N,00500.54305,E,35.827,279.95,130625,,,D*44

2025-06-13 03:49:13.172151 -- $GNVTG,279.95,T,,M,35.827,N,66.351,K,D*2A

2025-06-13 03:49:13.410058 -- $GNRMC,014913.15,A,4546.22691,N,00500.54024,E,35.801,279.89,130625,,,D*41

2025-06-13 03:49:13.410572 -- $GNVTG,279.89,T,,M,35.801,N,66.303,K,D*24

2025-06-13 03:49:13.695926 -- $GNRMC,014913.45,A,4546.22742,N,00500.53604,E,35.763,279.78,130625,,,D*4D

2025-06-13 03:49:13.696459 -- $GNVTG,279.78,T,,M,35.763,N,66.234,K,D*24

2025-06-13 03:49:14.059806 -- $GNRMC,014913.85,A,4546.22809,N,00500.53044,E,35.727,279.82,130625,,,D*46

2025-06-13 03:49:14.060360 -- $GNVTG,279.82,T,,M,35.727,N,66.167,K,D*24

2025-06-13 03:49:14.296343 -- $GNRMC,014914.05,A,4546.22843,N,00500.52764,E,35.757,279.93,130625,,,D*44

2025-06-13 03:49:14.296885 -- $GNVTG,279.93,T,,M,35.757,N,66.222,K,D*21

2025-06-13 03:49:14.671207 -- $GNRMC,014914.45,A,4546.22911,N,00500.52205,E,35.593,279.99,130625,,,D*44

2025-06-13 03:49:14.671639 -- $GNVTG,279.99,T,,M,35.593,N,65.919,K,D*21

2025-06-13 03:49:15.080358 -- $GNRMC,014914.85,A,4546.22979,N,00500.51648,E,35.615,279.97,130625,,,D*4B

2025-06-13 03:49:15.674445 -- $GNRMC,014915.45,A,4546.23081,N,00500.50812,E,35.568,279.76,130625,,,D*4F

2025-06-13 03:49:15.879717 -- $GNRMC,014915.65,A,4546.23114,N,00500.50535,E,35.485,279.69,130625,,,D*44

2025-06-13 03:49:16.074980 -- $GNRMC,014915.85,A,4546.23147,N,00500.50257,E,35.586,279.73,130625,,,D*46

2025-06-13 03:49:16.075420 -- $GNVTG,279.73,T,,M,35.586,N,65.905,K,D*2C

2025-06-13 03:49:16.299378 -- $GNRMC,014916.05,A,4546.23181,N,00500.49979,E,35.457,279.81,130625,,,D*48

2025-06-13 03:49:16.474438 -- $GNRMC,014916.25,A,4546.23214,N,00500.49701,E,35.433,279.86,130625,,,D*41

2025-06-13 03:49:16.474932 -- $GNVTG,279.86,T,,M,35.433,N,65.622,K,D*23

2025-06-13 03:49:16.860086 -- $GNRMC,014916.65,A,4546.23282,N,00500.49147,E,35.414,279.85,130625,,,D*48

2025-06-13 03:49:16.860401 -- $GNVTG,279.85,T,,M,35.414,N,65.587,K,D*29

2025-06-13 03:49:17.471098 -- $GNRMC,014917.25,A,4546.23385,N,00500.48317,E,35.384,279.92,130625,,,D*45

2025-06-13 03:49:17.471752 -- $GNVTG,279.92,T,,M,35.384,N,65.532,K,D*2F

2025-06-13 03:49:17.874363 -- $GNRMC,014917.65,A,4546.23451,N,00500.47763,E,35.372,279.71,130625,,,D*43

2025-06-13 03:49:17.874810 -- $GNVTG,279.71,T,,M,35.372,N,65.509,K,D*23

2025-06-13 03:49:18.077374 -- $GNRMC,014917.85,A,4546.23484,N,00500.47487,E,35.309,279.62,130625,,,D*42

2025-06-13 03:49:18.578530 -- $GNRMC,014918.35,A,4546.23567,N,00500.46795,E,35.234,279.98,130625,,,D*41

2025-06-13 03:49:18.578943 -- $GNVTG,279.98,T,,M,35.234,N,65.254,K,D*28

2025-06-13 03:49:19.566307 -- $GNRMC,014919.35,A,4546.23732,N,00500.45418,E,35.153,279.93,130625,,,D*4E

2025-06-13 03:49:20.189518 -- $GNRMC,014919.95,A,4546.23833,N,00500.44592,E,35.098,279.86,130625,,,D*4A

2025-06-13 03:49:21.404199 -- $GNRMC,014921.15,A,4546.24034,N,00500.42950,E,34.963,279.92,130625,,,D*4C

2025-06-13 03:49:21.404621 -- $GNVTG,279.92,T,,M,34.963,N,64.751,K,D*2B

2025-06-13 03:49:21.584400 -- $GNRMC,014921.35,A,4546.24068,N,00500.42676,E,35.001,280.03,130625,,,D*4E

2025-06-13 03:49:21.584685 -- $GNVTG,280.03,T,,M,35.001,N,64.821,K,D*21

2025-06-13 03:49:21.790953 -- $GNRMC,014921.55,A,4546.24101,N,00500.42402,E,35.044,279.84,130625,,,D*4F

2025-06-13 03:49:21.791573 -- $GNVTG,279.84,T,,M,35.044,N,64.901,K,D*2A

2025-06-13 03:49:21.987407 -- $GNVTG,279.96,T,,M,34.919,N,64.669,K,D*28

2025-06-13 03:49:22.202433 -- $GNRMC,014921.95,A,4546.24167,N,00500.41855,E,34.950,279.87,130625,,,D*40

2025-06-13 03:49:22.394957 -- $GNRMC,014922.15,A,4546.24201,N,00500.41582,E,34.908,280.06,130625,,,D*4D

2025-06-13 03:49:22.395351 -- $GNVTG,280.06,T,,M,34.908,N,64.650,K,D*2D

