2025-02-06 15:26:43.143979 -- $GNRMC,142643.15,A,4543.88251,N,00449.73672,E,8.536,92.90,060225,,,D*40

2025-02-06 15:26:43.144355 -- $GNVTG,92.90,T,,M,8.536,N,15.808,K,D*28

2025-02-06 15:26:43.947472 -- $GNRMC,142643.95,A,4543.88235,N,00449.73921,E,7.176,93.74,060225,,,D*47

2025-02-06 15:26:44.147777 -- $GNRMC,142644.15,A,4543.88232,N,00449.73975,E,6.849,92.85,060225,,,D*45

2025-02-06 15:26:44.148097 -- $GNVTG,92.85,T,,M,6.849,N,12.685,K,D*2B

2025-02-06 15:26:44.345488 -- $GNRMC,142644.35,A,4543.88229,N,00449.74027,E,6.505,93.89,060225,,,D*4C

2025-02-06 15:26:44.549498 -- $GNRMC,142644.55,A,4543.88226,N,00449.74075,E,5.884,94.38,060225,,,D*48

2025-02-06 15:26:44.549916 -- $GNVTG,94.38,T,,M,5.884,N,10.898,K,D*29

2025-02-06 15:26:44.746798 -- $GNRMC,142644.75,A,4543.88221,N,00449.74121,E,5.789,96.07,060225,,,D*41

2025-02-06 15:26:44.747092 -- $GNVTG,96.07,T,,M,5.789,N,10.721,K,D*28

2025-02-06 15:26:45.139429 -- $GNRMC,142645.15,A,4543.88213,N,00449.74204,E,4.858,96.40,060225,,,D*42

2025-02-06 15:26:45.139712 -- $GNVTG,96.40,T,,M,4.858,N,8.997,K,D*13

2025-02-06 15:26:45.329234 -- $GNRMC,142645.35,A,4543.88209,N,00449.74240,E,4.570,96.98,060225,,,D*49

2025-02-06 15:26:45.329507 -- $GNVTG,96.98,T,,M,4.570,N,8.463,K,D*17

2025-02-06 15:26:45.529976 -- $GNRMC,142645.55,A,4543.88206,N,00449.74275,E,4.479,95.03,060225,,,D*4F

2025-02-06 15:26:45.931869 -- $GNRMC,142645.95,A,4543.88202,N,00449.74340,E,3.799,92.47,060225,,,D*4D

2025-02-06 15:26:46.131639 -- $GNRMC,142646.15,A,4543.88201,N,00449.74368,E,3.452,93.55,060225,,,D*49

2025-02-06 15:26:46.324897 -- $GNRMC,142646.35,A,4543.88199,N,00449.74393,E,3.073,94.24,060225,,,D*4B

2025-02-06 15:26:46.530192 -- $GNRMC,142646.55,A,4543.88198,N,00449.74415,E,2.664,91.67,060225,,,D*46

2025-02-06 15:26:46.726144 -- $GNRMC,142646.75,A,4543.88197,N,00449.74435,E,2.333,92.48,060225,,,D*40

2025-02-06 15:26:46.927692 -- $GNRMC,142646.95,A,4543.88195,N,00449.74452,E,2.014,94.80,060225,,,D*49

2025-02-06 15:26:47.124062 -- $GNRMC,142647.15,A,4543.88195,N,00449.74466,E,1.571,83.42,060225,,,D*4A

2025-02-06 15:26:47.124377 -- $GNVTG,83.42,T,,M,1.571,N,2.909,K,D*1B

2025-02-06 15:26:47.325339 -- $GNRMC,142647.35,A,4543.88195,N,00449.74479,E,1.449,87.50,060225,,,D*4B

2025-02-06 15:26:47.325647 -- $GNVTG,87.50,T,,M,1.449,N,2.683,K,D*1B

2025-02-06 15:26:47.726711 -- $GNRMC,142647.75,A,4543.88192,N,00449.74501,E,1.077,100.67,060225,,,D*75

2025-02-06 15:26:47.727088 -- $GNVTG,100.67,T,,M,1.077,N,1.994,K,D*22

2025-02-06 15:26:47.930445 -- $GNRMC,142647.95,A,4543.88189,N,00449.74511,E,1.101,89.16,060225,,,D*46

2025-02-06 15:26:47.930745 -- $GNVTG,89.16,T,,M,1.101,N,2.040,K,D*17

2025-02-06 15:26:48.131499 -- $GNRMC,142648.15,A,4543.88187,N,00449.74519,E,0.693,89.18,060225,,,D*44

2025-02-06 15:26:48.131809 -- $GNVTG,89.18,T,,M,0.693,N,1.284,K,D*1D

2025-02-06 15:26:48.330274 -- $GNRMC,142648.35,A,4543.88187,N,00449.74525,E,0.663,81.33,060225,,,D*47

2025-02-06 15:26:48.330755 -- $GNVTG,81.33,T,,M,0.663,N,1.229,K,D*14

2025-02-06 15:26:48.530039 -- $GNRMC,142648.55,A,4543.88187,N,00449.74530,E,0.495,,060225,,,D*69

2025-02-06 15:26:48.923456 -- $GNRMC,142648.95,A,4543.88185,N,00449.74536,E,0.228,,060225,,,D*61

2025-02-06 15:26:48.923713 -- $GNVTG,,T,,M,0.228,N,0.422,K,D*34

2025-02-06 15:26:49.926188 -- $GNRMC,142649.95,A,4543.88180,N,00449.74539,E,0.042,,060225,,,D*64

2025-02-06 15:26:49.926433 -- $GNVTG,,T,,M,0.042,N,0.079,K,D*30

2025-02-06 15:26:50.531890 -- $GNRMC,142650.55,A,4543.88179,N,00449.74538,E,0.131,,060225,,,D*62

2025-02-06 15:26:50.532207 -- $GNVTG,,T,,M,0.131,N,0.243,K,D*3E

2025-02-06 15:26:50.942156 -- $GNRMC,142650.95,A,4543.88178,N,00449.74538,E,0.036,,060225,,,D*69

2025-02-06 15:26:52.137636 -- $GNRMC,142652.15,A,4543.88171,N,00449.74540,E,0.062,,060225,,,D*64

2025-02-06 15:26:52.527137 -- $GNRMC,142652.55,A,4543.88169,N,00449.74542,E,0.038,,060225,,,D*64

2025-02-06 15:26:52.527597 -- $GNVTG,,T,,M,0.038,N,0.070,K,D*34

2025-02-06 15:26:52.927368 -- $GNRMC,142652.95,A,4543.88166,N,00449.74543,E,0.043,,060225,,,D*6A

2025-02-06 15:26:53.537491 -- $GNRMC,142653.55,A,4543.88162,N,00449.74543,E,0.043,,060225,,,D*63

2025-02-06 15:26:53.537949 -- $GNVTG,,T,,M,0.043,N,0.079,K,D*31

2025-02-06 15:26:53.943395 -- $GNRMC,142653.95,A,4543.88160,N,00449.74544,E,0.032,,060225,,,D*6C

2025-02-06 15:26:53.943855 -- $GNVTG,,T,,M,0.032,N,0.059,K,D*35

2025-02-06 15:26:55.524078 -- $GNRMC,142655.55,A,4543.88151,N,00449.74546,E,0.090,,060225,,,D*6E

2025-02-06 15:26:55.524332 -- $GNVTG,,T,,M,0.090,N,0.166,K,D*30

2025-02-06 15:26:55.924011 -- $GNRMC,142655.95,A,4543.88150,N,00449.74547,E,0.031,,060225,,,D*69

2025-02-06 15:26:55.924277 -- $GNVTG,,T,,M,0.031,N,0.058,K,D*37

2025-02-06 15:26:56.931659 -- $GNRMC,142656.95,A,4543.88144,N,00449.74551,E,0.037,,060225,,,D*6E

2025-02-06 15:26:56.931989 -- $GNVTG,,T,,M,0.037,N,0.069,K,D*33

2025-02-06 15:26:57.525346 -- $GNRMC,142657.55,A,4543.88142,N,00449.74552,E,0.031,,060225,,,D*60

2025-02-06 15:26:57.525602 -- $GNVTG,,T,,M,0.031,N,0.057,K,D*38

2025-02-06 15:26:57.724205 -- $GNRMC,142657.75,A,4543.88141,N,00449.74553,E,0.068,,060225,,,D*6C

2025-02-06 15:26:57.724480 -- $GNVTG,,T,,M,0.068,N,0.125,K,D*30

2025-02-06 15:26:58.128788 -- $GNRMC,142658.15,A,4543.88139,N,00449.74554,E,0.067,,060225,,,D*62

2025-02-06 15:26:58.322874 -- $GNRMC,142658.35,A,4543.88139,N,00449.74555,E,0.033,,060225,,,D*60

2025-02-06 15:26:58.323126 -- $GNVTG,,T,,M,0.033,N,0.061,K,D*3F

2025-02-06 15:26:58.731550 -- $GNRMC,142658.75,A,4543.88137,N,00449.74556,E,0.059,,060225,,,D*65

2025-02-06 15:26:59.728983 -- $GNRMC,142659.75,A,4543.88134,N,00449.74559,E,0.098,,060225,,,D*65

2025-02-06 15:26:59.729261 -- $GNVTG,,T,,M,0.098,N,0.182,K,D*32

2025-02-06 15:27:00.528504 -- $GNRMC,142700.55,A,4543.88133,N,00449.74561,E,0.008,,060225,,,D*6F

2025-02-06 15:27:00.528783 -- $GNVTG,,T,,M,0.008,N,0.014,K,D*35

2025-02-06 15:27:00.940290 -- $GNRMC,142700.95,A,4543.88132,N,00449.74563,E,0.007,,060225,,,D*6F

2025-02-06 15:27:00.940543 -- $GNVTG,,T,,M,0.007,N,0.013,K,D*3D

2025-02-06 15:27:01.741672 -- $GNRMC,142701.75,A,4543.88131,N,00449.74565,E,0.065,,060225,,,D*61

2025-02-06 15:27:01.951728 -- $GNRMC,142701.95,A,4543.88131,N,00449.74567,E,0.041,,060225,,,D*6B

2025-02-06 15:27:03.131121 -- $GNRMC,142703.15,A,4543.88132,N,00449.74570,E,0.059,,060225,,,D*6D

2025-02-06 15:27:03.131405 -- $GNVTG,,T,,M,0.059,N,0.110,K,D*34

2025-02-06 15:27:03.729745 -- $GNRMC,142703.75,A,4543.88133,N,00449.74571,E,0.024,,060225,,,D*61

2025-02-06 15:27:04.556637 -- $GNRMC,142704.55,A,4543.88136,N,00449.74573,E,0.052,,060225,,,D*62

2025-02-06 15:27:04.557200 -- $GNVTG,,T,,M,0.052,N,0.097,K,D*31

2025-02-06 15:27:04.945885 -- $GNRMC,142704.95,A,4543.88136,N,00449.74574,E,0.018,,060225,,,D*67

2025-02-06 15:27:04.946605 -- $GNVTG,,T,,M,0.018,N,0.034,K,D*36

2025-02-06 15:27:05.358249 -- $GNRMC,142705.35,A,4543.88137,N,00449.74576,E,0.105,,060225,,,D*62

2025-02-06 15:27:05.358571 -- $GNVTG,,T,,M,0.105,N,0.195,K,D*31

2025-02-06 15:27:05.757673 -- $GNRMC,142705.75,A,4543.88136,N,00449.74585,E,0.734,109.62,060225,,,D*7D

2025-02-06 15:27:05.758087 -- $GNVTG,109.62,T,,M,0.734,N,1.360,K,D*2E

2025-02-06 15:27:05.971239 -- $GNRMC,142705.95,A,4543.88137,N,00449.74593,E,1.056,92.02,060225,,,D*42

2025-02-06 15:27:06.367395 -- $GNRMC,142706.35,A,4543.88139,N,00449.74619,E,1.968,94.11,060225,,,D*44

2025-02-06 15:27:06.572599 -- $GNRMC,142706.55,A,4543.88140,N,00449.74637,E,2.356,89.90,060225,,,D*41

2025-02-06 15:27:06.572906 -- $GNVTG,89.90,T,,M,2.356,N,4.364,K,D*19

2025-02-06 15:27:06.777442 -- $GNRMC,142706.75,A,4543.88138,N,00449.74659,E,2.861,99.74,060225,,,D*40

2025-02-06 15:27:06.777840 -- $GNVTG,99.74,T,,M,2.861,N,5.298,K,D*1E

2025-02-06 15:27:06.978105 -- $GNRMC,142706.95,A,4543.88137,N,00449.74685,E,3.220,91.76,060225,,,D*44

2025-02-06 15:27:06.978634 -- $GNVTG,91.76,T,,M,3.220,N,5.964,K,D*12

2025-02-06 15:27:07.180790 -- $GNRMC,142707.15,A,4543.88136,N,00449.74714,E,3.664,94.67,060225,,,D*44

2025-02-06 15:27:07.181364 -- $GNVTG,94.67,T,,M,3.664,N,6.785,K,D*11

2025-02-06 15:27:07.383774 -- $GNRMC,142707.35,A,4543.88135,N,00449.74745,E,3.877,92.29,060225,,,D*41

2025-02-06 15:27:07.384288 -- $GNVTG,92.29,T,,M,3.877,N,7.181,K,D*12

2025-02-06 15:27:07.565963 -- $GNRMC,142707.55,A,4543.88134,N,00449.74780,E,4.399,93.22,060225,,,D*49

2025-02-06 15:27:07.566353 -- $GNVTG,93.22,T,,M,4.399,N,8.147,K,D*11

2025-02-06 15:27:07.791551 -- $GNRMC,142707.75,A,4543.88132,N,00449.74815,E,4.391,92.96,060225,,,D*48

2025-02-06 15:27:07.791902 -- $GNVTG,92.96,T,,M,4.391,N,8.132,K,D*15

2025-02-06 15:27:07.991638 -- $GNRMC,142707.95,A,4543.88131,N,00449.74851,E,4.496,94.31,060225,,,D*4E

2025-02-06 15:27:07.992385 -- $GNVTG,94.31,T,,M,4.496,N,8.327,K,D*18

2025-02-06 15:27:08.197701 -- $GNRMC,142708.15,A,4543.88130,N,00449.74891,E,5.031,93.55,060225,,,D*49

2025-02-06 15:27:08.201259 -- $GNVTG,93.55,T,,M,5.031,N,9.317,K,D*17

2025-02-06 15:27:08.397069 -- $GNRMC,142708.35,A,4543.88129,N,00449.74932,E,5.090,91.17,060225,,,D*44

2025-02-06 15:27:08.603350 -- $GNRMC,142708.55,A,4543.88128,N,00449.74975,E,5.354,91.48,060225,,,D*41

2025-02-06 15:27:08.800642 -- $GNRMC,142708.75,A,4543.88126,N,00449.75021,E,5.926,93.59,060225,,,D*49

2025-02-06 15:27:08.801077 -- $GNVTG,93.59,T,,M,5.926,N,10.976,K,D*21

2025-02-06 15:27:09.000078 -- $GNRMC,142708.95,A,4543.88124,N,00449.75071,E,6.336,93.23,060225,,,D*45

2025-02-06 15:27:09.205207 -- $GNRMC,142709.15,A,4543.88123,N,00449.75123,E,6.331,92.92,060225,,,D*41

2025-02-06 15:27:09.608192 -- $GNRMC,142709.55,A,4543.88118,N,00449.75233,E,6.966,92.39,060225,,,D*46

2025-02-06 15:27:09.608725 -- $GNVTG,92.39,T,,M,6.966,N,12.901,K,D*23

2025-02-06 15:27:10.401157 -- $GNRMC,142710.35,A,4543.88106,N,00449.75469,E,7.910,94.32,060225,,,D*43

2025-02-06 15:27:11.231067 -- $GNRMC,142711.15,A,4543.88092,N,00449.75735,E,8.626,93.47,060225,,,D*46

2025-02-06 15:27:11.428619 -- $GNRMC,142711.35,A,4543.88088,N,00449.75806,E,8.984,93.71,060225,,,D*42

2025-02-06 15:27:11.627113 -- $GNRMC,142711.55,A,4543.88084,N,00449.75878,E,9.114,93.91,060225,,,D*4F

2025-02-06 15:27:11.627776 -- $GNVTG,93.91,T,,M,9.114,N,16.879,K,D*28

2025-02-06 15:27:11.829808 -- $GNRMC,142711.75,A,4543.88080,N,00449.75950,E,9.060,94.72,060225,,,D*4A

2025-02-06 15:27:12.634169 -- $GNRMC,142712.55,A,4543.88064,N,00449.76237,E,8.921,93.04,060225,,,D*43

2025-02-06 15:27:12.634490 -- $GNVTG,93.04,T,,M,8.921,N,16.521,K,D*2B

2025-02-06 15:27:13.034699 -- $GNRMC,142712.95,A,4543.88060,N,00449.76380,E,9.016,92.66,060225,,,D*4F

2025-02-06 15:27:13.034982 -- $GNVTG,92.66,T,,M,9.016,N,16.698,K,D*23

2025-02-06 15:27:13.251832 -- $GNRMC,142713.15,A,4543.88056,N,00449.76454,E,9.331,93.18,060225,,,D*43

2025-02-06 15:27:13.432880 -- $GNRMC,142713.35,A,4543.88055,N,00449.76528,E,9.447,91.28,060225,,,D*4F

2025-02-06 15:27:13.433232 -- $GNVTG,91.28,T,,M,9.447,N,17.496,K,D*27

2025-02-06 15:27:13.647803 -- $GNRMC,142713.55,A,4543.88055,N,00449.76604,E,9.675,89.61,060225,,,D*43

2025-02-06 15:27:13.648095 -- $GNVTG,89.61,T,,M,9.675,N,17.917,K,D*24

2025-02-06 15:27:13.842162 -- $GNRMC,142713.75,A,4543.88053,N,00449.76687,E,10.458,89.64,060225,,,D*7C

2025-02-06 15:27:13.844327 -- $GNVTG,89.64,T,,M,10.458,N,19.369,K,D*19

2025-02-06 15:27:14.043097 -- $GNRMC,142713.95,A,4543.88052,N,00449.76772,E,10.775,89.94,060225,,,D*7B

2025-02-06 15:27:14.043684 -- $GNVTG,89.94,T,,M,10.775,N,19.955,K,D*1F

2025-02-06 15:27:14.255912 -- $GNRMC,142714.15,A,4543.88046,N,00449.76864,E,11.431,91.89,060225,,,D*7E

2025-02-06 15:27:14.256466 -- $GNVTG,91.89,T,,M,11.431,N,21.171,K,D*1D

2025-02-06 15:27:14.447782 -- $GNRMC,142714.35,A,4543.88042,N,00449.76957,E,11.737,92.23,060225,,,D*7F

2025-02-06 15:27:14.651868 -- $GNRMC,142714.55,A,4543.88040,N,00449.77052,E,12.018,91.21,060225,,,D*7E

2025-02-06 15:27:14.652438 -- $GNVTG,91.21,T,,M,12.018,N,22.257,K,D*17

2025-02-06 15:27:15.459469 -- $GNRMC,142715.35,A,4543.88027,N,00449.77460,E,13.328,90.39,060225,,,D*74

2025-02-06 15:27:15.459972 -- $GNVTG,90.39,T,,M,13.328,N,24.684,K,D*12

2025-02-06 15:27:16.038464 -- $GNRMC,142715.95,A,4543.88021,N,00449.77795,E,14.918,91.11,060225,,,D*74

2025-02-06 15:27:16.038843 -- $GNVTG,91.11,T,,M,14.918,N,27.627,K,D*1D

2025-02-06 15:27:16.240150 -- $GNRMC,142716.15,A,4543.88018,N,00449.77912,E,14.752,92.75,060225,,,D*75

2025-02-06 15:27:16.240525 -- $GNVTG,92.75,T,,M,14.752,N,27.321,K,D*1F

2025-02-06 15:27:16.455285 -- $GNRMC,142716.35,A,4543.88015,N,00449.78030,E,15.201,91.30,060225,,,D*7C

2025-02-06 15:27:16.660032 -- $GNRMC,142716.55,A,4543.88012,N,00449.78154,E,15.883,91.26,060225,,,D*79

2025-02-06 15:27:16.660470 -- $GNVTG,91.26,T,,M,15.883,N,29.416,K,D*15

2025-02-06 15:27:16.860832 -- $GNRMC,142716.75,A,4543.88011,N,00449.78278,E,15.807,91.79,060225,,,D*73

2025-02-06 15:27:17.857816 -- $GNRMC,142717.75,A,4543.88001,N,00449.78910,E,16.874,91.03,060225,,,D*7C

2025-02-06 15:27:18.065362 -- $GNRMC,142717.95,A,4543.88000,N,00449.79044,E,16.959,90.61,060225,,,D*71

2025-02-06 15:27:18.267505 -- $GNRMC,142718.15,A,4543.87998,N,00449.79180,E,17.466,91.51,060225,,,D*7A

2025-02-06 15:27:18.467408 -- $GNRMC,142718.35,A,4543.87996,N,00449.79320,E,17.786,91.10,060225,,,D*76

2025-02-06 15:27:18.673685 -- $GNRMC,142718.55,A,4543.87994,N,00449.79463,E,18.310,91.10,060225,,,D*76

2025-02-06 15:27:18.674192 -- $GNVTG,91.10,T,,M,18.310,N,33.910,K,D*1C

2025-02-06 15:27:18.859786 -- $GNRMC,142718.75,A,4543.87991,N,00449.79610,E,18.540,90.65,060225,,,D*77

2025-02-06 15:27:19.271503 -- $GNRMC,142719.15,A,4543.87983,N,00449.79915,E,19.772,92.05,060225,,,D*7F

2025-02-06 15:27:19.271873 -- $GNVTG,92.05,T,,M,19.772,N,36.618,K,D*18

2025-02-06 15:27:19.472341 -- $GNRMC,142719.35,A,4543.87979,N,00449.80074,E,20.040,91.68,060225,,,D*74

2025-02-06 15:27:19.669102 -- $GNRMC,142719.55,A,4543.87975,N,00449.80234,E,20.353,91.66,060225,,,D*77

2025-02-06 15:27:19.669654 -- $GNVTG,91.66,T,,M,20.353,N,37.694,K,D*16

2025-02-06 15:27:20.470549 -- $GNRMC,142720.35,A,4543.87962,N,00449.80900,E,21.537,92.01,060225,,,D*76

2025-02-06 15:27:20.667382 -- $GNRMC,142720.55,A,4543.87958,N,00449.81072,E,21.860,92.05,060225,,,D*7F

2025-02-06 15:27:20.667944 -- $GNVTG,92.05,T,,M,21.860,N,40.484,K,D*19

2025-02-06 15:27:21.084808 -- $GNRMC,142720.95,A,4543.87953,N,00449.81425,E,22.586,90.91,060225,,,D*77

2025-02-06 15:27:21.275238 -- $GNRMC,142721.15,A,4543.87950,N,00449.81605,E,22.777,91.43,060225,,,D*7F

2025-02-06 15:27:21.463534 -- $GNRMC,142721.35,A,4543.87946,N,00449.81787,E,23.016,91.24,060225,,,D*71

2025-02-06 15:27:21.463870 -- $GNVTG,91.24,T,,M,23.016,N,42.626,K,D*1A

2025-02-06 15:27:21.672607 -- $GNRMC,142721.55,A,4543.87944,N,00449.81969,E,23.075,91.28,060225,,,D*72

2025-02-06 15:27:21.673009 -- $GNVTG,91.28,T,,M,23.075,N,42.735,K,D*10

2025-02-06 15:27:22.298033 -- $GNRMC,142722.15,A,4543.87934,N,00449.82509,E,22.810,91.42,060225,,,D*7D

2025-02-06 15:27:22.298689 -- $GNVTG,91.42,T,,M,22.810,N,42.244,K,D*15

2025-02-06 15:27:22.475453 -- $GNRMC,142722.35,A,4543.87930,N,00449.82688,E,22.632,91.67,060225,,,D*78

2025-02-06 15:27:22.475783 -- $GNVTG,91.67,T,,M,22.632,N,41.915,K,D*10

2025-02-06 15:27:23.082516 -- $GNRMC,142722.95,A,4543.87920,N,00449.83229,E,22.742,91.55,060225,,,D*7A

2025-02-06 15:27:23.290004 -- $GNRMC,142723.15,A,4543.87916,N,00449.83412,E,23.109,91.37,060225,,,D*74

2025-02-06 15:27:23.487331 -- $GNRMC,142723.35,A,4543.87913,N,00449.83593,E,22.751,90.44,060225,,,D*74

2025-02-06 15:27:23.678230 -- $GNRMC,142723.55,A,4543.87910,N,00449.83772,E,22.540,91.41,060225,,,D*7A

2025-02-06 15:27:23.678628 -- $GNVTG,91.41,T,,M,22.540,N,41.745,K,D*19

2025-02-06 15:27:23.868039 -- $GNRMC,142723.75,A,4543.87905,N,00449.83950,E,22.622,92.80,060225,,,D*7B

2025-02-06 15:27:23.868452 -- $GNVTG,92.80,T,,M,22.622,N,41.895,K,D*12

2025-02-06 15:27:24.074196 -- $GNRMC,142723.95,A,4543.87901,N,00449.84128,E,22.399,91.61,060225,,,D*78

2025-02-06 15:27:24.270426 -- $GNRMC,142724.15,A,4543.87900,N,00449.84302,E,21.924,90.19,060225,,,D*7D

2025-02-06 15:27:24.482287 -- $GNRMC,142724.35,A,4543.87896,N,00449.84475,E,21.929,92.05,060225,,,D*74

2025-02-06 15:27:24.686752 -- $GNRMC,142724.55,A,4543.87892,N,00449.84646,E,21.600,92.50,060225,,,D*70

2025-02-06 15:27:24.887521 -- $GNRMC,142724.75,A,4543.87888,N,00449.84815,E,21.467,91.56,060225,,,D*77

2025-02-06 15:27:24.887965 -- $GNVTG,91.56,T,,M,21.467,N,39.756,K,D*15

2025-02-06 15:27:25.087368 -- $GNRMC,142724.95,A,4543.87885,N,00449.84986,E,21.579,91.45,060225,,,D*73

2025-02-06 15:27:25.087777 -- $GNVTG,91.45,T,,M,21.579,N,39.964,K,D*16

2025-02-06 15:27:25.291756 -- $GNRMC,142725.15,A,4543.87881,N,00449.85157,E,21.919,91.62,060225,,,D*74

2025-02-06 15:27:25.292315 -- $GNVTG,91.62,T,,M,21.919,N,40.594,K,D*14

2025-02-06 15:27:25.479978 -- $GNRMC,142725.35,A,4543.87876,N,00449.85331,E,22.114,92.51,060225,,,D*79

2025-02-06 15:27:25.480377 -- $GNVTG,92.51,T,,M,22.114,N,40.955,K,D*10

2025-02-06 15:27:26.091804 -- $GNRMC,142725.95,A,4543.87873,N,00449.85828,E,21.129,90.96,060225,,,D*71

2025-02-06 15:27:26.092206 -- $GNVTG,90.96,T,,M,21.129,N,39.130,K,D*11

2025-02-06 15:27:26.293270 -- $GNRMC,142726.15,A,4543.87871,N,00449.85996,E,21.279,91.00,060225,,,D*74

2025-02-06 15:27:26.492655 -- $GNRMC,142726.35,A,4543.87869,N,00449.86162,E,20.944,91.10,060225,,,D*7A

2025-02-06 15:27:26.689693 -- $GNRMC,142726.55,A,4543.87866,N,00449.86327,E,20.928,91.14,060225,,,D*7E

2025-02-06 15:27:26.690430 -- $GNVTG,91.14,T,,M,20.928,N,38.758,K,D*1B

2025-02-06 15:27:26.888991 -- $GNRMC,142726.75,A,4543.87865,N,00449.86492,E,20.957,90.77,060225,,,D*7A

2025-02-06 15:27:27.085655 -- $GNRMC,142726.95,A,4543.87860,N,00449.86659,E,21.135,91.73,060225,,,D*7C

2025-02-06 15:27:27.086134 -- $GNVTG,91.73,T,,M,21.135,N,39.142,K,D*13

2025-02-06 15:27:27.285529 -- $GNRMC,142727.15,A,4543.87854,N,00449.86827,E,21.373,93.02,060225,,,D*71

2025-02-06 15:27:27.286098 -- $GNVTG,93.02,T,,M,21.373,N,39.583,K,D*1E

2025-02-06 15:27:27.489592 -- $GNRMC,142727.35,A,4543.87854,N,00449.86990,E,20.595,90.97,060225,,,D*7E

2025-02-06 15:27:27.490086 -- $GNVTG,90.97,T,,M,20.595,N,38.142,K,D*16

2025-02-06 15:27:27.704956 -- $GNRMC,142727.55,A,4543.87851,N,00449.87156,E,21.066,91.05,060225,,,D*7C

2025-02-06 15:27:27.705332 -- $GNVTG,91.05,T,,M,21.066,N,39.015,K,D*16

2025-02-06 15:27:27.888845 -- $GNRMC,142727.75,A,4543.87848,N,00449.87320,E,20.669,91.51,060225,,,D*7C

2025-02-06 15:27:27.889233 -- $GNVTG,91.51,T,,M,20.669,N,38.279,K,D*16

2025-02-06 15:27:28.484549 -- $GNRMC,142728.35,A,4543.87843,N,00449.87809,E,20.601,91.24,060225,,,D*70

2025-02-06 15:27:28.688322 -- $GNRMC,142728.55,A,4543.87838,N,00449.87975,E,20.877,92.73,060225,,,D*7E

2025-02-06 15:27:28.688924 -- $GNVTG,92.73,T,,M,20.877,N,38.665,K,D*1D

2025-02-06 15:27:28.882362 -- $GNRMC,142728.75,A,4543.87833,N,00449.88140,E,20.856,91.92,060225,,,D*79

2025-02-06 15:27:28.882962 -- $GNVTG,91.92,T,,M,20.856,N,38.625,K,D*16

2025-02-06 15:27:29.083069 -- $GNRMC,142728.95,A,4543.87832,N,00449.88303,E,20.498,90.75,060225,,,D*75

2025-02-06 15:27:29.083622 -- $GNVTG,90.75,T,,M,20.498,N,37.963,K,D*12

2025-02-06 15:27:29.289445 -- $GNRMC,142729.15,A,4543.87828,N,00449.88465,E,20.422,91.42,060225,,,D*74

2025-02-06 15:27:29.290060 -- $GNVTG,91.42,T,,M,20.422,N,37.821,K,D*11

2025-02-06 15:27:29.489617 -- $GNRMC,142729.35,A,4543.87824,N,00449.88626,E,20.340,92.02,060225,,,D*7B

2025-02-06 15:27:29.490224 -- $GNVTG,92.02,T,,M,20.340,N,37.670,K,D*1F

2025-02-06 15:27:29.889943 -- $GNRMC,142729.75,A,4543.87817,N,00449.88948,E,20.162,92.04,060225,,,D*7C

2025-02-06 15:27:30.090946 -- $GNRMC,142729.95,A,4543.87809,N,00449.89107,E,20.349,91.93,060225,,,D*79

2025-02-06 15:27:30.694285 -- $GNRMC,142730.55,A,4543.87798,N,00449.89588,E,20.709,91.59,060225,,,D*7F

2025-02-06 15:27:31.092727 -- $GNRMC,142730.95,A,4543.87785,N,00449.89919,E,21.368,91.98,060225,,,D*74

2025-02-06 15:27:31.093450 -- $GNVTG,91.98,T,,M,21.368,N,39.573,K,D*1A

2025-02-06 15:27:31.294107 -- $GNRMC,142731.15,A,4543.87782,N,00449.90089,E,21.577,91.37,060225,,,D*7F

2025-02-06 15:27:31.495054 -- $GNRMC,142731.35,A,4543.87779,N,00449.90260,E,21.853,91.39,060225,,,D*79

2025-02-06 15:27:31.696782 -- $GNRMC,142731.55,A,4543.87780,N,00449.90434,E,22.110,91.21,060225,,,D*7A

2025-02-06 15:27:31.697155 -- $GNVTG,91.21,T,,M,22.110,N,40.947,K,D*13

2025-02-06 15:27:31.896087 -- $GNRMC,142731.75,A,4543.87777,N,00449.90610,E,22.431,91.52,060225,,,D*76

2025-02-06 15:27:33.496511 -- $GNRMC,142733.35,A,4543.87766,N,00449.92084,E,23.980,91.42,060225,,,D*7E

2025-02-06 15:27:33.496885 -- $GNVTG,91.42,T,,M,23.980,N,44.411,K,D*1C

2025-02-06 15:27:33.699568 -- $GNRMC,142733.55,A,4543.87765,N,00449.92276,E,24.275,91.70,060225,,,D*73

2025-02-06 15:27:33.707587 -- $GNVTG,91.70,T,,M,24.275,N,44.957,K,D*14

2025-02-06 15:27:33.907646 -- $GNRMC,142733.75,A,4543.87762,N,00449.92468,E,24.322,91.63,060225,,,D*7E

2025-02-06 15:27:34.309955 -- $GNRMC,142734.15,A,4543.87759,N,00449.92852,E,24.158,91.43,060225,,,D*7F

2025-02-06 15:27:34.310490 -- $GNVTG,91.43,T,,M,24.158,N,44.741,K,D*11

2025-02-06 15:27:34.493622 -- $GNRMC,142734.35,A,4543.87757,N,00449.93044,E,24.384,91.26,060225,,,D*7D

2025-02-06 15:27:34.494154 -- $GNVTG,91.26,T,,M,24.384,N,45.159,K,D*1F

2025-02-06 15:27:34.692172 -- $GNRMC,142734.55,A,4543.87754,N,00449.93237,E,24.212,91.40,060225,,,D*70

2025-02-06 15:27:35.495066 -- $GNRMC,142735.35,A,4543.87742,N,00449.94002,E,24.166,91.34,060225,,,D*70

2025-02-06 15:27:35.495562 -- $GNVTG,91.34,T,,M,24.166,N,44.756,K,D*1A

2025-02-06 15:27:35.689190 -- $GNRMC,142735.55,A,4543.87738,N,00449.94193,E,24.206,91.79,060225,,,D*7E

2025-02-06 15:27:35.689684 -- $GNVTG,91.79,T,,M,24.206,N,44.829,K,D*11

2025-02-06 15:27:36.091914 -- $GNRMC,142735.95,A,4543.87733,N,00449.94577,E,24.226,91.12,060225,,,D*78

2025-02-06 15:27:36.092582 -- $GNVTG,91.12,T,,M,24.226,N,44.866,K,D*15

2025-02-06 15:27:36.292187 -- $GNRMC,142736.15,A,4543.87731,N,00449.94767,E,23.843,91.31,060225,,,D*7D

2025-02-06 15:27:36.292690 -- $GNVTG,91.31,T,,M,23.843,N,44.157,K,D*11

2025-02-06 15:27:36.696355 -- $GNRMC,142736.55,A,4543.87726,N,00449.95144,E,23.712,91.38,060225,,,D*7B

2025-02-06 15:27:36.696864 -- $GNVTG,91.38,T,,M,23.712,N,43.914,K,D*1B

2025-02-06 15:27:37.287584 -- $GNRMC,142737.15,A,4543.87716,N,00449.95695,E,22.671,91.67,060225,,,D*79

2025-02-06 15:27:37.288067 -- $GNVTG,91.67,T,,M,22.671,N,41.987,K,D*1C

2025-02-06 15:27:37.682957 -- $GNRMC,142737.55,A,4543.87713,N,00449.96046,E,21.683,91.39,060225,,,D*76

2025-02-06 15:27:37.683450 -- $GNVTG,91.39,T,,M,21.683,N,40.157,K,D*1D

2025-02-06 15:27:37.896045 -- $GNRMC,142737.75,A,4543.87710,N,00449.96217,E,21.338,91.78,060225,,,D*71

2025-02-06 15:27:37.896607 -- $GNVTG,91.78,T,,M,21.338,N,39.518,K,D*1C

2025-02-06 15:27:38.090949 -- $GNRMC,142737.95,A,4543.87707,N,00449.96384,E,20.718,91.84,060225,,,D*76

2025-02-06 15:27:38.091353 -- $GNVTG,91.84,T,,M,20.718,N,38.370,K,D*11

2025-02-06 15:27:38.305861 -- $GNRMC,142738.15,A,4543.87704,N,00449.96546,E,20.288,91.96,060225,,,D*75

2025-02-06 15:27:38.492776 -- $GNRMC,142738.35,A,4543.87702,N,00449.96704,E,19.715,91.69,060225,,,D*7E

2025-02-06 15:27:38.693878 -- $GNRMC,142738.55,A,4543.87700,N,00449.96858,E,19.228,91.76,060225,,,D*79

2025-02-06 15:27:38.890004 -- $GNRMC,142738.75,A,4543.87698,N,00449.97008,E,18.773,91.26,060225,,,D*78

2025-02-06 15:27:38.890405 -- $GNVTG,91.26,T,,M,18.773,N,34.768,K,D*1E

2025-02-06 15:27:39.092166 -- $GNRMC,142738.95,A,4543.87696,N,00449.97154,E,18.187,91.70,060225,,,D*7E

2025-02-06 15:27:39.501517 -- $GNRMC,142739.35,A,4543.87692,N,00449.97433,E,17.040,91.61,060225,,,D*70

2025-02-06 15:27:39.706541 -- $GNRMC,142739.55,A,4543.87690,N,00449.97566,E,16.660,91.56,060225,,,D*74

2025-02-06 15:27:39.888436 -- $GNRMC,142739.75,A,4543.87689,N,00449.97693,E,15.768,91.36,060225,,,D*7B

2025-02-06 15:27:40.087429 -- $GNRMC,142739.95,A,4543.87687,N,00449.97817,E,15.539,91.61,060225,,,D*7D

2025-02-06 15:27:40.088532 -- $GNVTG,91.61,T,,M,15.539,N,28.779,K,D*11

2025-02-06 15:27:40.296821 -- $GNRMC,142740.15,A,4543.87686,N,00449.97938,E,15.181,90.99,060225,,,D*77

2025-02-06 15:27:40.297220 -- $GNVTG,90.99,T,,M,15.181,N,28.116,K,D*1F

2025-02-06 15:27:40.894392 -- $GNRMC,142740.75,A,4543.87685,N,00449.98270,E,13.251,89.41,060225,,,D*7F

2025-02-06 15:27:41.495626 -- $GNRMC,142741.35,A,4543.87681,N,00449.98575,E,12.520,92.24,060225,,,D*75

2025-02-06 15:27:41.692751 -- $GNRMC,142741.55,A,4543.87679,N,00449.98675,E,12.531,93.22,060225,,,D*70

2025-02-06 15:27:41.693141 -- $GNVTG,93.22,T,,M,12.531,N,23.207,K,D*1C

2025-02-06 15:27:42.298824 -- $GNRMC,142742.15,A,4543.87672,N,00449.98956,E,11.599,93.93,060225,,,D*79

2025-02-06 15:27:42.926422 -- $GNRMC,142742.75,A,4543.87671,N,00449.99214,E,10.747,89.23,060225,,,D*70

2025-02-06 15:27:42.926965 -- $GNVTG,89.23,T,,M,10.747,N,19.903,K,D*11

2025-02-06 15:27:43.334137 -- $GNRMC,142743.15,A,4543.87672,N,00449.99381,E,10.435,89.61,060225,,,D*79

2025-02-06 15:27:43.334891 -- $GNVTG,89.61,T,,M,10.435,N,19.325,K,D*1F

2025-02-06 15:27:43.522236 -- $GNRMC,142743.35,A,4543.87674,N,00449.99462,E,10.389,88.17,060225,,,D*77

2025-02-06 15:27:43.724228 -- $GNRMC,142743.55,A,4543.87674,N,00449.99546,E,10.572,89.09,060225,,,D*7A

2025-02-06 15:27:43.929723 -- $GNRMC,142743.75,A,4543.87675,N,00449.99631,E,10.648,88.50,060225,,,D*7D

2025-02-06 15:27:43.930283 -- $GNVTG,88.50,T,,M,10.648,N,19.719,K,D*1F

2025-02-06 15:27:44.124605 -- $GNRMC,142743.95,A,4543.87678,N,00449.99713,E,10.438,85.66,060225,,,D*72

2025-02-06 15:27:44.125399 -- $GNVTG,85.66,T,,M,10.438,N,19.332,K,D*1F

2025-02-06 15:27:44.337688 -- $GNRMC,142744.15,A,4543.87680,N,00449.99798,E,10.848,87.36,060225,,,D*75

2025-02-06 15:27:44.338464 -- $GNVTG,87.36,T,,M,10.848,N,20.090,K,D*12

2025-02-06 15:27:44.726498 -- $GNRMC,142744.55,A,4543.87679,N,00449.99975,E,11.174,88.29,060225,,,D*7C

2025-02-06 15:27:44.727044 -- $GNVTG,88.29,T,,M,11.174,N,20.694,K,D*16

2025-02-06 15:27:45.124005 -- $GNRMC,142744.95,A,4543.87680,N,00450.00150,E,11.152,89.30,060225,,,D*7C

2025-02-06 15:27:45.124555 -- $GNVTG,89.30,T,,M,11.152,N,20.654,K,D*17

2025-02-06 15:27:45.344188 -- $GNRMC,142745.15,A,4543.87681,N,00450.00239,E,11.187,88.12,060225,,,D*71

2025-02-06 15:27:45.528199 -- $GNRMC,142745.35,A,4543.87676,N,00450.00328,E,11.189,92.58,060225,,,D*71

2025-02-06 15:27:45.528581 -- $GNVTG,92.58,T,,M,11.189,N,20.722,K,D*15

2025-02-06 15:27:45.736590 -- $GNRMC,142745.55,A,4543.87674,N,00450.00418,E,11.245,90.55,060225,,,D*7D

2025-02-06 15:27:45.737089 -- $GNVTG,90.55,T,,M,11.245,N,20.826,K,D*12

2025-02-06 15:27:45.944754 -- $GNRMC,142745.75,A,4543.87675,N,00450.00510,E,11.723,89.31,060225,,,D*78

2025-02-06 15:27:46.128592 -- $GNRMC,142745.95,A,4543.87677,N,00450.00601,E,11.449,87.28,060225,,,D*7E

2025-02-06 15:27:46.129044 -- $GNVTG,87.28,T,,M,11.449,N,21.203,K,D*18

2025-02-06 15:27:46.340948 -- $GNRMC,142746.15,A,4543.87680,N,00450.00687,E,10.970,87.50,060225,,,D*7A

2025-02-06 15:27:46.341347 -- $GNVTG,87.50,T,,M,10.970,N,20.316,K,D*15

2025-02-06 15:27:46.533816 -- $GNRMC,142746.35,A,4543.87683,N,00450.00775,E,11.068,87.00,060225,,,D*73

2025-02-06 15:27:46.534262 -- $GNVTG,87.00,T,,M,11.068,N,20.498,K,D*10

2025-02-06 15:27:46.741005 -- $GNRMC,142746.55,A,4543.87685,N,00450.00862,E,11.019,87.43,060225,,,D*7B

2025-02-06 15:27:46.741373 -- $GNVTG,87.43,T,,M,11.019,N,20.407,K,D*17

2025-02-06 15:27:47.745284 -- $GNRMC,142747.55,A,4543.87701,N,00450.01304,E,11.138,85.71,060225,,,D*7C

2025-02-06 15:27:47.745660 -- $GNVTG,85.71,T,,M,11.138,N,20.628,K,D*19

2025-02-06 15:27:47.947997 -- $GNRMC,142747.75,A,4543.87706,N,00450.01391,E,11.140,85.63,060225,,,D*79

2025-02-06 15:27:47.948762 -- $GNVTG,85.63,T,,M,11.140,N,20.630,K,D*1C

2025-02-06 15:27:48.347674 -- $GNRMC,142748.15,A,4543.87715,N,00450.01565,E,11.225,85.89,060225,,,D*7B

2025-02-06 15:27:48.348407 -- $GNVTG,85.89,T,,M,11.225,N,20.789,K,D*1B

2025-02-06 15:27:48.546651 -- $GNRMC,142748.35,A,4543.87721,N,00450.01653,E,11.174,84.80,060225,,,D*77

2025-02-06 15:27:48.547157 -- $GNVTG,84.80,T,,M,11.174,N,20.695,K,D*18

2025-02-06 15:27:49.165694 -- $GNRMC,142748.95,A,4543.87737,N,00450.01913,E,10.908,85.15,060225,,,D*7E

2025-02-06 15:27:49.166201 -- $GNVTG,85.15,T,,M,10.908,N,20.201,K,D*1E

2025-02-06 15:27:49.770775 -- $GNRMC,142749.55,A,4543.87755,N,00450.02172,E,11.381,86.16,060225,,,D*71

2025-02-06 15:27:49.771149 -- $GNVTG,86.16,T,,M,11.381,N,21.077,K,D*16

2025-02-06 15:27:49.964902 -- $GNRMC,142749.75,A,4543.87763,N,00450.02259,E,11.378,85.01,060225,,,D*7F

2025-02-06 15:27:50.155668 -- $GNRMC,142749.95,A,4543.87771,N,00450.02347,E,11.350,84.84,060225,,,D*7A

2025-02-06 15:27:50.566996 -- $GNRMC,142750.35,A,4543.87788,N,00450.02521,E,11.401,84.53,060225,,,D*71

2025-02-06 15:27:50.567355 -- $GNVTG,84.53,T,,M,11.401,N,21.115,K,D*1F

2025-02-06 15:27:51.173259 -- $GNRMC,142750.95,A,4543.87806,N,00450.02784,E,11.392,86.60,060225,,,D*70

2025-02-06 15:27:51.762124 -- $GNRMC,142751.55,A,4543.87817,N,00450.03038,E,10.903,86.69,060225,,,D*76

2025-02-06 15:27:51.762495 -- $GNVTG,86.69,T,,M,10.903,N,20.192,K,D*14

2025-02-06 15:27:51.956173 -- $GNRMC,142751.75,A,4543.87820,N,00450.03125,E,11.308,88.16,060225,,,D*7B

2025-02-06 15:27:52.162087 -- $GNRMC,142751.95,A,4543.87825,N,00450.03212,E,11.161,87.40,060225,,,D*76

2025-02-06 15:27:53.146996 -- $GNRMC,142752.95,A,4543.87828,N,00450.03638,E,10.829,91.03,060225,,,D*70

2025-02-06 15:27:53.147622 -- $GNVTG,91.03,T,,M,10.829,N,20.056,K,D*1E

2025-02-06 15:27:53.765815 -- $GNRMC,142753.55,A,4543.87817,N,00450.03893,E,11.173,98.82,060225,,,D*79

2025-02-06 15:27:53.766385 -- $GNVTG,98.82,T,,M,11.173,N,20.692,K,D*17

2025-02-06 15:27:53.970706 -- $GNRMC,142753.75,A,4543.87808,N,00450.03977,E,10.833,99.28,060225,,,D*73

2025-02-06 15:27:53.971306 -- $GNVTG,99.28,T,,M,10.833,N,20.063,K,D*12

2025-02-06 15:27:54.167599 -- $GNRMC,142753.95,A,4543.87799,N,00450.04058,E,10.498,100.83,060225,,,D*44

2025-02-06 15:27:54.779765 -- $GNRMC,142754.55,A,4543.87768,N,00450.04308,E,11.089,104.05,060225,,,D*48

2025-02-06 15:27:54.780295 -- $GNVTG,104.05,T,,M,11.089,N,20.536,K,D*25

2025-02-06 15:27:54.965539 -- $GNRMC,142754.75,A,4543.87758,N,00450.04386,E,10.274,102.61,060225,,,D*4A

2025-02-06 15:27:55.166811 -- $GNRMC,142754.95,A,4543.87751,N,00450.04460,E,10.076,103.52,060225,,,D*43

2025-02-06 15:27:55.360581 -- $GNRMC,142755.15,A,4543.87742,N,00450.04543,E,10.963,104.09,060225,,,D*4C

2025-02-06 15:27:55.361140 -- $GNVTG,104.09,T,,M,10.963,N,20.304,K,D*22

2025-02-06 15:27:55.564776 -- $GNRMC,142755.35,A,4543.87731,N,00450.04623,E,10.496,104.29,060225,,,D*4A

2025-02-06 15:27:55.768885 -- $GNRMC,142755.55,A,4543.87724,N,00450.04703,E,10.758,105.65,060225,,,D*43

2025-02-06 15:27:55.769468 -- $GNVTG,105.65,T,,M,10.758,N,19.923,K,D*2A

2025-02-06 15:27:55.961940 -- $GNRMC,142755.75,A,4543.87712,N,00450.04774,E,10.103,111.33,060225,,,D*4A

2025-02-06 15:27:55.962463 -- $GNVTG,111.33,T,,M,10.103,N,18.710,K,D*2B

2025-02-06 15:27:56.164605 -- $GNRMC,142755.95,A,4543.87699,N,00450.04855,E,10.678,109.42,060225,,,D*4E

2025-02-06 15:27:56.164997 -- $GNVTG,109.42,T,,M,10.678,N,19.775,K,D*2D

2025-02-06 15:27:56.373802 -- $GNRMC,142756.15,A,4543.87687,N,00450.04935,E,10.576,108.29,060225,,,D*4C

2025-02-06 15:27:56.374333 -- $GNVTG,108.29,T,,M,10.576,N,19.588,K,D*2C

2025-02-06 15:27:56.551854 -- $GNRMC,142756.35,A,4543.87670,N,00450.05010,E,10.306,110.64,060225,,,D*48

2025-02-06 15:27:56.552325 -- $GNVTG,110.64,T,,M,10.306,N,19.087,K,D*27

2025-02-06 15:27:56.760770 -- $GNRMC,142756.55,A,4543.87651,N,00450.05092,E,10.971,110.48,060225,,,D*43

2025-02-06 15:27:56.955643 -- $GNRMC,142756.75,A,4543.87630,N,00450.05172,E,10.815,110.45,060225,,,D*47

2025-02-06 15:27:57.163441 -- $GNRMC,142756.95,A,4543.87612,N,00450.05255,E,11.038,110.29,060225,,,D*43

2025-02-06 15:27:57.164000 -- $GNVTG,110.29,T,,M,11.038,N,20.442,K,D*26

2025-02-06 15:27:57.370730 -- $GNRMC,142757.15,A,4543.87595,N,00450.05338,E,10.944,110.03,060225,,,D*47

2025-02-06 15:27:57.747570 -- $GNRMC,142757.55,A,4543.87562,N,00450.05508,E,11.351,110.67,060225,,,D*43

2025-02-06 15:27:57.956118 -- $GNRMC,142757.75,A,4543.87545,N,00450.05592,E,11.105,110.75,060225,,,D*47

2025-02-06 15:27:57.956506 -- $GNVTG,110.75,T,,M,11.105,N,20.566,K,D*27

2025-02-06 15:27:58.156528 -- $GNRMC,142757.95,A,4543.87525,N,00450.05675,E,10.965,112.26,060225,,,D*4E

2025-02-06 15:27:58.159820 -- $GNVTG,112.26,T,,M,10.965,N,20.308,K,D*22

2025-02-06 15:27:58.365348 -- $GNRMC,142758.15,A,4543.87505,N,00450.05758,E,10.895,112.81,060225,,,D*46

2025-02-06 15:27:58.365909 -- $GNVTG,112.81,T,,M,10.895,N,20.177,K,D*2B

2025-02-06 15:27:58.559137 -- $GNRMC,142758.35,A,4543.87485,N,00450.05839,E,11.102,113.56,060225,,,D*48

2025-02-06 15:27:58.559519 -- $GNVTG,113.56,T,,M,11.102,N,20.560,K,D*24

2025-02-06 15:27:58.759339 -- $GNRMC,142758.55,A,4543.87464,N,00450.05921,E,10.988,113.85,060225,,,D*4C

2025-02-06 15:27:58.958742 -- $GNRMC,142758.75,A,4543.87443,N,00450.06003,E,11.036,112.01,060225,,,D*41

2025-02-06 15:27:58.959224 -- $GNVTG,112.01,T,,M,11.036,N,20.439,K,D*2C

2025-02-06 15:27:59.157441 -- $GNRMC,142758.95,A,4543.87421,N,00450.06084,E,11.000,113.91,060225,,,D*49

2025-02-06 15:27:59.157986 -- $GNVTG,113.91,T,,M,11.000,N,20.372,K,D*29

2025-02-06 15:27:59.963715 -- $GNRMC,142759.75,A,4543.87335,N,00450.06413,E,10.942,113.46,060225,,,D*4A

2025-02-06 15:27:59.964450 -- $GNVTG,113.46,T,,M,10.942,N,20.265,K,D*2A

2025-02-06 15:28:00.169177 -- $GNRMC,142759.95,A,4543.87314,N,00450.06494,E,10.837,113.62,060225,,,D*4D

2025-02-06 15:28:00.367906 -- $GNRMC,142800.15,A,4543.87293,N,00450.06576,E,10.973,113.56,060225,,,D*43

2025-02-06 15:28:00.560474 -- $GNRMC,142800.35,A,4543.87273,N,00450.06657,E,10.902,113.39,060225,,,D*40

2025-02-06 15:28:00.560994 -- $GNVTG,113.39,T,,M,10.902,N,20.190,K,D*2F

2025-02-06 15:28:01.158432 -- $GNRMC,142800.95,A,4543.87208,N,00450.06901,E,10.820,114.16,060225,,,D*41

2025-02-06 15:28:01.158829 -- $GNVTG,114.16,T,,M,10.820,N,20.038,K,D*27

2025-02-06 15:28:01.552981 -- $GNRMC,142801.35,A,4543.87166,N,00450.07063,E,10.754,114.29,060225,,,D*4D

2025-02-06 15:28:01.956732 -- $GNRMC,142801.75,A,4543.87122,N,00450.07223,E,10.944,113.14,060225,,,D*49

2025-02-06 15:28:02.154698 -- $GNRMC,142801.95,A,4543.87101,N,00450.07302,E,10.800,112.47,060225,,,D*42

2025-02-06 15:28:02.362698 -- $GNRMC,142802.15,A,4543.87079,N,00450.07381,E,10.944,112.93,060225,,,D*44

2025-02-06 15:28:02.363228 -- $GNVTG,112.93,T,,M,10.944,N,20.268,K,D*28

2025-02-06 15:28:02.548764 -- $GNRMC,142802.35,A,4543.87057,N,00450.07461,E,10.890,112.90,060225,,,D*48

2025-02-06 15:28:02.549138 -- $GNVTG,112.90,T,,M,10.890,N,20.168,K,D*20

2025-02-06 15:28:02.767906 -- $GNRMC,142802.55,A,4543.87035,N,00450.07540,E,10.845,113.12,060225,,,D*4B

2025-02-06 15:28:02.768283 -- $GNVTG,113.12,T,,M,10.845,N,20.085,K,D*21

2025-02-06 15:28:02.955077 -- $GNRMC,142802.75,A,4543.87013,N,00450.07617,E,10.595,113.09,060225,,,D*46

2025-02-06 15:28:02.955780 -- $GNVTG,113.09,T,,M,10.595,N,19.622,K,D*2A

2025-02-06 15:28:03.359415 -- $GNRMC,142803.15,A,4543.86970,N,00450.07767,E,10.295,113.03,060225,,,D*47

2025-02-06 15:28:03.360140 -- $GNVTG,113.03,T,,M,10.295,N,19.066,K,D*21

2025-02-06 15:28:03.550426 -- $GNRMC,142803.35,A,4543.86949,N,00450.07841,E,10.099,113.63,060225,,,D*4C

2025-02-06 15:28:03.550868 -- $GNVTG,113.63,T,,M,10.099,N,18.703,K,D*2C

2025-02-06 15:28:03.757845 -- $GNRMC,142803.55,A,4543.86929,N,00450.07912,E,9.730,113.50,060225,,,D*77

2025-02-06 15:28:03.758274 -- $GNVTG,113.50,T,,M,9.730,N,18.019,K,D*1C

2025-02-06 15:28:03.952832 -- $GNRMC,142803.75,A,4543.86909,N,00450.07980,E,9.432,113.48,060225,,,D*74

2025-02-06 15:28:04.156271 -- $GNRMC,142803.95,A,4543.86890,N,00450.08047,E,9.308,113.86,060225,,,D*7A

2025-02-06 15:28:04.356551 -- $GNRMC,142804.15,A,4543.86871,N,00450.08113,E,8.965,113.83,060225,,,D*7F

2025-02-06 15:28:04.754624 -- $GNRMC,142804.55,A,4543.86836,N,00450.08238,E,8.460,113.07,060225,,,D*76

2025-02-06 15:28:04.754991 -- $GNVTG,113.07,T,,M,8.460,N,15.669,K,D*15

2025-02-06 15:28:04.967385 -- $GNRMC,142804.75,A,4543.86819,N,00450.08297,E,8.058,113.63,060225,,,D*71

2025-02-06 15:28:04.967756 -- $GNVTG,113.63,T,,M,8.058,N,14.924,K,D*1F

2025-02-06 15:28:06.365216 -- $GNRMC,142806.15,A,4543.86727,N,00450.08634,E,5.258,112.51,060225,,,D*75

2025-02-06 15:28:06.755021 -- $GNRMC,142806.55,A,4543.86712,N,00450.08697,E,4.137,112.08,060225,,,D*79

2025-02-06 15:28:07.161670 -- $GNRMC,142806.95,A,4543.86699,N,00450.08749,E,3.535,111.11,060225,,,D*7F

2025-02-06 15:28:07.162425 -- $GNVTG,111.11,T,,M,3.535,N,6.547,K,D*27

2025-02-06 15:28:07.555910 -- $GNRMC,142807.35,A,4543.86687,N,00450.08792,E,2.836,112.70,060225,,,D*76

2025-02-06 15:28:08.751953 -- $GNRMC,142808.55,A,4543.86661,N,00450.08869,E,1.405,112.72,060225,,,D*71

2025-02-06 15:28:08.752323 -- $GNVTG,112.72,T,,M,1.405,N,2.602,K,D*27

2025-02-06 15:28:08.975377 -- $GNRMC,142808.75,A,4543.86658,N,00450.08876,E,1.142,117.23,060225,,,D*70

2025-02-06 15:28:08.975907 -- $GNVTG,117.23,T,,M,1.142,N,2.115,K,D*21

2025-02-06 15:28:09.384390 -- $GNRMC,142809.15,A,4543.86653,N,00450.08884,E,0.535,117.22,060225,,,D*75

2025-02-06 15:28:09.963095 -- $GNRMC,142809.75,A,4543.86652,N,00450.08885,E,0.071,,060225,,,D*6F

2025-02-06 15:28:09.963421 -- $GNVTG,,T,,M,0.071,N,0.132,K,D*3E

2025-02-06 15:28:10.371331 -- $GNRMC,142810.15,A,4543.86653,N,00450.08883,E,0.053,,060225,,,D*66

2025-02-06 15:28:10.371796 -- $GNVTG,,T,,M,0.053,N,0.098,K,D*3F

2025-02-06 15:28:10.558797 -- $GNRMC,142810.35,A,4543.86653,N,00450.08883,E,0.076,,060225,,,D*63

2025-02-06 15:28:10.559154 -- $GNVTG,,T,,M,0.076,N,0.141,K,D*3D

2025-02-06 15:28:11.369650 -- $GNRMC,142811.15,A,4543.86655,N,00450.08880,E,0.075,,060225,,,D*66

2025-02-06 15:28:11.750891 -- $GNRMC,142811.55,A,4543.86656,N,00450.08880,E,0.069,,060225,,,D*6C

2025-02-06 15:28:11.948008 -- $GNRMC,142811.75,A,4543.86656,N,00450.08881,E,0.086,,060225,,,D*6E

2025-02-06 15:28:11.948495 -- $GNVTG,,T,,M,0.086,N,0.159,K,D*3B

2025-02-06 15:28:12.153262 -- $GNRMC,142811.95,A,4543.86656,N,00450.08882,E,0.076,,060225,,,D*6C

2025-02-06 15:28:12.544881 -- $GNRMC,142812.35,A,4543.86656,N,00450.08882,E,0.044,,060225,,,D*64

2025-02-06 15:28:12.545242 -- $GNVTG,,T,,M,0.044,N,0.082,K,D*32

2025-02-06 15:28:12.741246 -- $GNRMC,142812.55,A,4543.86655,N,00450.08882,E,0.044,,060225,,,D*61

2025-02-06 15:28:12.950884 -- $GNRMC,142812.75,A,4543.86655,N,00450.08882,E,0.056,,060225,,,D*60

2025-02-06 15:28:13.941001 -- $GNRMC,142813.75,A,4543.86654,N,00450.08882,E,0.098,,060225,,,D*62

2025-02-06 15:28:13.941506 -- $GNVTG,,T,,M,0.098,N,0.181,K,D*31

2025-02-06 15:28:14.353811 -- $GNRMC,142814.15,A,4543.86653,N,00450.08881,E,0.069,,060225,,,D*69

2025-02-06 15:28:14.354262 -- $GNVTG,,T,,M,0.069,N,0.127,K,D*33

2025-02-06 15:28:14.942449 -- $GNRMC,142814.75,A,4543.86653,N,00450.08879,E,0.051,,060225,,,D*63

2025-02-06 15:28:14.942768 -- $GNVTG,,T,,M,0.051,N,0.095,K,D*30

2025-02-06 15:28:15.358270 -- $GNRMC,142815.15,A,4543.86652,N,00450.08878,E,0.052,,060225,,,D*67

2025-02-06 15:28:15.529939 -- $GNRMC,142815.35,A,4543.86652,N,00450.08877,E,0.031,,060225,,,D*6F

2025-02-06 15:28:15.530278 -- $GNVTG,,T,,M,0.031,N,0.058,K,D*37

2025-02-06 15:28:15.930360 -- $GNRMC,142815.75,A,4543.86652,N,00450.08877,E,0.082,,060225,,,D*63

2025-02-06 15:28:15.930799 -- $GNVTG,,T,,M,0.082,N,0.152,K,D*34

2025-02-06 15:28:16.135932 -- $GNRMC,142815.95,A,4543.86653,N,00450.08876,E,0.029,,060225,,,D*6C

2025-02-06 15:28:16.136368 -- $GNVTG,,T,,M,0.029,N,0.054,K,D*32

2025-02-06 15:28:16.349464 -- $GNRMC,142816.15,A,4543.86653,N,00450.08876,E,0.024,,060225,,,D*6A

2025-02-06 15:28:16.349799 -- $GNVTG,,T,,M,0.024,N,0.044,K,D*3E

2025-02-06 15:28:16.529952 -- $GNRMC,142816.35,A,4543.86653,N,00450.08876,E,0.034,,060225,,,D*69

2025-02-06 15:28:16.530281 -- $GNVTG,,T,,M,0.034,N,0.064,K,D*3D

2025-02-06 15:28:17.127057 -- $GNRMC,142816.95,A,4543.86653,N,00450.08876,E,0.027,,060225,,,D*61

2025-02-06 15:28:17.127515 -- $GNVTG,,T,,M,0.027,N,0.049,K,D*30

2025-02-06 15:28:17.342237 -- $GNRMC,142817.15,A,4543.86653,N,00450.08875,E,0.076,,060225,,,D*6F

2025-02-06 15:28:17.342568 -- $GNVTG,,T,,M,0.076,N,0.140,K,D*3C

2025-02-06 15:28:17.727489 -- $GNRMC,142817.55,A,4543.86654,N,00450.08875,E,0.035,,060225,,,D*6B

2025-02-06 15:28:17.727961 -- $GNVTG,,T,,M,0.035,N,0.064,K,D*3C

2025-02-06 15:28:17.923593 -- $GNRMC,142817.75,A,4543.86654,N,00450.08875,E,0.047,,060225,,,D*6C

2025-02-06 15:28:17.924328 -- $GNVTG,,T,,M,0.047,N,0.087,K,D*34

2025-02-06 15:28:18.333330 -- $GNRMC,142818.15,A,4543.86655,N,00450.08874,E,0.065,,060225,,,D*65

2025-02-06 15:28:18.334268 -- $GNVTG,,T,,M,0.065,N,0.120,K,D*38

2025-02-06 15:28:18.525668 -- $GNRMC,142818.35,A,4543.86655,N,00450.08874,E,0.014,,060225,,,D*61

2025-02-06 15:28:18.526198 -- $GNVTG,,T,,M,0.014,N,0.026,K,D*39

2025-02-06 15:28:18.723475 -- $GNRMC,142818.55,A,4543.86656,N,00450.08873,E,0.066,,060225,,,D*66

2025-02-06 15:28:18.724029 -- $GNVTG,,T,,M,0.066,N,0.122,K,D*39

2025-02-06 15:28:18.928989 -- $GNRMC,142818.75,A,4543.86656,N,00450.08873,E,0.088,,060225,,,D*64

2025-02-06 15:28:18.929519 -- $GNVTG,,T,,M,0.088,N,0.164,K,D*3B

2025-02-06 15:28:19.121791 -- $GNRMC,142818.95,A,4543.86657,N,00450.08872,E,0.044,,060225,,,D*6A

2025-02-06 15:28:19.122294 -- $GNVTG,,T,,M,0.044,N,0.082,K,D*32

2025-02-06 15:28:19.342983 -- $GNRMC,142819.15,A,4543.86657,N,00450.08871,E,0.033,,060225,,,D*60

2025-02-06 15:28:19.343446 -- $GNVTG,,T,,M,0.033,N,0.062,K,D*3C

2025-02-06 15:28:19.736228 -- $GNRMC,142819.55,A,4543.86658,N,00450.08870,E,0.153,,060225,,,D*6D

2025-02-06 15:28:19.740681 -- $GNVTG,,T,,M,0.153,N,0.283,K,D*36

2025-02-06 15:28:19.927811 -- $GNRMC,142819.75,A,4543.86659,N,00450.08870,E,0.059,,060225,,,D*65

2025-02-06 15:28:19.928136 -- $GNVTG,,T,,M,0.059,N,0.110,K,D*34

2025-02-06 15:28:20.328619 -- $GNRMC,142820.15,A,4543.86659,N,00450.08868,E,0.059,,060225,,,D*60

2025-02-06 15:28:20.518148 -- $GNRMC,142820.35,A,4543.86658,N,00450.08867,E,0.060,,060225,,,D*66

2025-02-06 15:28:21.120928 -- $GNRMC,142820.95,A,4543.86659,N,00450.08864,E,0.033,,060225,,,D*68

2025-02-06 15:28:21.526375 -- $GNRMC,142821.35,A,4543.86659,N,00450.08863,E,0.149,,060225,,,D*68

2025-02-06 15:28:21.526812 -- $GNVTG,,T,,M,0.149,N,0.276,K,D*37

2025-02-06 15:28:21.910593 -- $GNRMC,142821.75,A,4543.86658,N,00450.08861,E,0.071,,060225,,,D*65

2025-02-06 15:28:21.911053 -- $GNVTG,,T,,M,0.071,N,0.132,K,D*3E

2025-02-06 15:28:22.325113 -- $GNRMC,142822.15,A,4543.86656,N,00450.08859,E,0.223,,060225,,,D*60

2025-02-06 15:28:22.514205 -- $GNRMC,142822.35,A,4543.86655,N,00450.08857,E,0.067,,060225,,,D*6D

2025-02-06 15:28:22.514647 -- $GNVTG,,T,,M,0.067,N,0.125,K,D*3F

2025-02-06 15:28:22.716477 -- $GNRMC,142822.55,A,4543.86654,N,00450.08856,E,0.084,,060225,,,D*66

2025-02-06 15:28:22.716955 -- $GNVTG,,T,,M,0.084,N,0.155,K,D*35

2025-02-06 15:28:23.512944 -- $GNRMC,142823.35,A,4543.86651,N,00450.08851,E,0.140,,060225,,,D*6A

2025-02-06 15:28:23.715836 -- $GNRMC,142823.55,A,4543.86652,N,00450.08850,E,0.150,,060225,,,D*6F

2025-02-06 15:28:23.716280 -- $GNVTG,,T,,M,0.150,N,0.277,K,D*3E

2025-02-06 15:28:23.917130 -- $GNRMC,142823.75,A,4543.86651,N,00450.08848,E,0.041,,060225,,,D*66

2025-02-06 15:28:24.136047 -- $GNRMC,142823.95,A,4543.86650,N,00450.08846,E,0.087,,060225,,,D*6D

2025-02-06 15:28:24.136558 -- $GNVTG,,T,,M,0.087,N,0.161,K,D*31

2025-02-06 15:28:24.332003 -- $GNRMC,142824.15,A,4543.86650,N,00450.08845,E,0.056,,060225,,,D*6D

2025-02-06 15:28:24.332322 -- $GNVTG,,T,,M,0.056,N,0.103,K,D*39

2025-02-06 15:28:24.525622 -- $GNRMC,142824.35,A,4543.86648,N,00450.08843,E,0.147,,060225,,,D*61

2025-02-06 15:28:24.716656 -- $GNRMC,142824.55,A,4543.86647,N,00450.08840,E,0.084,,060225,,,D*65

2025-02-06 15:28:24.716981 -- $GNVTG,,T,,M,0.084,N,0.156,K,D*36

2025-02-06 15:28:24.923084 -- $GNRMC,142824.75,A,4543.86646,N,00450.08841,E,0.410,,060225,,,D*6E

2025-02-06 15:28:24.923525 -- $GNVTG,,T,,M,0.410,N,0.759,K,D*36

2025-02-06 15:28:25.125865 -- $GNRMC,142824.95,A,4543.86645,N,00450.08842,E,0.691,110.18,060225,,,D*7C

2025-02-06 15:28:25.126296 -- $GNVTG,110.18,T,,M,0.691,N,1.279,K,D*2C

2025-02-06 15:28:25.518445 -- $GNRMC,142825.35,A,4543.86639,N,00450.08854,E,1.527,116.03,060225,,,D*78

2025-02-06 15:28:25.518840 -- $GNVTG,116.03,T,,M,1.527,N,2.829,K,D*23

2025-02-06 15:28:25.718328 -- $GNRMC,142825.55,A,4543.86635,N,00450.08864,E,1.916,112.44,060225,,,D*78

2025-02-06 15:28:25.718820 -- $GNVTG,112.44,T,,M,1.916,N,3.549,K,D*20

2025-02-06 15:28:25.919864 -- $GNRMC,142825.75,A,4543.86630,N,00450.08878,E,2.289,112.81,060225,,,D*75

2025-02-06 15:28:25.920344 -- $GNVTG,112.81,T,,M,2.289,N,4.239,K,D*20

2025-02-06 15:28:26.115321 -- $GNRMC,142825.95,A,4543.86624,N,00450.08895,E,2.906,108.89,060225,,,D*72

2025-02-06 15:28:26.115806 -- $GNVTG,108.89,T,,M,2.906,N,5.381,K,D*2C

2025-02-06 15:28:26.330002 -- $GNRMC,142826.15,A,4543.86617,N,00450.08914,E,2.996,115.14,060225,,,D*70

2025-02-06 15:28:26.330355 -- $GNVTG,115.14,T,,M,2.996,N,5.548,K,D*2E

2025-02-06 15:28:26.514371 -- $GNRMC,142826.35,A,4543.86609,N,00450.08936,E,3.348,114.52,060225,,,D*76

2025-02-06 15:28:26.919890 -- $GNRMC,142826.75,A,4543.86590,N,00450.08989,E,4.307,113.79,060225,,,D*77

2025-02-06 15:28:26.920698 -- $GNVTG,113.79,T,,M,4.307,N,7.976,K,D*24

2025-02-06 15:28:27.124041 -- $GNRMC,142826.95,A,4543.86580,N,00450.09020,E,4.559,112.28,060225,,,D*7B

2025-02-06 15:28:27.124765 -- $GNVTG,112.28,T,,M,4.559,N,8.443,K,D*28

2025-02-06 15:28:27.336651 -- $GNRMC,142827.15,A,4543.86573,N,00450.09052,E,4.808,112.88,060225,,,D*78

2025-02-06 15:28:27.519861 -- $GNRMC,142827.35,A,4543.86564,N,00450.09085,E,4.947,112.72,060225,,,D*79

2025-02-06 15:28:27.716246 -- $GNRMC,142827.55,A,4543.86554,N,00450.09119,E,4.935,112.57,060225,,,D*7A

2025-02-06 15:28:27.716968 -- $GNVTG,112.57,T,,M,4.935,N,9.139,K,D*2F

2025-02-06 15:28:27.906522 -- $GNRMC,142827.75,A,4543.86544,N,00450.09153,E,5.035,113.56,060225,,,D*7F

2025-02-06 15:28:27.907246 -- $GNVTG,113.56,T,,M,5.035,N,9.325,K,D*28

2025-02-06 15:28:28.110868 -- $GNRMC,142827.95,A,4543.86534,N,00450.09188,E,5.074,114.13,060225,,,D*73

2025-02-06 15:28:28.111576 -- $GNVTG,114.13,T,,M,5.074,N,9.397,K,D*22

2025-02-06 15:28:28.332052 -- $GNRMC,142828.15,A,4543.86523,N,00450.09222,E,5.066,113.75,060225,,,D*75

2025-02-06 15:28:28.516332 -- $GNRMC,142828.35,A,4543.86513,N,00450.09257,E,5.015,112.48,060225,,,D*7D

2025-02-06 15:28:28.517047 -- $GNVTG,112.48,T,,M,5.015,N,9.288,K,D*22

2025-02-06 15:28:28.712270 -- $GNRMC,142828.55,A,4543.86503,N,00450.09292,E,5.039,111.53,060225,,,D*74

2025-02-06 15:28:28.914097 -- $GNRMC,142828.75,A,4543.86492,N,00450.09327,E,5.048,113.10,060225,,,D*73

2025-02-06 15:28:29.112164 -- $GNRMC,142828.95,A,4543.86482,N,00450.09362,E,4.952,112.89,060225,,,D*7F

2025-02-06 15:28:29.112661 -- $GNVTG,112.89,T,,M,4.952,N,9.171,K,D*21

2025-02-06 15:28:29.319068 -- $GNRMC,142829.15,A,4543.86471,N,00450.09395,E,4.765,116.68,060225,,,D*73

2025-02-06 15:28:29.319559 -- $GNVTG,116.68,T,,M,4.765,N,8.824,K,D*28

2025-02-06 15:28:29.507009 -- $GNRMC,142829.35,A,4543.86460,N,00450.09426,E,4.740,116.07,060225,,,D*70

2025-02-06 15:28:29.507412 -- $GNVTG,116.07,T,,M,4.740,N,8.779,K,D*21

2025-02-06 15:28:29.906636 -- $GNRMC,142829.75,A,4543.86438,N,00450.09495,E,5.151,113.07,060225,,,D*73

2025-02-06 15:28:29.907141 -- $GNVTG,113.07,T,,M,5.151,N,9.539,K,D*24

2025-02-06 15:28:30.119040 -- $GNRMC,142829.95,A,4543.86428,N,00450.09532,E,5.080,111.62,060225,,,D*7C

2025-02-06 15:28:30.908578 -- $GNRMC,142830.75,A,4543.86384,N,00450.09675,E,5.037,114.57,060225,,,D*74

2025-02-06 15:28:31.313577 -- $GNRMC,142831.15,A,4543.86360,N,00450.09751,E,5.586,114.16,060225,,,D*74

2025-02-06 15:28:31.711343 -- $GNRMC,142831.55,A,4543.86334,N,00450.09839,E,6.350,112.95,060225,,,D*73

2025-02-06 15:28:31.711743 -- $GNVTG,112.95,T,,M,6.350,N,11.760,K,D*19

2025-02-06 15:28:31.893554 -- $GNRMC,142831.75,A,4543.86320,N,00450.09887,E,6.736,113.94,060225,,,D*75

2025-02-06 15:28:31.894195 -- $GNVTG,113.94,T,,M,6.736,N,12.475,K,D*19

2025-02-06 15:28:32.096277 -- $GNRMC,142831.95,A,4543.86305,N,00450.09939,E,7.257,113.01,060225,,,D*77

2025-02-06 15:28:32.096630 -- $GNVTG,113.01,T,,M,7.257,N,13.440,K,D*11

2025-02-06 15:28:32.313128 -- $GNRMC,142832.15,A,4543.86289,N,00450.09994,E,7.600,113.09,060225,,,D*70

2025-02-06 15:28:32.502219 -- $GNRMC,142832.35,A,4543.86273,N,00450.10052,E,8.066,112.10,060225,,,D*7C

2025-02-06 15:28:33.493134 -- $GNRMC,142833.35,A,4543.86171,N,00450.10384,E,10.026,114.07,060225,,,D*49

2025-02-06 15:28:33.493721 -- $GNVTG,114.07,T,,M,10.026,N,18.569,K,D*23

2025-02-06 15:28:33.708547 -- $GNRMC,142833.55,A,4543.86148,N,00450.10459,E,10.282,113.33,060225,,,D*4E

2025-02-06 15:28:33.709070 -- $GNVTG,113.33,T,,M,10.282,N,19.042,K,D*22

2025-02-06 15:28:34.096656 -- $GNRMC,142833.95,A,4543.86099,N,00450.10621,E,11.201,112.40,060225,,,D*4D

2025-02-06 15:28:34.097018 -- $GNVTG,112.40,T,,M,11.201,N,20.744,K,D*26

2025-02-06 15:28:34.311321 -- $GNRMC,142834.15,A,4543.86074,N,00450.10705,E,11.538,113.32,060225,,,D*4F

2025-02-06 15:28:34.501189 -- $GNRMC,142834.35,A,4543.86047,N,00450.10791,E,11.859,113.56,060225,,,D*48

2025-02-06 15:28:34.501812 -- $GNVTG,113.56,T,,M,11.859,N,21.962,K,D*2C

2025-02-06 15:28:34.906690 -- $GNRMC,142834.75,A,4543.85992,N,00450.10967,E,11.911,114.37,060225,,,D*44

2025-02-06 15:28:34.907216 -- $GNVTG,114.37,T,,M,11.911,N,22.060,K,D*29

2025-02-06 15:28:35.323875 -- $GNRMC,142835.15,A,4543.85938,N,00450.11144,E,11.894,114.30,060225,,,D*40

2025-02-06 15:28:35.324592 -- $GNVTG,114.30,T,,M,11.894,N,22.027,K,D*21

2025-02-06 15:28:35.705694 -- $GNRMC,142835.55,A,4543.85884,N,00450.11320,E,12.356,112.88,060225,,,D*41

2025-02-06 15:28:36.304365 -- $GNRMC,142836.15,A,4543.85807,N,00450.11590,E,11.954,112.22,060225,,,D*4B

2025-02-06 15:28:36.304740 -- $GNVTG,112.22,T,,M,11.954,N,22.139,K,D*27

2025-02-06 15:28:36.505944 -- $GNRMC,142836.35,A,4543.85782,N,00450.11679,E,11.834,112.53,060225,,,D*4E

2025-02-06 15:28:36.906674 -- $GNRMC,142836.75,A,4543.85731,N,00450.11853,E,11.579,112.72,060225,,,D*43

2025-02-06 15:28:37.114828 -- $GNRMC,142836.95,A,4543.85706,N,00450.11937,E,11.455,113.90,060225,,,D*48

2025-02-06 15:28:37.116225 -- $GNVTG,113.90,T,,M,11.455,N,21.214,K,D*2C

2025-02-06 15:28:37.321019 -- $GNRMC,142837.15,A,4543.85680,N,00450.12021,E,11.274,113.71,060225,,,D*49

2025-02-06 15:28:37.321774 -- $GNVTG,113.71,T,,M,11.274,N,20.880,K,D*20

2025-02-06 15:28:38.321665 -- $GNRMC,142838.15,A,4543.85560,N,00450.12426,E,10.582,112.99,060225,,,D*40

2025-02-06 15:28:38.322209 -- $GNVTG,112.99,T,,M,10.582,N,19.598,K,D*26

2025-02-06 15:28:38.706155 -- $GNRMC,142838.55,A,4543.85512,N,00450.12574,E,10.419,112.91,060225,,,D*4C

2025-02-06 15:28:38.706529 -- $GNVTG,112.91,T,,M,10.419,N,19.296,K,D*24

2025-02-06 15:28:38.896805 -- $GNRMC,142838.75,A,4543.85488,N,00450.12649,E,10.308,113.42,060225,,,D*49

2025-02-06 15:28:38.897234 -- $GNVTG,113.42,T,,M,10.308,N,19.091,K,D*29

2025-02-06 15:28:39.099106 -- $GNRMC,142838.95,A,4543.85466,N,00450.12724,E,10.216,112.21,060225,,,D*47

2025-02-06 15:28:39.321231 -- $GNRMC,142839.15,A,4543.85442,N,00450.12796,E,10.189,112.86,060225,,,D*49

2025-02-06 15:28:39.710977 -- $GNRMC,142839.55,A,4543.85397,N,00450.12946,E,10.046,113.12,060225,,,D*4F

2025-02-06 15:28:41.701618 -- $GNRMC,142841.55,A,4543.85201,N,00450.13613,E,8.106,111.59,060225,,,D*71

2025-02-06 15:28:41.702132 -- $GNVTG,111.59,T,,M,8.106,N,15.013,K,D*12

2025-02-06 15:28:41.900634 -- $GNRMC,142841.75,A,4543.85184,N,00450.13671,E,7.843,113.56,060225,,,D*73

2025-02-06 15:28:41.901007 -- $GNVTG,113.56,T,,M,7.843,N,14.525,K,D*19

2025-02-06 15:28:42.119980 -- $GNRMC,142841.95,A,4543.85167,N,00450.13727,E,7.529,113.38,060225,,,D*7B

2025-02-06 15:28:42.120500 -- $GNVTG,113.38,T,,M,7.529,N,13.943,K,D*1B

2025-02-06 15:28:42.324389 -- $GNRMC,142842.15,A,4543.85151,N,00450.13782,E,7.523,112.65,060225,,,D*79

2025-02-06 15:28:42.324891 -- $GNVTG,112.65,T,,M,7.523,N,13.932,K,D*1E

2025-02-06 15:28:42.902184 -- $GNRMC,142842.75,A,4543.85108,N,00450.13946,E,6.840,112.81,060225,,,D*76

2025-02-06 15:28:42.902772 -- $GNVTG,112.81,T,,M,6.840,N,12.668,K,D*1C

2025-02-06 15:28:43.522262 -- $GNRMC,142843.35,A,4543.85067,N,00450.14093,E,6.342,111.62,060225,,,D*7A

2025-02-06 15:28:44.499923 -- $GNRMC,142844.35,A,4543.85008,N,00450.14318,E,5.753,112.88,060225,,,D*74

2025-02-06 15:28:44.908691 -- $GNRMC,142844.75,A,4543.84982,N,00450.14404,E,5.933,115.19,060225,,,D*77

2025-02-06 15:28:44.909165 -- $GNVTG,115.19,T,,M,5.933,N,10.988,K,D*1F

2025-02-06 15:28:45.526334 -- $GNRMC,142845.35,A,4543.84938,N,00450.14534,E,6.228,116.76,060225,,,D*79

2025-02-06 15:28:45.903224 -- $GNRMC,142845.75,A,4543.84908,N,00450.14622,E,6.356,116.33,060225,,,D*73

2025-02-06 15:28:45.903603 -- $GNVTG,116.33,T,,M,6.356,N,11.772,K,D*14

2025-02-06 15:28:46.119002 -- $GNRMC,142845.95,A,4543.84891,N,00450.14668,E,6.498,119.79,060225,,,D*76

2025-02-06 15:28:46.119377 -- $GNVTG,119.79,T,,M,6.498,N,12.034,K,D*16

2025-02-06 15:28:46.515166 -- $GNRMC,142846.35,A,4543.84856,N,00450.14762,E,6.605,120.44,060225,,,D*7D

2025-02-06 15:28:46.515524 -- $GNVTG,120.44,T,,M,6.605,N,12.233,K,D*11

2025-02-06 15:28:46.713270 -- $GNRMC,142846.55,A,4543.84839,N,00450.14809,E,6.634,117.81,060225,,,D*7F

2025-02-06 15:28:46.713816 -- $GNVTG,117.81,T,,M,6.634,N,12.286,K,D*10

2025-02-06 15:28:46.912851 -- $GNRMC,142846.75,A,4543.84821,N,00450.14855,E,6.528,120.97,060225,,,D*70

2025-02-06 15:28:47.110068 -- $GNRMC,142846.95,A,4543.84801,N,00450.14900,E,6.803,123.56,060225,,,D*77

2025-02-06 15:28:47.510527 -- $GNRMC,142847.35,A,4543.84761,N,00450.14989,E,6.885,124.29,060225,,,D*75

2025-02-06 15:28:48.121824 -- $GNVTG,130.08,T,,M,6.485,N,12.011,K,D*10

2025-02-06 15:28:48.311663 -- $GNRMC,142848.15,A,4543.84677,N,00450.15155,E,6.110,128.78,060225,,,D*7B

2025-02-06 15:28:48.312064 -- $GNVTG,128.78,T,,M,6.110,N,11.316,K,D*10

2025-02-06 15:28:48.503605 -- $GNRMC,142848.35,A,4543.84658,N,00450.15191,E,5.646,129.53,060225,,,D*73

2025-02-06 15:28:48.504152 -- $GNVTG,129.53,T,,M,5.646,N,10.456,K,D*1D

2025-02-06 15:28:48.699535 -- $GNRMC,142848.55,A,4543.84639,N,00450.15224,E,5.454,131.84,060225,,,D*7D

2025-02-06 15:28:48.699958 -- $GNVTG,131.84,T,,M,5.454,N,10.100,K,D*19

2025-02-06 15:28:48.907607 -- $GNRMC,142848.75,A,4543.84619,N,00450.15258,E,5.581,130.93,060225,,,D*78

2025-02-06 15:28:49.503801 -- $GNRMC,142849.35,A,4543.84565,N,00450.15351,E,5.075,128.78,060225,,,D*7F

2025-02-06 15:28:49.704549 -- $GNRMC,142849.55,A,4543.84549,N,00450.15383,E,5.239,126.34,060225,,,D*74

2025-02-06 15:28:49.705140 -- $GNVTG,126.34,T,,M,5.239,N,9.702,K,D*25

2025-02-06 15:28:50.105023 -- $GNRMC,142849.95,A,4543.84514,N,00450.15452,E,5.580,125.73,060225,,,D*7E

2025-02-06 15:28:50.105460 -- $GNVTG,125.73,T,,M,5.580,N,10.334,K,D*19

2025-02-06 15:28:50.902667 -- $GNRMC,142850.75,A,4543.84446,N,00450.15602,E,5.716,121.87,060225,,,D*7B

2025-02-06 15:28:51.520332 -- $GNRMC,142851.35,A,4543.84398,N,00450.15725,E,6.051,118.26,060225,,,D*78

2025-02-06 15:28:51.898804 -- $GNRMC,142851.75,A,4543.84369,N,00450.15814,E,6.263,116.89,060225,,,D*77

2025-02-06 15:28:51.899347 -- $GNVTG,116.89,T,,M,6.263,N,11.600,K,D*16

2025-02-06 15:28:52.106353 -- $GNRMC,142851.95,A,4543.84353,N,00450.15856,E,6.065,117.02,060225,,,D*70

2025-02-06 15:28:52.321108 -- $GNRMC,142852.15,A,4543.84338,N,00450.15902,E,6.600,115.91,060225,,,D*7B

2025-02-06 15:28:52.505115 -- $GNRMC,142852.35,A,4543.84323,N,00450.15950,E,6.606,113.28,060225,,,D*76

2025-02-06 15:28:52.505586 -- $GNVTG,113.28,T,,M,6.606,N,12.235,K,D*1E

2025-02-06 15:28:52.702306 -- $GNRMC,142852.55,A,4543.84309,N,00450.15997,E,6.461,112.02,060225,,,D*79

2025-02-06 15:28:52.702802 -- $GNVTG,112.02,T,,M,6.461,N,11.965,K,D*19

2025-02-06 15:28:53.106762 -- $GNRMC,142852.95,A,4543.84277,N,00450.16094,E,6.756,114.58,060225,,,D*7A

2025-02-06 15:28:53.107112 -- $GNVTG,114.58,T,,M,6.756,N,12.513,K,D*19

2025-02-06 15:28:54.111701 -- $GNRMC,142853.95,A,4543.84195,N,00450.16350,E,7.332,113.52,060225,,,D*75

2025-02-06 15:28:54.506890 -- $GNRMC,142854.35,A,4543.84161,N,00450.16461,E,7.676,112.65,060225,,,D*76

2025-02-06 15:28:54.507405 -- $GNVTG,112.65,T,,M,7.676,N,14.215,K,D*14

2025-02-06 15:28:54.704588 -- $GNRMC,142854.55,A,4543.84145,N,00450.16519,E,7.758,112.81,060225,,,D*7F

2025-02-06 15:28:54.704978 -- $GNVTG,112.81,T,,M,7.758,N,14.368,K,D*18

2025-02-06 15:28:54.913804 -- $GNRMC,142854.75,A,4543.84128,N,00450.16578,E,7.888,112.92,060225,,,D*71

2025-02-06 15:28:55.332302 -- $GNRMC,142855.15,A,4543.84095,N,00450.16698,E,7.873,111.07,060225,,,D*77

2025-02-06 15:28:55.333194 -- $GNVTG,111.07,T,,M,7.873,N,14.581,K,D*12

2025-02-06 15:28:55.509928 -- $GNRMC,142855.35,A,4543.84079,N,00450.16757,E,7.733,113.62,060225,,,D*7F

2025-02-06 15:28:56.125122 -- $GNRMC,142855.95,A,4543.84026,N,00450.16932,E,7.837,114.15,060225,,,D*7E

2025-02-06 15:28:56.325532 -- $GNRMC,142856.15,A,4543.84009,N,00450.16990,E,7.654,113.96,060225,,,D*77

2025-02-06 15:28:56.325906 -- $GNVTG,113.96,T,,M,7.654,N,14.175,K,D*1C

2025-02-06 15:28:56.507481 -- $GNRMC,142856.35,A,4543.83992,N,00450.17049,E,7.750,113.85,060225,,,D*72

2025-02-06 15:28:56.702967 -- $GNRMC,142856.55,A,4543.83975,N,00450.17106,E,7.658,114.27,060225,,,D*71

2025-02-06 15:28:56.703338 -- $GNVTG,114.27,T,,M,7.658,N,14.183,K,D*14

2025-02-06 15:28:57.103878 -- $GNRMC,142856.95,A,4543.83942,N,00450.17224,E,7.925,112.22,060225,,,D*7C

2025-02-06 15:28:57.104291 -- $GNVTG,112.22,T,,M,7.925,N,14.678,K,D*11

2025-02-06 15:28:57.500593 -- $GNRMC,142857.35,A,4543.83909,N,00450.17341,E,7.701,113.30,060225,,,D*70

2025-02-06 15:28:57.704086 -- $GNRMC,142857.55,A,4543.83893,N,00450.17399,E,7.653,112.15,060225,,,D*71

2025-02-06 15:28:57.704596 -- $GNVTG,112.15,T,,M,7.653,N,14.174,K,D*10

2025-02-06 15:28:58.110730 -- $GNRMC,142857.95,A,4543.83860,N,00450.17515,E,7.682,113.49,060225,,,D*77

2025-02-06 15:28:58.111101 -- $GNVTG,113.49,T,,M,7.682,N,14.226,K,D*10

