2025-02-04 09:29:51.552486 -- $GNRMC,082951.05,A,4543.86988,N,00450.09003,E,0.058,,040225,,,D*6F

2025-02-04 09:29:52.148701 -- $GNRMC,082951.65,A,4543.86984,N,00450.09006,E,0.047,,040225,,,D*6E

2025-02-04 09:29:52.148967 -- $GNVTG,,T,,M,0.047,N,0.088,K,D*3B

2025-02-04 09:29:52.351818 -- $GNRMC,082951.85,A,4543.86982,N,00450.09007,E,0.037,,040225,,,D*60

2025-02-04 09:29:52.352093 -- $GNVTG,,T,,M,0.037,N,0.068,K,D*32

2025-02-04 09:29:52.762362 -- $GNRMC,082952.25,A,4543.86980,N,00450.09007,E,0.063,,040225,,,D*6A

2025-02-04 09:29:52.762619 -- $GNVTG,,T,,M,0.063,N,0.116,K,D*3B

2025-02-04 09:29:52.956346 -- $GNRMC,082952.45,A,4543.86980,N,00450.09008,E,0.038,,040225,,,D*6D

2025-02-04 09:29:52.956597 -- $GNVTG,,T,,M,0.038,N,0.070,K,D*34

2025-02-04 09:29:53.159069 -- $GNRMC,082952.65,A,4543.86979,N,00450.09009,E,0.033,,040225,,,D*63

2025-02-04 09:29:54.356332 -- $GNRMC,082953.85,A,4543.86972,N,00450.09018,E,0.048,,040225,,,D*6B

2025-02-04 09:29:54.755114 -- $GNRMC,082954.25,A,4543.86970,N,00450.09020,E,0.032,,040225,,,D*62

2025-02-04 09:29:54.952165 -- $GNRMC,082954.45,A,4543.86969,N,00450.09021,E,0.060,,040225,,,D*6A

2025-02-04 09:29:54.952905 -- $GNVTG,,T,,M,0.060,N,0.110,K,D*3E

2025-02-04 09:29:55.154208 -- $GNRMC,082954.65,A,4543.86968,N,00450.09021,E,0.023,,040225,,,D*6E

2025-02-04 09:29:55.154688 -- $GNVTG,,T,,M,0.023,N,0.043,K,D*3E

2025-02-04 09:29:55.351826 -- $GNRMC,082954.85,A,4543.86967,N,00450.09022,E,0.023,,040225,,,D*6C

2025-02-04 09:29:55.352105 -- $GNVTG,,T,,M,0.023,N,0.043,K,D*3E

2025-02-04 09:29:55.556026 -- $GNRMC,082955.05,A,4543.86966,N,00450.09023,E,0.034,,040225,,,D*63

2025-02-04 09:29:55.556339 -- $GNVTG,,T,,M,0.034,N,0.063,K,D*3A

2025-02-04 09:29:55.749183 -- $GNRMC,082955.25,A,4543.86965,N,00450.09025,E,0.037,,040225,,,D*67

2025-02-04 09:29:55.749729 -- $GNVTG,,T,,M,0.037,N,0.068,K,D*32

2025-02-04 09:29:55.946313 -- $GNRMC,082955.45,A,4543.86964,N,00450.09026,E,0.062,,040225,,,D*63

2025-02-04 09:29:55.946684 -- $GNVTG,,T,,M,0.062,N,0.115,K,D*39

2025-02-04 09:29:56.156348 -- $GNRMC,082955.65,A,4543.86963,N,00450.09026,E,0.045,,040225,,,D*63

2025-02-04 09:29:56.156727 -- $GNVTG,,T,,M,0.045,N,0.084,K,D*35

2025-02-04 09:29:56.350606 -- $GNRMC,082955.85,A,4543.86963,N,00450.09027,E,0.048,,040225,,,D*61

2025-02-04 09:29:56.350881 -- $GNVTG,,T,,M,0.048,N,0.090,K,D*3D

2025-02-04 09:29:56.558230 -- $GNRMC,082956.05,A,4543.86963,N,00450.09029,E,0.046,,040225,,,D*6A

2025-02-04 09:29:56.953948 -- $GNRMC,082956.45,A,4543.86961,N,00450.09031,E,0.053,,040225,,,D*61

2025-02-04 09:29:56.954254 -- $GNVTG,,T,,M,0.053,N,0.098,K,D*3F

2025-02-04 09:29:57.152786 -- $GNRMC,082956.65,A,4543.86961,N,00450.09032,E,0.032,,040225,,,D*67

2025-02-04 09:29:57.553564 -- $GNRMC,082957.05,A,4543.86959,N,00450.09035,E,0.046,,040225,,,D*6F

2025-02-04 09:29:57.753264 -- $GNRMC,082957.25,A,4543.86959,N,00450.09036,E,0.015,,040225,,,D*68

2025-02-04 09:29:59.146514 -- $GNRMC,082958.65,A,4543.86959,N,00450.09045,E,0.019,,040225,,,D*6B

2025-02-04 09:29:59.146787 -- $GNVTG,,T,,M,0.019,N,0.034,K,D*37

2025-02-04 09:29:59.736711 -- $GNRMC,082959.25,A,4543.86963,N,00450.09052,E,0.029,,040225,,,D*62

2025-02-04 09:29:59.736972 -- $GNVTG,,T,,M,0.029,N,0.055,K,D*33

2025-02-04 09:29:59.938294 -- $GNRMC,082959.45,A,4543.86965,N,00450.09055,E,0.045,,040225,,,D*6F

2025-02-04 09:29:59.938584 -- $GNVTG,,T,,M,0.045,N,0.084,K,D*35

2025-02-04 09:30:00.136203 -- $GNRMC,082959.65,A,4543.86967,N,00450.09059,E,0.041,,040225,,,D*67

2025-02-04 09:30:00.136467 -- $GNVTG,,T,,M,0.041,N,0.076,K,D*3C

2025-02-04 09:30:01.538768 -- $GNRMC,083001.05,A,4543.86978,N,00450.09078,E,0.056,,040225,,,D*6F

2025-02-04 09:30:02.127906 -- $GNRMC,083001.65,A,4543.86983,N,00450.09085,E,0.087,,040225,,,D*63

2025-02-04 09:30:02.563141 -- $GNRMC,083002.05,A,4543.86986,N,00450.09089,E,0.048,,040225,,,D*6C

2025-02-04 09:30:02.731821 -- $GNRMC,083002.25,A,4543.86988,N,00450.09091,E,0.038,,040225,,,D*6E

2025-02-04 09:30:02.732535 -- $GNVTG,,T,,M,0.038,N,0.070,K,D*34

2025-02-04 09:30:02.938218 -- $GNRMC,083002.45,A,4543.86989,N,00450.09093,E,0.069,,040225,,,D*6F

2025-02-04 09:30:03.139255 -- $GNRMC,083002.65,A,4543.86991,N,00450.09096,E,0.041,,040225,,,D*6B

2025-02-04 09:30:03.341270 -- $GNRMC,083002.85,A,4543.86992,N,00450.09098,E,0.066,,040225,,,D*6D

2025-02-04 09:30:03.531207 -- $GNRMC,083003.05,A,4543.86993,N,00450.09100,E,0.059,,040225,,,D*69

2025-02-04 09:30:03.531453 -- $GNVTG,,T,,M,0.059,N,0.109,K,D*3C

2025-02-04 09:30:03.747586 -- $GNRMC,083003.25,A,4543.86995,N,00450.09102,E,0.097,,040225,,,D*6D

2025-02-04 09:30:03.747842 -- $GNVTG,,T,,M,0.097,N,0.180,K,D*3F

2025-02-04 09:30:04.138218 -- $GNRMC,083003.65,A,4543.86998,N,00450.09105,E,0.027,,040225,,,D*68

2025-02-04 09:30:04.138567 -- $GNVTG,,T,,M,0.027,N,0.051,K,D*39

2025-02-04 09:30:04.541131 -- $GNRMC,083004.05,A,4543.87002,N,00450.09108,E,0.014,,040225,,,D*6F

2025-02-04 09:30:04.541390 -- $GNVTG,,T,,M,0.014,N,0.026,K,D*39

2025-02-04 09:30:04.730775 -- $GNRMC,083004.25,A,4543.87003,N,00450.09109,E,0.073,,040225,,,D*6C

2025-02-04 09:30:04.731124 -- $GNVTG,,T,,M,0.073,N,0.135,K,D*3B

2025-02-04 09:30:05.130171 -- $GNRMC,083004.65,A,4543.87007,N,00450.09111,E,0.061,,040225,,,D*66

2025-02-04 09:30:05.130478 -- $GNVTG,,T,,M,0.061,N,0.112,K,D*3D

2025-02-04 09:30:05.336316 -- $GNRMC,083004.85,A,4543.87009,N,00450.09112,E,0.047,,040225,,,D*61

2025-02-04 09:30:05.336571 -- $GNVTG,,T,,M,0.047,N,0.088,K,D*3B

2025-02-04 09:30:05.730302 -- $GNRMC,083005.25,A,4543.87012,N,00450.09115,E,0.048,,040225,,,D*68

2025-02-04 09:30:05.730560 -- $GNVTG,,T,,M,0.048,N,0.089,K,D*35

2025-02-04 09:30:05.931740 -- $GNRMC,083005.45,A,4543.87014,N,00450.09116,E,0.024,,040225,,,D*61

2025-02-04 09:30:05.932862 -- $GNVTG,,T,,M,0.024,N,0.044,K,D*3E

2025-02-04 09:30:06.131476 -- $GNRMC,083005.65,A,4543.87015,N,00450.09117,E,0.014,,040225,,,D*60

2025-02-04 09:30:06.131725 -- $GNVTG,,T,,M,0.014,N,0.026,K,D*39

2025-02-04 09:30:06.325680 -- $GNRMC,083005.85,A,4543.87017,N,00450.09117,E,0.057,,040225,,,D*6B

2025-02-04 09:30:06.326004 -- $GNVTG,,T,,M,0.057,N,0.106,K,D*3D

2025-02-04 09:30:06.544770 -- $GNRMC,083006.05,A,4543.87019,N,00450.09118,E,0.017,,040225,,,D*65

2025-02-04 09:30:06.545051 -- $GNVTG,,T,,M,0.017,N,0.032,K,D*3F

2025-02-04 09:30:07.124883 -- $GNRMC,083006.65,A,4543.87024,N,00450.09120,E,0.028,,040225,,,D*6A

2025-02-04 09:30:07.737642 -- $GNRMC,083007.25,A,4543.87029,N,00450.09122,E,0.067,,040225,,,D*6B

2025-02-04 09:30:08.332464 -- $GNRMC,083007.85,A,4543.87034,N,00450.09123,E,0.022,,040225,,,D*6D

2025-02-04 09:30:08.332715 -- $GNVTG,,T,,M,0.022,N,0.040,K,D*3C

2025-02-04 09:30:08.738908 -- $GNRMC,083008.25,A,4543.87036,N,00450.09123,E,0.058,,040225,,,D*67

2025-02-04 09:30:08.934723 -- $GNRMC,083008.45,A,4543.87038,N,00450.09123,E,0.009,,040225,,,D*6B

2025-02-04 09:30:08.935000 -- $GNVTG,,T,,M,0.009,N,0.017,K,D*37

2025-02-04 09:30:09.332493 -- $GNRMC,083008.85,A,4543.87042,N,00450.09124,E,0.041,,040225,,,D*61

2025-02-04 09:30:11.322723 -- $GNRMC,083010.85,A,4543.87068,N,00450.09115,E,0.054,,040225,,,D*66

2025-02-04 09:30:11.323095 -- $GNVTG,,T,,M,0.054,N,0.099,K,D*39

2025-02-04 09:30:11.691791 -- $GNRMC,083011.25,A,4543.87073,N,00450.09114,E,0.044,,040225,,,D*67

2025-02-04 09:30:11.692268 -- $GNVTG,,T,,M,0.044,N,0.081,K,D*31

2025-02-04 09:30:11.900835 -- $GNRMC,083011.45,A,4543.87074,N,00450.09114,E,0.041,,040225,,,D*63

2025-02-04 09:30:11.901286 -- $GNVTG,,T,,M,0.041,N,0.075,K,D*3F

2025-02-04 09:30:12.099028 -- $GNRMC,083011.65,A,4543.87075,N,00450.09113,E,0.065,,040225,,,D*61

2025-02-04 09:30:12.496295 -- $GNRMC,083012.05,A,4543.87078,N,00450.09111,E,0.035,,040225,,,D*6E

2025-02-04 09:30:13.050571 -- $GNRMC,083012.65,A,4543.87084,N,00450.09111,E,0.013,,040225,,,D*6F

2025-02-04 09:30:13.248964 -- $GNVTG,,T,,M,0.015,N,0.028,K,D*36

2025-02-04 09:30:13.450364 -- $GNRMC,083013.05,A,4543.87086,N,00450.09111,E,0.072,,040225,,,D*6D

2025-02-04 09:30:13.450678 -- $GNVTG,,T,,M,0.072,N,0.133,K,D*3C

2025-02-04 09:30:13.640149 -- $GNRMC,083013.25,A,4543.87088,N,00450.09111,E,0.030,,040225,,,D*67

2025-02-04 09:30:13.834938 -- $GNRMC,083013.45,A,4543.87089,N,00450.09111,E,0.070,,040225,,,D*64

2025-02-04 09:30:13.835379 -- $GNVTG,,T,,M,0.070,N,0.129,K,D*35

2025-02-04 09:30:14.023338 -- $GNRMC,083013.65,A,4543.87090,N,00450.09110,E,0.071,,040225,,,D*6E

2025-02-04 09:30:14.023716 -- $GNVTG,,T,,M,0.071,N,0.131,K,D*3D

2025-02-04 09:30:14.422697 -- $GNRMC,083014.05,A,4543.87093,N,00450.09109,E,0.047,,040225,,,D*61

2025-02-04 09:30:14.423077 -- $GNVTG,,T,,M,0.047,N,0.087,K,D*34

2025-02-04 09:30:14.799582 -- $GNRMC,083014.45,A,4543.87095,N,00450.09110,E,0.070,,040225,,,D*6F

2025-02-04 09:30:14.800151 -- $GNVTG,,T,,M,0.070,N,0.130,K,D*3D

2025-02-04 09:30:14.993627 -- $GNRMC,083014.65,A,4543.87096,N,00450.09110,E,0.052,,040225,,,D*6E

2025-02-04 09:30:14.993972 -- $GNVTG,,T,,M,0.052,N,0.097,K,D*31

2025-02-04 09:30:15.187533 -- $GNRMC,083014.85,A,4543.87097,N,00450.09110,E,0.055,,040225,,,D*66

2025-02-04 09:30:15.187974 -- $GNVTG,,T,,M,0.055,N,0.101,K,D*38

2025-02-04 09:30:15.384851 -- $GNRMC,083015.05,A,4543.87097,N,00450.09110,E,0.056,,040225,,,D*6C

2025-02-04 09:30:15.385233 -- $GNVTG,,T,,M,0.056,N,0.104,K,D*3E

2025-02-04 09:30:15.575366 -- $GNRMC,083015.25,A,4543.87098,N,00450.09110,E,0.091,,040225,,,D*6A

2025-02-04 09:30:15.575680 -- $GNVTG,,T,,M,0.091,N,0.169,K,D*3E

2025-02-04 09:30:15.963299 -- $GNRMC,083015.65,A,4543.87099,N,00450.09109,E,0.041,,040225,,,D*6A

2025-02-04 09:30:15.965309 -- $GNVTG,,T,,M,0.041,N,0.076,K,D*3C

2025-02-04 09:30:16.155937 -- $GNRMC,083015.85,A,4543.87099,N,00450.09108,E,0.046,,040225,,,D*62

2025-02-04 09:30:16.156267 -- $GNVTG,,T,,M,0.046,N,0.085,K,D*37

2025-02-04 09:30:16.359214 -- $GNRMC,083016.05,A,4543.87099,N,00450.09109,E,0.111,,040225,,,D*6B

2025-02-04 09:30:16.359490 -- $GNVTG,,T,,M,0.111,N,0.206,K,D*3D

2025-02-04 09:30:16.554993 -- $GNRMC,083016.25,A,4543.87100,N,00450.09109,E,0.025,,040225,,,D*6E

2025-02-04 09:30:16.726320 -- $GNRMC,083016.45,A,4543.87101,N,00450.09109,E,0.072,,040225,,,D*6B

2025-02-04 09:30:16.726691 -- $GNVTG,,T,,M,0.072,N,0.133,K,D*3C

2025-02-04 09:30:16.938528 -- $GNRMC,083016.65,A,4543.87101,N,00450.09110,E,0.018,,040225,,,D*6D

2025-02-04 09:30:17.135594 -- $GNRMC,083016.85,A,4543.87101,N,00450.09110,E,0.018,,040225,,,D*63

2025-02-04 09:30:17.526952 -- $GNRMC,083017.25,A,4543.87100,N,00450.09111,E,0.077,,040225,,,D*61

2025-02-04 09:30:17.919338 -- $GNRMC,083017.65,A,4543.87100,N,00450.09112,E,0.033,,040225,,,D*66

2025-02-04 09:30:17.919627 -- $GNVTG,,T,,M,0.033,N,0.061,K,D*3F

2025-02-04 09:30:18.708211 -- $GNRMC,083018.45,A,4543.87098,N,00450.09110,E,0.135,,040225,,,D*6E

2025-02-04 09:30:18.906260 -- $GNRMC,083018.65,A,4543.87098,N,00450.09110,E,0.046,,040225,,,D*69

2025-02-04 09:30:19.098413 -- $GNRMC,083018.85,A,4543.87097,N,00450.09110,E,0.053,,040225,,,D*6C

2025-02-04 09:30:19.098933 -- $GNVTG,,T,,M,0.053,N,0.098,K,D*3F

2025-02-04 09:30:19.490575 -- $GNRMC,083019.25,A,4543.87095,N,00450.09109,E,0.040,,040225,,,D*6F

2025-02-04 09:30:19.491055 -- $GNVTG,,T,,M,0.040,N,0.074,K,D*3F

2025-02-04 09:30:20.287497 -- $GNRMC,083020.05,A,4543.87090,N,00450.09109,E,0.078,,040225,,,D*69

2025-02-04 09:30:20.287871 -- $GNVTG,,T,,M,0.078,N,0.145,K,D*37

2025-02-04 09:30:20.871986 -- $GNRMC,083020.65,A,4543.87086,N,00450.09109,E,0.053,,040225,,,D*61

2025-02-04 09:30:20.872595 -- $GNVTG,,T,,M,0.053,N,0.099,K,D*3E

2025-02-04 09:30:21.269594 -- $GNRMC,083021.05,A,4543.87083,N,00450.09108,E,0.063,,040225,,,D*61

2025-02-04 09:30:21.270090 -- $GNVTG,,T,,M,0.063,N,0.117,K,D*3A

2025-02-04 09:30:21.459375 -- $GNRMC,083021.25,A,4543.87081,N,00450.09107,E,0.027,,040225,,,D*6E

2025-02-04 09:30:21.459689 -- $GNVTG,,T,,M,0.027,N,0.049,K,D*30

2025-02-04 09:30:21.862039 -- $GNRMC,083021.65,A,4543.87077,N,00450.09106,E,0.067,,040225,,,D*66

2025-02-04 09:30:22.248229 -- $GNRMC,083022.05,A,4543.87072,N,00450.09105,E,0.020,,040225,,,D*66

2025-02-04 09:30:22.454254 -- $GNRMC,083022.25,A,4543.87070,N,00450.09105,E,0.067,,040225,,,D*65

2025-02-04 09:30:22.644942 -- $GNRMC,083022.45,A,4543.87067,N,00450.09105,E,0.013,,040225,,,D*66

2025-02-04 09:30:23.030979 -- $GNRMC,083022.85,A,4543.87063,N,00450.09105,E,0.044,,040225,,,D*6C

2025-02-04 09:30:23.031358 -- $GNVTG,,T,,M,0.044,N,0.082,K,D*32

2025-02-04 09:30:23.651598 -- $GNRMC,083023.45,A,4543.87055,N,00450.09106,E,0.034,,040225,,,D*60

2025-02-04 09:30:23.651984 -- $GNVTG,,T,,M,0.034,N,0.063,K,D*3A

2025-02-04 09:30:23.834702 -- $GNRMC,083023.65,A,4543.87053,N,00450.09106,E,0.028,,040225,,,D*69

2025-02-04 09:30:24.430255 -- $GNRMC,083024.25,A,4543.87046,N,00450.09106,E,0.078,,040225,,,D*6B

2025-02-04 09:30:24.627873 -- $GNRMC,083024.45,A,4543.87044,N,00450.09106,E,0.052,,040225,,,D*67

2025-02-04 09:30:25.223228 -- $GNRMC,083025.05,A,4543.87037,N,00450.09106,E,0.011,,040225,,,D*61

2025-02-04 09:30:25.223546 -- $GNVTG,,T,,M,0.011,N,0.020,K,D*3A

2025-02-04 09:30:25.817705 -- $GNRMC,083025.65,A,4543.87030,N,00450.09107,E,0.099,,040225,,,D*61

2025-02-04 09:30:25.818201 -- $GNVTG,,T,,M,0.099,N,0.183,K,D*32

2025-02-04 09:30:26.433932 -- $GNRMC,083026.25,A,4543.87023,N,00450.09107,E,0.008,,040225,,,D*6C

2025-02-04 09:30:26.434426 -- $GNVTG,,T,,M,0.008,N,0.015,K,D*34

2025-02-04 09:30:26.815010 -- $GNRMC,083026.65,A,4543.87018,N,00450.09108,E,0.062,,040225,,,D*63

2025-02-04 09:30:27.214207 -- $GNVTG,,T,,M,0.052,N,0.096,K,D*30

2025-02-04 09:30:27.421964 -- $GNRMC,083027.25,A,4543.87011,N,00450.09109,E,0.070,,040225,,,D*6D

2025-02-04 09:30:27.422411 -- $GNVTG,,T,,M,0.070,N,0.130,K,D*3D

2025-02-04 09:30:27.607115 -- $GNRMC,083027.45,A,4543.87008,N,00450.09109,E,0.064,,040225,,,D*66

2025-02-04 09:30:27.809159 -- $GNRMC,083027.65,A,4543.87006,N,00450.09109,E,0.036,,040225,,,D*6D

2025-02-04 09:30:28.005178 -- $GNRMC,083027.85,A,4543.87004,N,00450.09110,E,0.062,,040225,,,D*68

2025-02-04 09:30:28.604925 -- $GNRMC,083028.45,A,4543.86999,N,00450.09110,E,0.027,,040225,,,D*66

2025-02-04 09:30:28.605307 -- $GNVTG,,T,,M,0.027,N,0.050,K,D*38

2025-02-04 09:30:28.806634 -- $GNRMC,083028.65,A,4543.86998,N,00450.09111,E,0.010,,040225,,,D*60

2025-02-04 09:30:29.008837 -- $GNRMC,083028.85,A,4543.86997,N,00450.09111,E,0.015,,040225,,,D*64

2025-02-04 09:30:29.401856 -- $GNRMC,083029.25,A,4543.86996,N,00450.09112,E,0.047,,040225,,,D*6A

2025-02-04 09:30:29.402342 -- $GNVTG,,T,,M,0.047,N,0.088,K,D*3B

2025-02-04 09:30:29.795677 -- $GNRMC,083029.65,A,4543.86996,N,00450.09113,E,0.026,,040225,,,D*68

2025-02-04 09:30:29.796149 -- $GNVTG,,T,,M,0.026,N,0.049,K,D*31

2025-02-04 09:30:30.393951 -- $GNRMC,083030.25,A,4543.86997,N,00450.09114,E,0.017,,040225,,,D*60

2025-02-04 09:30:30.992964 -- $GNRMC,083030.85,A,4543.86997,N,00450.09114,E,0.031,,040225,,,D*6E

2025-02-04 09:30:31.393764 -- $GNRMC,083031.25,A,4543.86997,N,00450.09115,E,0.009,,040225,,,D*6F

2025-02-04 09:30:31.790799 -- $GNRMC,083031.65,A,4543.86998,N,00450.09116,E,0.101,,040225,,,D*6E

2025-02-04 09:30:32.594725 -- $GNRMC,083032.45,A,4543.87001,N,00450.09120,E,0.080,,040225,,,D*6A

2025-02-04 09:30:33.597431 -- $GNRMC,083033.45,A,4543.87008,N,00450.09124,E,0.019,,040225,,,D*66

2025-02-04 09:30:33.597895 -- $GNVTG,,T,,M,0.019,N,0.034,K,D*37

2025-02-04 09:30:33.791915 -- $GNRMC,083033.65,A,4543.87009,N,00450.09125,E,0.025,,040225,,,D*6B

2025-02-04 09:30:35.392353 -- $GNRMC,083035.25,A,4543.87020,N,00450.09130,E,0.059,,040225,,,D*6D

2025-02-04 09:30:35.392907 -- $GNVTG,,T,,M,0.059,N,0.108,K,D*3D

2025-02-04 09:30:35.995960 -- $GNRMC,083035.85,A,4543.87025,N,00450.09132,E,0.034,,040225,,,D*6B

2025-02-04 09:30:36.386565 -- $GNRMC,083036.25,A,4543.87028,N,00450.09134,E,0.045,,040225,,,D*6F

2025-02-04 09:30:36.388734 -- $GNVTG,,T,,M,0.045,N,0.084,K,D*35

2025-02-04 09:30:36.589956 -- $GNRMC,083036.45,A,4543.87029,N,00450.09135,E,0.071,,040225,,,D*6E

2025-02-04 09:30:36.590434 -- $GNVTG,,T,,M,0.071,N,0.132,K,D*3E

2025-02-04 09:30:37.388729 -- $GNRMC,083037.25,A,4543.87036,N,00450.09137,E,0.023,,040225,,,D*62

2025-02-04 09:30:37.389384 -- $GNVTG,,T,,M,0.023,N,0.042,K,D*3F

2025-02-04 09:30:37.790923 -- $GNRMC,083037.65,A,4543.87041,N,00450.09139,E,0.119,,040225,,,D*60

2025-02-04 09:30:38.388911 -- $GNRMC,083038.25,A,4543.87047,N,00450.09141,E,0.027,,040225,,,D*6E

2025-02-04 09:30:38.583826 -- $GNRMC,083038.45,A,4543.87049,N,00450.09141,E,0.057,,040225,,,D*61

2025-02-04 09:30:38.778572 -- $GNRMC,083038.65,A,4543.87051,N,00450.09142,E,0.020,,040225,,,D*69

2025-02-04 09:30:38.778909 -- $GNVTG,,T,,M,0.020,N,0.037,K,D*3E

2025-02-04 09:30:38.987788 -- $GNRMC,083038.85,A,4543.87053,N,00450.09142,E,0.037,,040225,,,D*63

2025-02-04 09:30:39.376049 -- $GNRMC,083039.25,A,4543.87058,N,00450.09141,E,0.074,,040225,,,D*67

2025-02-04 09:30:39.585851 -- $GNRMC,083039.45,A,4543.87060,N,00450.09140,E,0.044,,040225,,,D*68

2025-02-04 09:30:39.586218 -- $GNVTG,,T,,M,0.044,N,0.081,K,D*31

2025-02-04 09:30:40.587475 -- $GNRMC,083040.45,A,4543.87070,N,00450.09138,E,0.058,,040225,,,D*65

2025-02-04 09:30:40.987711 -- $GNRMC,083040.85,A,4543.87074,N,00450.09137,E,0.068,,040225,,,D*61

2025-02-04 09:30:40.988027 -- $GNVTG,,T,,M,0.068,N,0.126,K,D*33

2025-02-04 09:30:41.178092 -- $GNRMC,083041.05,A,4543.87076,N,00450.09136,E,0.017,,040225,,,D*63

2025-02-04 09:30:41.775404 -- $GNRMC,083041.65,A,4543.87082,N,00450.09134,E,0.015,,040225,,,D*6E

2025-02-04 09:30:42.189078 -- $GNRMC,083042.05,A,4543.87087,N,00450.09132,E,0.082,,040225,,,D*66

2025-02-04 09:30:42.189439 -- $GNVTG,,T,,M,0.082,N,0.152,K,D*34

2025-02-04 09:30:42.389216 -- $GNRMC,083042.25,A,4543.87089,N,00450.09131,E,0.046,,040225,,,D*61

2025-02-04 09:30:42.389679 -- $GNVTG,,T,,M,0.046,N,0.086,K,D*34

2025-02-04 09:30:42.790827 -- $GNRMC,083042.65,A,4543.87092,N,00450.09129,E,0.051,,040225,,,D*60

2025-02-04 09:30:42.791196 -- $GNVTG,,T,,M,0.051,N,0.094,K,D*31

2025-02-04 09:30:43.194573 -- $GNRMC,083043.05,A,4543.87097,N,00450.09126,E,0.049,,040225,,,D*64

2025-02-04 09:30:43.393942 -- $GNRMC,083043.25,A,4543.87099,N,00450.09125,E,0.036,,040225,,,D*63

2025-02-04 09:30:43.394293 -- $GNVTG,,T,,M,0.036,N,0.067,K,D*3C

2025-02-04 09:30:43.802256 -- $GNRMC,083043.65,A,4543.87102,N,00450.09122,E,0.017,,040225,,,D*60

2025-02-04 09:30:43.802746 -- $GNVTG,,T,,M,0.017,N,0.032,K,D*3F

2025-02-04 09:30:44.587729 -- $GNRMC,083044.45,A,4543.87112,N,00450.09117,E,0.083,,040225,,,D*6F

2025-02-04 09:30:44.588086 -- $GNVTG,,T,,M,0.083,N,0.153,K,D*34

2025-02-04 09:30:45.199492 -- $GNRMC,083045.05,A,4543.87118,N,00450.09113,E,0.042,,040225,,,D*69

2025-02-04 09:30:45.199952 -- $GNVTG,,T,,M,0.042,N,0.078,K,D*31

2025-02-04 09:30:46.215247 -- $GNRMC,083046.05,A,4543.87131,N,00450.09104,E,0.059,,040225,,,D*6D

2025-02-04 09:30:47.421783 -- $GNRMC,083047.25,A,4543.87140,N,00450.09096,E,0.042,,040225,,,D*68

2025-02-04 09:30:47.622407 -- $GNRMC,083047.45,A,4543.87141,N,00450.09094,E,0.035,,040225,,,D*6D

2025-02-04 09:30:47.623051 -- $GNVTG,,T,,M,0.035,N,0.064,K,D*3C

2025-02-04 09:30:48.025663 -- $GNRMC,083047.85,A,4543.87143,N,00450.09091,E,0.019,,040225,,,D*68

2025-02-04 09:30:48.026006 -- $GNVTG,,T,,M,0.019,N,0.036,K,D*35

2025-02-04 09:30:48.236459 -- $GNRMC,083048.05,A,4543.87143,N,00450.09090,E,0.055,,040225,,,D*66

2025-02-04 09:30:48.237079 -- $GNVTG,,T,,M,0.055,N,0.102,K,D*3B

2025-02-04 09:30:48.423856 -- $GNRMC,083048.25,A,4543.87144,N,00450.09089,E,0.057,,040225,,,D*69

2025-02-04 09:30:48.623426 -- $GNRMC,083048.45,A,4543.87144,N,00450.09087,E,0.020,,040225,,,D*61

2025-02-04 09:30:48.623881 -- $GNVTG,,T,,M,0.020,N,0.036,K,D*3F

2025-02-04 09:30:48.825597 -- $GNRMC,083048.65,A,4543.87145,N,00450.09086,E,0.027,,040225,,,D*64

2025-02-04 09:30:48.826096 -- $GNVTG,,T,,M,0.027,N,0.051,K,D*39

2025-02-04 09:30:49.013242 -- $GNRMC,083048.85,A,4543.87145,N,00450.09083,E,0.043,,040225,,,D*6D

2025-02-04 09:30:49.623860 -- $GNRMC,083049.45,A,4543.87144,N,00450.09077,E,0.039,,040225,,,D*67

2025-02-04 09:30:49.624324 -- $GNVTG,,T,,M,0.039,N,0.072,K,D*37

2025-02-04 09:30:49.828163 -- $GNRMC,083049.65,A,4543.87143,N,00450.09075,E,0.085,,040225,,,D*67

2025-02-04 09:30:50.432242 -- $GNVTG,,T,,M,0.036,N,0.067,K,D*3C

2025-02-04 09:30:50.831919 -- $GNRMC,083050.65,A,4543.87142,N,00450.09066,E,0.003,,040225,,,D*62

2025-02-04 09:30:50.832373 -- $GNVTG,,T,,M,0.003,N,0.005,K,D*3E

2025-02-04 09:30:51.046187 -- $GNRMC,083050.85,A,4543.87141,N,00450.09063,E,0.051,,040225,,,D*6D

2025-02-04 09:30:51.440837 -- $GNRMC,083051.25,A,4543.87139,N,00450.09061,E,0.079,,040225,,,D*61

2025-02-04 09:30:51.624979 -- $GNRMC,083051.45,A,4543.87139,N,00450.09059,E,0.083,,040225,,,D*69

2025-02-04 09:30:52.037350 -- $GNRMC,083051.85,A,4543.87138,N,00450.09056,E,0.047,,040225,,,D*63

2025-02-04 09:30:52.037781 -- $GNVTG,,T,,M,0.047,N,0.086,K,D*35

2025-02-04 09:30:52.253686 -- $GNRMC,083052.05,A,4543.87137,N,00450.09055,E,0.061,,040225,,,D*60

2025-02-04 09:30:52.845301 -- $GNRMC,083052.65,A,4543.87134,N,00450.09052,E,0.059,,040225,,,D*69

2025-02-04 09:30:52.845631 -- $GNVTG,,T,,M,0.059,N,0.110,K,D*34

2025-02-04 09:30:53.247020 -- $GNRMC,083053.05,A,4543.87132,N,00450.09049,E,0.025,,040225,,,D*69

2025-02-04 09:30:53.247358 -- $GNVTG,,T,,M,0.025,N,0.046,K,D*3D

2025-02-04 09:30:53.444263 -- $GNRMC,083053.25,A,4543.87131,N,00450.09048,E,0.041,,040225,,,D*6B

2025-02-04 09:30:53.444702 -- $GNVTG,,T,,M,0.041,N,0.076,K,D*3C

2025-02-04 09:30:53.648012 -- $GNRMC,083053.45,A,4543.87129,N,00450.09047,E,0.037,,040225,,,D*6A

2025-02-04 09:30:53.845191 -- $GNRMC,083053.65,A,4543.87127,N,00450.09047,E,0.038,,040225,,,D*69

2025-02-04 09:30:53.845563 -- $GNVTG,,T,,M,0.038,N,0.070,K,D*34

2025-02-04 09:30:54.066098 -- $GNRMC,083053.85,A,4543.87124,N,00450.09046,E,0.017,,040225,,,D*68

2025-02-04 09:30:54.846558 -- $GNRMC,083054.65,A,4543.87109,N,00450.09049,E,0.038,,040225,,,D*6C

2025-02-04 09:30:54.847018 -- $GNVTG,,T,,M,0.038,N,0.071,K,D*35

2025-02-04 09:30:55.257390 -- $GNRMC,083055.05,A,4543.87103,N,00450.09051,E,0.051,,040225,,,D*67

2025-02-04 09:30:55.648991 -- $GNRMC,083055.45,A,4543.87097,N,00450.09053,E,0.032,,040225,,,D*68

2025-02-04 09:30:55.649331 -- $GNVTG,,T,,M,0.032,N,0.058,K,D*34

2025-02-04 09:30:56.053214 -- $GNRMC,083055.85,A,4543.87091,N,00450.09054,E,0.038,,040225,,,D*6F

2025-02-04 09:30:56.261345 -- $GNRMC,083056.05,A,4543.87089,N,00450.09055,E,0.032,,040225,,,D*66

2025-02-04 09:30:56.261823 -- $GNVTG,,T,,M,0.032,N,0.060,K,D*3F

2025-02-04 09:30:56.451051 -- $GNRMC,083056.25,A,4543.87087,N,00450.09056,E,0.072,,040225,,,D*6D

2025-02-04 09:30:56.451375 -- $GNVTG,,T,,M,0.072,N,0.134,K,D*3B

2025-02-04 09:30:56.647159 -- $GNRMC,083056.45,A,4543.87084,N,00450.09056,E,0.117,,040225,,,D*6A

2025-02-04 09:30:56.830804 -- $GNRMC,083056.65,A,4543.87081,N,00450.09057,E,0.083,,040225,,,D*60

2025-02-04 09:30:56.831279 -- $GNVTG,,T,,M,0.083,N,0.153,K,D*34

2025-02-04 09:30:57.435867 -- $GNRMC,083057.25,A,4543.87076,N,00450.09057,E,0.045,,040225,,,D*67

2025-02-04 09:30:57.838888 -- $GNRMC,083057.65,A,4543.87073,N,00450.09059,E,0.016,,040225,,,D*6E

2025-02-04 09:30:57.839364 -- $GNVTG,,T,,M,0.016,N,0.029,K,D*34

2025-02-04 09:30:58.256161 -- $GNRMC,083058.05,A,4543.87070,N,00450.09062,E,0.067,,040225,,,D*6A

2025-02-04 09:30:58.256645 -- $GNVTG,,T,,M,0.067,N,0.125,K,D*3F

2025-02-04 09:30:58.650753 -- $GNRMC,083058.45,A,4543.87068,N,00450.09064,E,0.077,,040225,,,D*60

2025-02-04 09:30:58.651092 -- $GNVTG,,T,,M,0.077,N,0.143,K,D*3E

2025-02-04 09:30:58.849819 -- $GNRMC,083058.65,A,4543.87068,N,00450.09065,E,0.096,,040225,,,D*6C

2025-02-04 09:30:58.850298 -- $GNVTG,,T,,M,0.096,N,0.178,K,D*39

2025-02-04 09:30:59.247873 -- $GNRMC,083059.05,A,4543.87067,N,00450.09067,E,0.041,,040225,,,D*6C

2025-02-04 09:31:00.043720 -- $GNRMC,083059.85,A,4543.87064,N,00450.09067,E,0.052,,040225,,,D*65

2025-02-04 09:31:00.044212 -- $GNVTG,,T,,M,0.052,N,0.096,K,D*30

2025-02-04 09:31:00.263142 -- $GNRMC,083100.05,A,4543.87064,N,00450.09066,E,0.027,,040225,,,D*63

2025-02-04 09:31:00.456820 -- $GNRMC,083100.25,A,4543.87063,N,00450.09065,E,0.072,,040225,,,D*65

2025-02-04 09:31:00.457302 -- $GNVTG,,T,,M,0.072,N,0.134,K,D*3B

2025-02-04 09:31:00.643689 -- $GNRMC,083100.45,A,4543.87062,N,00450.09063,E,0.036,,040225,,,D*64

2025-02-04 09:31:01.049543 -- $GNRMC,083100.85,A,4543.87060,N,00450.09060,E,0.046,,040225,,,D*6E

2025-02-04 09:31:01.050090 -- $GNVTG,,T,,M,0.046,N,0.086,K,D*34

2025-02-04 09:31:01.260927 -- $GNRMC,083101.05,A,4543.87059,N,00450.09059,E,0.001,,040225,,,D*64

2025-02-04 09:31:01.649466 -- $GNRMC,083101.45,A,4543.87058,N,00450.09057,E,0.006,,040225,,,D*68

2025-02-04 09:31:01.649790 -- $GNVTG,,T,,M,0.006,N,0.010,K,D*3F

2025-02-04 09:31:01.852075 -- $GNRMC,083101.65,A,4543.87057,N,00450.09055,E,0.072,,040225,,,D*64

2025-02-04 09:31:01.852390 -- $GNVTG,,T,,M,0.072,N,0.134,K,D*3B

2025-02-04 09:31:02.653106 -- $GNRMC,083102.45,A,4543.87055,N,00450.09049,E,0.060,,040225,,,D*69

2025-02-04 09:31:02.653532 -- $GNVTG,,T,,M,0.060,N,0.110,K,D*3E

2025-02-04 09:31:03.061595 -- $GNRMC,083102.85,A,4543.87054,N,00450.09046,E,0.014,,040225,,,D*68

2025-02-04 09:31:03.062095 -- $GNVTG,,T,,M,0.014,N,0.025,K,D*3A

2025-02-04 09:31:04.282968 -- $GNRMC,083104.05,A,4543.87052,N,00450.09041,E,0.041,,040225,,,D*67

2025-02-04 09:31:04.666703 -- $GNRMC,083104.45,A,4543.87051,N,00450.09040,E,0.056,,040225,,,D*67

2025-02-04 09:31:04.667339 -- $GNVTG,,T,,M,0.056,N,0.104,K,D*3E

2025-02-04 09:31:05.456021 -- $GNRMC,083105.25,A,4543.87051,N,00450.09038,E,0.069,,040225,,,D*63

2025-02-04 09:31:05.456384 -- $GNVTG,,T,,M,0.069,N,0.127,K,D*33

2025-02-04 09:31:05.658580 -- $GNRMC,083105.45,A,4543.87051,N,00450.09037,E,0.035,,040225,,,D*63

2025-02-04 09:31:05.658910 -- $GNVTG,,T,,M,0.035,N,0.065,K,D*3D

2025-02-04 09:31:05.860714 -- $GNRMC,083105.65,A,4543.87052,N,00450.09037,E,0.013,,040225,,,D*66

2025-02-04 09:31:06.266769 -- $GNRMC,083106.05,A,4543.87052,N,00450.09037,E,0.062,,040225,,,D*65

2025-02-04 09:31:06.267234 -- $GNVTG,,T,,M,0.062,N,0.115,K,D*39

2025-02-04 09:31:07.065084 -- $GNRMC,083106.85,A,4543.87053,N,00450.09036,E,0.019,,040225,,,D*61

2025-02-04 09:31:07.065508 -- $GNVTG,,T,,M,0.019,N,0.035,K,D*36

2025-02-04 09:31:07.266778 -- $GNRMC,083107.05,A,4543.87053,N,00450.09035,E,0.059,,040225,,,D*6F

2025-02-04 09:31:08.058693 -- $GNRMC,083107.85,A,4543.87056,N,00450.09035,E,0.046,,040225,,,D*6C

2025-02-04 09:31:08.461627 -- $GNRMC,083108.25,A,4543.87057,N,00450.09034,E,0.041,,040225,,,D*6E

2025-02-04 09:31:08.461954 -- $GNVTG,,T,,M,0.041,N,0.075,K,D*3F

2025-02-04 09:31:09.048729 -- $GNVTG,,T,,M,0.065,N,0.120,K,D*38

2025-02-04 09:31:09.267927 -- $GNRMC,083109.05,A,4543.87061,N,00450.09034,E,0.050,,040225,,,D*68

2025-02-04 09:31:09.461788 -- $GNVTG,,T,,M,0.036,N,0.067,K,D*3C

2025-02-04 09:31:09.668779 -- $GNRMC,083109.45,A,4543.87062,N,00450.09033,E,0.007,,040225,,,D*6A

2025-02-04 09:31:09.669096 -- $GNVTG,,T,,M,0.007,N,0.013,K,D*3D

2025-02-04 09:31:10.862215 -- $GNRMC,083110.65,A,4543.87066,N,00450.09035,E,0.032,,040225,,,D*64

2025-02-04 09:31:11.448208 -- $GNRMC,083111.25,A,4543.87069,N,00450.09036,E,0.027,,040225,,,D*69

2025-02-04 09:31:11.448538 -- $GNVTG,,T,,M,0.027,N,0.049,K,D*30

2025-02-04 09:31:11.849976 -- $GNRMC,083111.65,A,4543.87071,N,00450.09036,E,0.068,,040225,,,D*6F

2025-02-04 09:31:11.850368 -- $GNVTG,,T,,M,0.068,N,0.127,K,D*32

2025-02-04 09:31:12.269345 -- $GNRMC,083112.05,A,4543.87073,N,00450.09036,E,0.008,,040225,,,D*6E

2025-02-04 09:31:13.454467 -- $GNRMC,083113.25,A,4543.87079,N,00450.09038,E,0.043,,040225,,,D*66

2025-02-04 09:31:14.277635 -- $GNRMC,083114.05,A,4543.87084,N,00450.09037,E,0.046,,040225,,,D*6B

2025-02-04 09:31:14.464884 -- $GNRMC,083114.25,A,4543.87085,N,00450.09037,E,0.023,,040225,,,D*6B

2025-02-04 09:31:14.465210 -- $GNVTG,,T,,M,0.023,N,0.042,K,D*3F

2025-02-04 09:31:14.670885 -- $GNRMC,083114.45,A,4543.87087,N,00450.09037,E,0.034,,040225,,,D*69

2025-02-04 09:31:14.871596 -- $GNRMC,083114.65,A,4543.87088,N,00450.09037,E,0.053,,040225,,,D*65

2025-02-04 09:31:16.069961 -- $GNRMC,083115.85,A,4543.87096,N,00450.09039,E,0.054,,040225,,,D*6C

2025-02-04 09:31:16.070287 -- $GNVTG,,T,,M,0.054,N,0.100,K,D*38

2025-02-04 09:31:16.272030 -- $GNRMC,083116.05,A,4543.87097,N,00450.09039,E,0.011,,040225,,,D*67

2025-02-04 09:31:16.868738 -- $GNRMC,083116.65,A,4543.87098,N,00450.09038,E,0.020,,040225,,,D*6D

2025-02-04 09:31:16.869204 -- $GNVTG,,T,,M,0.020,N,0.036,K,D*3F

2025-02-04 09:31:17.255177 -- $GNRMC,083117.05,A,4543.87099,N,00450.09037,E,0.029,,040225,,,D*6D

2025-02-04 09:31:17.255616 -- $GNVTG,,T,,M,0.029,N,0.053,K,D*35

2025-02-04 09:31:17.468012 -- $GNRMC,083117.25,A,4543.87100,N,00450.09036,E,0.024,,040225,,,D*62

2025-02-04 09:31:17.468440 -- $GNVTG,,T,,M,0.024,N,0.045,K,D*3F

2025-02-04 09:31:18.865300 -- $GNRMC,083118.65,A,4543.87101,N,00450.09028,E,0.010,,040225,,,D*60

2025-02-04 09:31:18.865750 -- $GNVTG,,T,,M,0.010,N,0.018,K,D*30

2025-02-04 09:31:19.485385 -- $GNRMC,083119.25,A,4543.87104,N,00450.09023,E,0.042,,040225,,,D*6C

2025-02-04 09:31:19.485703 -- $GNVTG,,T,,M,0.042,N,0.078,K,D*31

2025-02-04 09:31:19.668981 -- $GNRMC,083119.45,A,4543.87104,N,00450.09021,E,0.044,,040225,,,D*6E

2025-02-04 09:31:19.867151 -- $GNRMC,083119.65,A,4543.87104,N,00450.09020,E,0.078,,040225,,,D*62

2025-02-04 09:31:19.867516 -- $GNVTG,,T,,M,0.078,N,0.144,K,D*36

2025-02-04 09:31:20.870261 -- $GNRMC,083120.65,A,4543.87101,N,00450.09013,E,0.058,,040225,,,D*6F

2025-02-04 09:31:21.467866 -- $GNRMC,083121.25,A,4543.87099,N,00450.09009,E,0.047,,040225,,,D*6F

2025-02-04 09:31:21.664721 -- $GNVTG,,T,,M,0.048,N,0.089,K,D*35

2025-02-04 09:31:21.865061 -- $GNRMC,083121.65,A,4543.87098,N,00450.09006,E,0.027,,040225,,,D*63

2025-02-04 09:31:21.865485 -- $GNVTG,,T,,M,0.027,N,0.049,K,D*30

2025-02-04 09:31:22.465769 -- $GNRMC,083122.25,A,4543.87095,N,00450.09002,E,0.060,,040225,,,D*6E

2025-02-04 09:31:22.657539 -- $GNRMC,083122.45,A,4543.87094,N,00450.09000,E,0.041,,040225,,,D*68

2025-02-04 09:31:22.854752 -- $GNRMC,083122.65,A,4543.87093,N,00450.08999,E,0.024,,040225,,,D*66

2025-02-04 09:31:22.855108 -- $GNVTG,,T,,M,0.024,N,0.044,K,D*3E

2025-02-04 09:31:23.089398 -- $GNRMC,083122.85,A,4543.87093,N,00450.08998,E,0.061,,040225,,,D*68

2025-02-04 09:31:24.067808 -- $GNRMC,083123.85,A,4543.87089,N,00450.08992,E,0.061,,040225,,,D*68

2025-02-04 09:31:24.660705 -- $GNRMC,083124.45,A,4543.87087,N,00450.08988,E,0.098,,040225,,,D*60

2025-02-04 09:31:26.066983 -- $GNRMC,083125.85,A,4543.87084,N,00450.08980,E,0.050,,040225,,,D*62

2025-02-04 09:31:26.069520 -- $GNVTG,,T,,M,0.050,N,0.093,K,D*37

2025-02-04 09:31:26.272125 -- $GNRMC,083126.05,A,4543.87084,N,00450.08979,E,0.039,,040225,,,D*60

2025-02-04 09:31:26.463856 -- $GNRMC,083126.25,A,4543.87085,N,00450.08978,E,0.022,,040225,,,D*68

2025-02-04 09:31:26.669979 -- $GNRMC,083126.45,A,4543.87085,N,00450.08977,E,0.039,,040225,,,D*6B

2025-02-04 09:31:26.670360 -- $GNVTG,,T,,M,0.039,N,0.072,K,D*37

2025-02-04 09:31:27.463452 -- $GNRMC,083127.25,A,4543.87086,N,00450.08974,E,0.054,,040225,,,D*67

2025-02-04 09:31:27.463783 -- $GNVTG,,T,,M,0.054,N,0.101,K,D*39

2025-02-04 09:31:27.664678 -- $GNRMC,083127.45,A,4543.87086,N,00450.08972,E,0.021,,040225,,,D*65

2025-02-04 09:31:28.064439 -- $GNVTG,,T,,M,0.068,N,0.126,K,D*33

2025-02-04 09:31:28.257634 -- $GNRMC,083128.05,A,4543.87086,N,00450.08969,E,0.046,,040225,,,D*65

2025-02-04 09:31:29.067656 -- $GNVTG,,T,,M,0.063,N,0.117,K,D*3A

2025-02-04 09:31:29.270009 -- $GNRMC,083129.05,A,4543.87085,N,00450.08963,E,0.095,,040225,,,D*63

2025-02-04 09:31:29.857354 -- $GNRMC,083129.65,A,4543.87084,N,00450.08961,E,0.030,,040225,,,D*69

2025-02-04 09:31:31.470579 -- $GNRMC,083131.25,A,4543.87082,N,00450.08958,E,0.015,,040225,,,D*6F

2025-02-04 09:31:31.859908 -- $GNRMC,083131.65,A,4543.87082,N,00450.08957,E,0.076,,040225,,,D*61

2025-02-04 09:31:31.860352 -- $GNVTG,,T,,M,0.076,N,0.141,K,D*3D

2025-02-04 09:31:32.660706 -- $GNRMC,083132.45,A,4543.87080,N,00450.08954,E,0.025,,040225,,,D*67

2025-02-04 09:31:32.661191 -- $GNVTG,,T,,M,0.025,N,0.046,K,D*3D

2025-02-04 09:31:32.856617 -- $GNRMC,083132.65,A,4543.87079,N,00450.08953,E,0.079,,040225,,,D*6D

2025-02-04 09:31:32.856933 -- $GNVTG,,T,,M,0.079,N,0.146,K,D*35

2025-02-04 09:31:33.275482 -- $GNRMC,083133.05,A,4543.87079,N,00450.08951,E,0.012,,040225,,,D*65

2025-02-04 09:31:33.275799 -- $GNVTG,,T,,M,0.012,N,0.022,K,D*3B

2025-02-04 09:31:33.463004 -- $GNRMC,083133.25,A,4543.87079,N,00450.08950,E,0.046,,040225,,,D*67

2025-02-04 09:31:34.276269 -- $GNRMC,083134.05,A,4543.87080,N,00450.08945,E,0.043,,040225,,,D*65

2025-02-04 09:31:34.276660 -- $GNVTG,,T,,M,0.043,N,0.080,K,D*37

2025-02-04 09:31:34.485324 -- $GNRMC,083134.25,A,4543.87081,N,00450.08944,E,0.013,,040225,,,D*62

2025-02-04 09:31:34.867481 -- $GNRMC,083134.65,A,4543.87084,N,00450.08940,E,0.002,,040225,,,D*67

2025-02-04 09:31:34.867981 -- $GNVTG,,T,,M,0.002,N,0.003,K,D*39

2025-02-04 09:31:35.076868 -- $GNRMC,083134.85,A,4543.87085,N,00450.08938,E,0.044,,040225,,,D*65

2025-02-04 09:31:35.276049 -- $GNRMC,083135.05,A,4543.87086,N,00450.08936,E,0.018,,040225,,,D*68

2025-02-04 09:31:35.276486 -- $GNVTG,,T,,M,0.018,N,0.034,K,D*36

2025-02-04 09:31:36.459197 -- $GNRMC,083136.25,A,4543.87093,N,00450.08939,E,0.026,,040225,,,D*6F

2025-02-04 09:31:36.869515 -- $GNRMC,083136.65,A,4543.87094,N,00450.08944,E,0.021,,040225,,,D*61

2025-02-04 09:31:36.869960 -- $GNVTG,,T,,M,0.021,N,0.039,K,D*31

2025-02-04 09:31:37.270024 -- $GNRMC,083137.05,A,4543.87097,N,00450.08950,E,0.019,,040225,,,D*6B

2025-02-04 09:31:37.270471 -- $GNVTG,,T,,M,0.019,N,0.036,K,D*35

2025-02-04 09:31:37.468223 -- $GNRMC,083137.25,A,4543.87098,N,00450.08952,E,0.023,,040225,,,D*6D

2025-02-04 09:31:38.062658 -- $GNRMC,083137.85,A,4543.87102,N,00450.08961,E,0.046,,040225,,,D*66

2025-02-04 09:31:39.450992 -- $GNRMC,083139.25,A,4543.87107,N,00450.08976,E,0.057,,040225,,,D*61

2025-02-04 09:31:39.451448 -- $GNVTG,,T,,M,0.057,N,0.106,K,D*3D

2025-02-04 09:31:39.663696 -- $GNRMC,083139.45,A,4543.87107,N,00450.08979,E,0.020,,040225,,,D*68

2025-02-04 09:31:40.059751 -- $GNRMC,083139.85,A,4543.87109,N,00450.08983,E,0.078,,040225,,,D*62

2025-02-04 09:31:40.060089 -- $GNVTG,,T,,M,0.078,N,0.144,K,D*36

2025-02-04 09:31:40.273174 -- $GNRMC,083140.05,A,4543.87110,N,00450.08986,E,0.026,,040225,,,D*62

2025-02-04 09:31:43.265885 -- $GNRMC,083143.05,A,4543.87121,N,00450.09023,E,0.026,,040225,,,D*64

2025-02-04 09:31:43.266450 -- $GNVTG,,T,,M,0.026,N,0.049,K,D*31

2025-02-04 09:31:43.459458 -- $GNRMC,083143.25,A,4543.87123,N,00450.09026,E,0.043,,040225,,,D*62

2025-02-04 09:31:43.461405 -- $GNVTG,,T,,M,0.043,N,0.080,K,D*37

2025-02-04 09:31:43.652621 -- $GNRMC,083143.45,A,4543.87125,N,00450.09028,E,0.075,,040225,,,D*69

2025-02-04 09:31:44.467003 -- $GNRMC,083144.25,A,4543.87131,N,00450.09040,E,0.041,,040225,,,D*64

2025-02-04 09:31:44.467335 -- $GNVTG,,T,,M,0.041,N,0.077,K,D*3D

2025-02-04 09:31:44.648996 -- $GNRMC,083144.45,A,4543.87132,N,00450.09042,E,0.095,,040225,,,D*6A

2025-02-04 09:31:45.057268 -- $GNRMC,083144.85,A,4543.87134,N,00450.09045,E,0.065,,040225,,,D*68

2025-02-04 09:31:45.057587 -- $GNVTG,,T,,M,0.065,N,0.120,K,D*38

2025-02-04 09:31:45.261756 -- $GNRMC,083145.05,A,4543.87135,N,00450.09046,E,0.042,,040225,,,D*66

2025-02-04 09:31:45.662242 -- $GNRMC,083145.45,A,4543.87138,N,00450.09049,E,0.040,,040225,,,D*62

2025-02-04 09:31:47.453656 -- $GNRMC,083147.25,A,4543.87151,N,00450.09058,E,0.046,,040225,,,D*6F

2025-02-04 09:31:47.454279 -- $GNVTG,,T,,M,0.046,N,0.085,K,D*37

2025-02-04 09:31:48.664174 -- $GNRMC,083148.45,A,4543.87154,N,00450.09061,E,0.041,,040225,,,D*6E

2025-02-04 09:31:48.664700 -- $GNVTG,,T,,M,0.041,N,0.077,K,D*3D

2025-02-04 09:31:48.868608 -- $GNRMC,083148.65,A,4543.87155,N,00450.09061,E,0.038,,040225,,,D*63

2025-02-04 09:31:49.864719 -- $GNVTG,,T,,M,0.010,N,0.019,K,D*31

2025-02-04 09:31:50.060371 -- $GNRMC,083149.85,A,4543.87165,N,00450.09059,E,0.027,,040225,,,D*6A

2025-02-04 09:31:50.448602 -- $GNVTG,,T,,M,0.005,N,0.010,K,D*3C

2025-02-04 09:31:50.867463 -- $GNRMC,083150.65,A,4543.87168,N,00450.09057,E,0.014,,040225,,,D*6F

2025-02-04 09:31:52.467399 -- $GNRMC,083152.25,A,4543.87161,N,00450.09058,E,0.026,,040225,,,D*6E

2025-02-04 09:31:52.467743 -- $GNVTG,,T,,M,0.026,N,0.047,K,D*3F

2025-02-04 09:31:52.869361 -- $GNRMC,083152.65,A,4543.87158,N,00450.09059,E,0.044,,040225,,,D*65

2025-02-04 09:31:53.462927 -- $GNRMC,083153.25,A,4543.87152,N,00450.09058,E,0.043,,040225,,,D*6C

2025-02-04 09:31:53.463406 -- $GNVTG,,T,,M,0.043,N,0.079,K,D*31

2025-02-04 09:31:53.675530 -- $GNRMC,083153.45,A,4543.87150,N,00450.09058,E,0.043,,040225,,,D*68

2025-02-04 09:31:53.859233 -- $GNRMC,083153.65,A,4543.87148,N,00450.09057,E,0.028,,040225,,,D*61

2025-02-04 09:31:54.062135 -- $GNRMC,083153.85,A,4543.87147,N,00450.09057,E,0.046,,040225,,,D*68

2025-02-04 09:31:55.261796 -- $GNRMC,083155.05,A,4543.87140,N,00450.09058,E,0.051,,040225,,,D*68

2025-02-04 09:31:56.057719 -- $GNRMC,083155.85,A,4543.87135,N,00450.09057,E,0.039,,040225,,,D*63

2025-02-04 09:31:58.061511 -- $GNRMC,083157.85,A,4543.87118,N,00450.09055,E,0.034,,040225,,,D*61

2025-02-04 09:31:58.061826 -- $GNVTG,,T,,M,0.034,N,0.063,K,D*3A

2025-02-04 09:31:58.268591 -- $GNRMC,083158.05,A,4543.87115,N,00450.09055,E,0.041,,040225,,,D*69

2025-02-04 09:31:58.457829 -- $GNRMC,083158.25,A,4543.87113,N,00450.09054,E,0.030,,040225,,,D*6A

2025-02-04 09:31:58.863905 -- $GNRMC,083158.65,A,4543.87108,N,00450.09054,E,0.086,,040225,,,D*69

2025-02-04 09:31:58.864252 -- $GNVTG,,T,,M,0.086,N,0.160,K,D*31

2025-02-04 09:31:59.267968 -- $GNRMC,083159.05,A,4543.87103,N,00450.09052,E,0.039,,040225,,,D*67

2025-02-04 09:31:59.268597 -- $GNVTG,,T,,M,0.039,N,0.073,K,D*36

2025-02-04 09:31:59.466197 -- $GNRMC,083159.25,A,4543.87101,N,00450.09051,E,0.043,,040225,,,D*69

2025-02-04 09:31:59.466525 -- $GNVTG,,T,,M,0.043,N,0.079,K,D*31

2025-02-04 09:32:00.270453 -- $GNRMC,083200.05,A,4543.87092,N,00450.09047,E,0.038,,040225,,,D*64

2025-02-04 09:32:00.648162 -- $GNVTG,,T,,M,0.043,N,0.079,K,D*31

2025-02-04 09:32:00.851592 -- $GNRMC,083200.65,A,4543.87083,N,00450.09045,E,0.077,,040225,,,D*6B

2025-02-04 09:32:01.261295 -- $GNRMC,083201.05,A,4543.87077,N,00450.09044,E,0.084,,040225,,,D*6A

2025-02-04 09:32:01.261741 -- $GNVTG,,T,,M,0.084,N,0.156,K,D*36

2025-02-04 09:32:02.267624 -- $GNRMC,083202.05,A,4543.87068,N,00450.09038,E,0.025,,040225,,,D*67

2025-02-04 09:32:03.065576 -- $GNRMC,083202.85,A,4543.87062,N,00450.09032,E,0.035,,040225,,,D*6E

2025-02-04 09:32:03.478169 -- $GNRMC,083203.25,A,4543.87059,N,00450.09030,E,0.057,,040225,,,D*6B

2025-02-04 09:32:03.478487 -- $GNVTG,,T,,M,0.057,N,0.105,K,D*3E

2025-02-04 09:32:03.861661 -- $GNRMC,083203.65,A,4543.87055,N,00450.09027,E,0.056,,040225,,,D*64

2025-02-04 09:32:03.862105 -- $GNVTG,,T,,M,0.056,N,0.104,K,D*3E

2025-02-04 09:32:04.255970 -- $GNRMC,083204.05,A,4543.87051,N,00450.09025,E,0.051,,040225,,,D*64

2025-02-04 09:32:04.662753 -- $GNRMC,083204.45,A,4543.87047,N,00450.09023,E,0.083,,040225,,,D*6E

2025-02-04 09:32:05.464191 -- $GNRMC,083205.25,A,4543.87041,N,00450.09020,E,0.089,,040225,,,D*66

2025-02-04 09:32:06.049896 -- $GNRMC,083205.85,A,4543.87037,N,00450.09018,E,0.057,,040225,,,D*65

2025-02-04 09:32:06.050220 -- $GNVTG,,T,,M,0.057,N,0.106,K,D*3D

2025-02-04 09:32:06.467238 -- $GNRMC,083206.25,A,4543.87034,N,00450.09017,E,0.024,,040225,,,D*64

2025-02-04 09:32:07.051225 -- $GNRMC,083206.85,A,4543.87031,N,00450.09017,E,0.034,,040225,,,D*6A

2025-02-04 09:32:07.051547 -- $GNVTG,,T,,M,0.034,N,0.063,K,D*3A

2025-02-04 09:32:07.266913 -- $GNRMC,083207.05,A,4543.87030,N,00450.09017,E,0.039,,040225,,,D*6F

2025-02-04 09:32:08.063446 -- $GNRMC,083207.85,A,4543.87026,N,00450.09016,E,0.039,,040225,,,D*61

2025-02-04 09:32:08.463938 -- $GNRMC,083208.25,A,4543.87024,N,00450.09014,E,0.050,,040225,,,D*6B

2025-02-04 09:32:08.464382 -- $GNVTG,,T,,M,0.050,N,0.092,K,D*36

2025-02-04 09:32:08.862987 -- $GNRMC,083208.65,A,4543.87024,N,00450.09011,E,0.059,,040225,,,D*63

2025-02-04 09:32:09.268939 -- $GNRMC,083209.05,A,4543.87022,N,00450.09009,E,0.068,,040225,,,D*69

2025-02-04 09:32:09.269369 -- $GNVTG,,T,,M,0.068,N,0.126,K,D*33

2025-02-04 09:32:09.460808 -- $GNRMC,083209.25,A,4543.87022,N,00450.09008,E,0.015,,040225,,,D*60

2025-02-04 09:32:09.461315 -- $GNVTG,,T,,M,0.015,N,0.027,K,D*39

2025-02-04 09:32:09.654381 -- $GNRMC,083209.45,A,4543.87022,N,00450.09007,E,0.034,,040225,,,D*6A

2025-02-04 09:32:09.654819 -- $GNVTG,,T,,M,0.034,N,0.063,K,D*3A

2025-02-04 09:32:09.863993 -- $GNRMC,083209.65,A,4543.87022,N,00450.09006,E,0.031,,040225,,,D*6C

2025-02-04 09:32:09.864360 -- $GNVTG,,T,,M,0.031,N,0.057,K,D*38

2025-02-04 09:32:10.067763 -- $GNRMC,083209.85,A,4543.87022,N,00450.09006,E,0.088,,040225,,,D*60

2025-02-04 09:32:10.669941 -- $GNRMC,083210.45,A,4543.87019,N,00450.09004,E,0.068,,040225,,,D*60

2025-02-04 09:32:11.062364 -- $GNRMC,083210.85,A,4543.87018,N,00450.09003,E,0.023,,040225,,,D*65

2025-02-04 09:32:11.062697 -- $GNVTG,,T,,M,0.023,N,0.042,K,D*3F

2025-02-04 09:32:11.662108 -- $GNRMC,083211.45,A,4543.87015,N,00450.09004,E,0.052,,040225,,,D*64

2025-02-04 09:32:12.059072 -- $GNRMC,083211.85,A,4543.87015,N,00450.09010,E,0.100,,040225,,,D*6B

2025-02-04 09:32:12.276199 -- $GNRMC,083212.05,A,4543.87015,N,00450.09013,E,0.068,,040225,,,D*6C

2025-02-04 09:32:12.276671 -- $GNVTG,,T,,M,0.068,N,0.126,K,D*33

2025-02-04 09:32:13.066849 -- $GNRMC,083212.85,A,4543.87016,N,00450.09014,E,0.098,,040225,,,D*6F

2025-02-04 09:32:13.853837 -- $GNRMC,083213.65,A,4543.87018,N,00450.09011,E,0.039,,040225,,,D*60

2025-02-04 09:32:13.854400 -- $GNVTG,,T,,M,0.039,N,0.073,K,D*36

2025-02-04 09:32:14.063867 -- $GNRMC,083213.85,A,4543.87017,N,00450.09011,E,0.058,,040225,,,D*66

2025-02-04 09:32:14.268968 -- $GNRMC,083214.05,A,4543.87017,N,00450.09011,E,0.024,,040225,,,D*62

2025-02-04 09:32:14.269509 -- $GNVTG,,T,,M,0.024,N,0.045,K,D*3F

2025-02-04 09:32:14.463567 -- $GNRMC,083214.25,A,4543.87017,N,00450.09011,E,0.032,,040225,,,D*67

2025-02-04 09:32:14.675834 -- $GNRMC,083214.45,A,4543.87016,N,00450.09011,E,0.018,,040225,,,D*68

2025-02-04 09:32:15.053264 -- $GNRMC,083214.85,A,4543.87015,N,00450.09011,E,0.013,,040225,,,D*6C

2025-02-04 09:32:15.053592 -- $GNVTG,,T,,M,0.013,N,0.024,K,D*3C

2025-02-04 09:32:15.256271 -- $GNRMC,083215.05,A,4543.87015,N,00450.09011,E,0.051,,040225,,,D*63

2025-02-04 09:32:15.665926 -- $GNRMC,083215.45,A,4543.87014,N,00450.09012,E,0.053,,040225,,,D*67

2025-02-04 09:32:15.666315 -- $GNVTG,,T,,M,0.053,N,0.098,K,D*3F

2025-02-04 09:32:15.870175 -- $GNRMC,083215.65,A,4543.87014,N,00450.09012,E,0.046,,040225,,,D*61

2025-02-04 09:32:15.870483 -- $GNVTG,,T,,M,0.046,N,0.084,K,D*36

2025-02-04 09:32:16.070312 -- $GNRMC,083215.85,A,4543.87014,N,00450.09013,E,0.053,,040225,,,D*6A

2025-02-04 09:32:16.070667 -- $GNVTG,,T,,M,0.053,N,0.098,K,D*3F

2025-02-04 09:32:16.466107 -- $GNRMC,083216.25,A,4543.87013,N,00450.09013,E,0.125,,040225,,,D*64

2025-02-04 09:32:16.466424 -- $GNVTG,,T,,M,0.125,N,0.232,K,D*3D

2025-02-04 09:32:16.866039 -- $GNRMC,083216.65,A,4543.87013,N,00450.09013,E,0.022,,040225,,,D*66

2025-02-04 09:32:17.079207 -- $GNRMC,083216.85,A,4543.87013,N,00450.09014,E,0.047,,040225,,,D*6C

2025-02-04 09:32:17.459408 -- $GNRMC,083217.25,A,4543.87013,N,00450.09015,E,0.025,,040225,,,D*62

2025-02-04 09:32:17.459761 -- $GNVTG,,T,,M,0.025,N,0.046,K,D*3D

2025-02-04 09:32:18.053732 -- $GNVTG,,T,,M,0.063,N,0.117,K,D*3A

2025-02-04 09:32:18.290439 -- $GNRMC,083218.05,A,4543.87012,N,00450.09018,E,0.064,,040225,,,D*66

2025-02-04 09:32:18.291062 -- $GNVTG,,T,,M,0.064,N,0.119,K,D*33

2025-02-04 09:32:18.465009 -- $GNVTG,,T,,M,0.032,N,0.059,K,D*35

2025-02-04 09:32:19.066198 -- $GNRMC,083218.85,A,4543.87014,N,00450.09019,E,0.019,,040225,,,D*63

2025-02-04 09:32:19.066534 -- $GNVTG,,T,,M,0.019,N,0.036,K,D*35

2025-02-04 09:32:19.269209 -- $GNRMC,083219.05,A,4543.87014,N,00450.09020,E,0.057,,040225,,,D*6A

2025-02-04 09:32:19.269522 -- $GNVTG,,T,,M,0.057,N,0.105,K,D*3E

2025-02-04 09:32:19.663860 -- $GNRMC,083219.45,A,4543.87015,N,00450.09021,E,0.076,,040225,,,D*6D

2025-02-04 09:32:20.262178 -- $GNRMC,083220.05,A,4543.87016,N,00450.09022,E,0.031,,040225,,,D*60

2025-02-04 09:32:20.262494 -- $GNVTG,,T,,M,0.031,N,0.058,K,D*37

2025-02-04 09:32:20.452226 -- $GNRMC,083220.25,A,4543.87016,N,00450.09022,E,0.055,,040225,,,D*60

2025-02-04 09:32:20.452547 -- $GNVTG,,T,,M,0.055,N,0.102,K,D*3B

2025-02-04 09:32:20.652701 -- $GNRMC,083220.45,A,4543.87017,N,00450.09022,E,0.053,,040225,,,D*61

2025-02-04 09:32:21.054780 -- $GNRMC,083220.85,A,4543.87019,N,00450.09020,E,0.052,,040225,,,D*60

2025-02-04 09:32:21.259834 -- $GNRMC,083221.05,A,4543.87019,N,00450.09019,E,0.025,,040225,,,D*63

2025-02-04 09:32:21.457123 -- $GNRMC,083221.25,A,4543.87020,N,00450.09019,E,0.010,,040225,,,D*6D

2025-02-04 09:32:22.049218 -- $GNRMC,083221.85,A,4543.87022,N,00450.09017,E,0.071,,040225,,,D*6C

2025-02-04 09:32:22.049649 -- $GNVTG,,T,,M,0.071,N,0.132,K,D*3E

2025-02-04 09:32:22.448357 -- $GNRMC,083222.25,A,4543.87024,N,00450.09015,E,0.081,,040225,,,D*6E

2025-02-04 09:32:22.448746 -- $GNVTG,,T,,M,0.081,N,0.149,K,D*3D

2025-02-04 09:32:22.847653 -- $GNRMC,083222.65,A,4543.87029,N,00450.09013,E,0.069,,040225,,,D*67

2025-02-04 09:32:23.045875 -- $GNRMC,083222.85,A,4543.87031,N,00450.09012,E,0.011,,040225,,,D*6E

2025-02-04 09:32:23.447962 -- $GNRMC,083223.25,A,4543.87036,N,00450.09009,E,0.027,,040225,,,D*6D

2025-02-04 09:32:24.263075 -- $GNRMC,083224.05,A,4543.87043,N,00450.09007,E,0.019,,040225,,,D*69

2025-02-04 09:32:24.861126 -- $GNRMC,083224.65,A,4543.87049,N,00450.09006,E,0.036,,040225,,,D*69

2025-02-04 09:32:25.436396 -- $GNRMC,083225.25,A,4543.87054,N,00450.09005,E,0.043,,040225,,,D*61

2025-02-04 09:32:25.436890 -- $GNVTG,,T,,M,0.043,N,0.079,K,D*31

2025-02-04 09:32:25.636665 -- $GNRMC,083225.45,A,4543.87055,N,00450.09005,E,0.051,,040225,,,D*65

2025-02-04 09:32:26.041953 -- $GNRMC,083225.85,A,4543.87058,N,00450.09005,E,0.060,,040225,,,D*66

2025-02-04 09:32:26.042454 -- $GNVTG,,T,,M,0.060,N,0.110,K,D*3E

2025-02-04 09:32:26.450438 -- $GNRMC,083226.25,A,4543.87062,N,00450.09005,E,0.015,,040225,,,D*64

2025-02-04 09:32:26.450884 -- $GNVTG,,T,,M,0.015,N,0.027,K,D*39

2025-02-04 09:32:27.045703 -- $GNRMC,083226.85,A,4543.87067,N,00450.09002,E,0.009,,040225,,,D*61

2025-02-04 09:32:27.046195 -- $GNVTG,,T,,M,0.009,N,0.016,K,D*36

2025-02-04 09:32:27.248865 -- $GNRMC,083227.05,A,4543.87069,N,00450.09001,E,0.068,,040225,,,D*62

2025-02-04 09:32:27.249314 -- $GNVTG,,T,,M,0.068,N,0.126,K,D*33

2025-02-04 09:32:27.447023 -- $GNRMC,083227.25,A,4543.87070,N,00450.09000,E,0.042,,040225,,,D*61

2025-02-04 09:32:27.447384 -- $GNVTG,,T,,M,0.042,N,0.078,K,D*31

2025-02-04 09:32:27.633412 -- $GNRMC,083227.45,A,4543.87070,N,00450.09000,E,0.077,,040225,,,D*61

2025-02-04 09:32:27.837949 -- $GNRMC,083227.65,A,4543.87071,N,00450.09000,E,0.034,,040225,,,D*65

2025-02-04 09:32:28.047417 -- $GNRMC,083227.85,A,4543.87072,N,00450.08999,E,0.035,,040225,,,D*61

2025-02-04 09:32:28.435022 -- $GNRMC,083228.25,A,4543.87071,N,00450.08999,E,0.016,,040225,,,D*66

2025-02-04 09:32:28.435359 -- $GNVTG,,T,,M,0.016,N,0.029,K,D*34

2025-02-04 09:32:28.633312 -- $GNRMC,083228.45,A,4543.87070,N,00450.08999,E,0.043,,040225,,,D*61

2025-02-04 09:32:29.026867 -- $GNRMC,083228.85,A,4543.87069,N,00450.08998,E,0.043,,040225,,,D*64

2025-02-04 09:32:29.027319 -- $GNVTG,,T,,M,0.043,N,0.079,K,D*31

2025-02-04 09:32:29.844242 -- $GNRMC,083229.65,A,4543.87069,N,00450.08996,E,0.073,,040225,,,D*66

2025-02-04 09:32:30.037308 -- $GNRMC,083229.85,A,4543.87068,N,00450.08996,E,0.038,,040225,,,D*66

2025-02-04 09:32:30.259680 -- $GNRMC,083230.05,A,4543.87068,N,00450.08995,E,0.023,,040225,,,D*6F

2025-02-04 09:32:30.427744 -- $GNRMC,083230.25,A,4543.87067,N,00450.08995,E,0.040,,040225,,,D*67

2025-02-04 09:32:30.428096 -- $GNVTG,,T,,M,0.040,N,0.074,K,D*3F

2025-02-04 09:32:31.237120 -- $GNRMC,083231.05,A,4543.87065,N,00450.08992,E,0.025,,040225,,,D*62

2025-02-04 09:32:31.447189 -- $GNRMC,083231.25,A,4543.87065,N,00450.08991,E,0.042,,040225,,,D*62

2025-02-04 09:32:31.630412 -- $GNRMC,083231.45,A,4543.87065,N,00450.08990,E,0.100,,040225,,,D*62

2025-02-04 09:32:32.246813 -- $GNRMC,083232.05,A,4543.87064,N,00450.08987,E,0.117,,040225,,,D*64

2025-02-04 09:32:32.247184 -- $GNVTG,,T,,M,0.117,N,0.218,K,D*34

2025-02-04 09:32:32.441039 -- $GNRMC,083232.25,A,4543.87063,N,00450.08986,E,0.028,,040225,,,D*6D

2025-02-04 09:32:32.441467 -- $GNVTG,,T,,M,0.028,N,0.052,K,D*35

2025-02-04 09:32:32.839445 -- $GNRMC,083232.65,A,4543.87062,N,00450.08984,E,0.087,,040225,,,D*6F

2025-02-04 09:32:33.038521 -- $GNRMC,083232.85,A,4543.87061,N,00450.08983,E,0.045,,040225,,,D*6B

2025-02-04 09:32:33.232310 -- $GNRMC,083233.05,A,4543.87061,N,00450.08982,E,0.066,,040225,,,D*62

2025-02-04 09:32:33.418307 -- $GNRMC,083233.25,A,4543.87061,N,00450.08981,E,0.003,,040225,,,D*60

2025-02-04 09:32:33.418623 -- $GNVTG,,T,,M,0.003,N,0.006,K,D*3D

2025-02-04 09:32:34.417939 -- $GNRMC,083234.25,A,4543.87058,N,00450.08978,E,0.036,,040225,,,D*6D

2025-02-04 09:32:34.615484 -- $GNRMC,083234.45,A,4543.87058,N,00450.08977,E,0.036,,040225,,,D*64

2025-02-04 09:32:34.615810 -- $GNVTG,,T,,M,0.036,N,0.067,K,D*3C

2025-02-04 09:32:35.036066 -- $GNRMC,083234.85,A,4543.87056,N,00450.08974,E,0.035,,040225,,,D*66

2025-02-04 09:32:35.243892 -- $GNRMC,083235.05,A,4543.87056,N,00450.08974,E,0.008,,040225,,,D*61

2025-02-04 09:32:35.428115 -- $GNRMC,083235.25,A,4543.87055,N,00450.08973,E,0.010,,040225,,,D*6E

2025-02-04 09:32:35.823616 -- $GNRMC,083235.65,A,4543.87055,N,00450.08971,E,0.053,,040225,,,D*6F

2025-02-04 09:32:36.231474 -- $GNRMC,083236.05,A,4543.87054,N,00450.08969,E,0.026,,040225,,,D*60

2025-02-04 09:32:36.413356 -- $GNRMC,083236.25,A,4543.87053,N,00450.08968,E,0.088,,040225,,,D*60

2025-02-04 09:32:36.413787 -- $GNVTG,,T,,M,0.088,N,0.163,K,D*3C

2025-02-04 09:32:36.617062 -- $GNRMC,083236.45,A,4543.87052,N,00450.08966,E,0.022,,040225,,,D*69

2025-02-04 09:32:36.815645 -- $GNRMC,083236.65,A,4543.87051,N,00450.08965,E,0.055,,040225,,,D*6B

2025-02-04 09:32:37.012700 -- $GNRMC,083236.85,A,4543.87050,N,00450.08964,E,0.078,,040225,,,D*6A

2025-02-04 09:32:37.013024 -- $GNVTG,,T,,M,0.078,N,0.145,K,D*37

2025-02-04 09:32:37.218270 -- $GNRMC,083237.05,A,4543.87050,N,00450.08963,E,0.043,,040225,,,D*6C

2025-02-04 09:32:37.218590 -- $GNVTG,,T,,M,0.043,N,0.079,K,D*31

2025-02-04 09:32:37.423746 -- $GNRMC,083237.25,A,4543.87049,N,00450.08961,E,0.017,,040225,,,D*65

2025-02-04 09:32:37.424285 -- $GNVTG,,T,,M,0.017,N,0.031,K,D*3C

2025-02-04 09:32:37.632156 -- $GNRMC,083237.45,A,4543.87047,N,00450.08961,E,0.071,,040225,,,D*6D

2025-02-04 09:32:37.632472 -- $GNVTG,,T,,M,0.071,N,0.131,K,D*3D

2025-02-04 09:32:37.831676 -- $GNRMC,083237.65,A,4543.87046,N,00450.08959,E,0.058,,040225,,,D*6E

2025-02-04 09:32:37.832182 -- $GNVTG,,T,,M,0.058,N,0.108,K,D*3C

2025-02-04 09:32:38.232527 -- $GNRMC,083238.05,A,4543.87043,N,00450.08956,E,0.040,,040225,,,D*64

2025-02-04 09:32:38.433692 -- $GNRMC,083238.25,A,4543.87042,N,00450.08955,E,0.025,,040225,,,D*67

2025-02-04 09:32:39.032541 -- $GNRMC,083238.85,A,4543.87039,N,00450.08951,E,0.126,,040225,,,D*67

2025-02-04 09:32:39.999745 -- $GNRMC,083239.85,A,4543.87036,N,00450.08948,E,0.026,,040225,,,D*60

2025-02-04 09:32:40.000080 -- $GNVTG,,T,,M,0.026,N,0.047,K,D*3F

2025-02-04 09:32:40.231704 -- $GNRMC,083240.05,A,4543.87038,N,00450.08950,E,0.096,,040225,,,D*6A

2025-02-04 09:32:40.422806 -- $GNRMC,083240.25,A,4543.87040,N,00450.08952,E,0.044,,040225,,,D*6A

2025-02-04 09:32:40.621531 -- $GNRMC,083240.45,A,4543.87041,N,00450.08952,E,0.068,,040225,,,D*63

2025-02-04 09:32:41.409249 -- $GNRMC,083241.25,A,4543.87040,N,00450.08948,E,0.022,,040225,,,D*60

2025-02-04 09:32:41.825151 -- $GNRMC,083241.65,A,4543.87038,N,00450.08946,E,0.125,,040225,,,D*63

2025-02-04 09:32:42.022383 -- $GNRMC,083241.85,A,4543.87036,N,00450.08944,E,0.086,,040225,,,D*69

2025-02-04 09:32:42.418956 -- $GNRMC,083242.25,A,4543.87034,N,00450.08943,E,0.030,,040225,,,D*68

2025-02-04 09:32:42.419472 -- $GNVTG,,T,,M,0.030,N,0.055,K,D*3B

2025-02-04 09:32:42.608717 -- $GNRMC,083242.45,A,4543.87032,N,00450.08941,E,0.062,,040225,,,D*6D

2025-02-04 09:32:42.609140 -- $GNVTG,,T,,M,0.062,N,0.115,K,D*39

2025-02-04 09:32:42.805617 -- $GNRMC,083242.65,A,4543.87031,N,00450.08940,E,0.069,,040225,,,D*66

2025-02-04 09:32:43.024857 -- $GNRMC,083242.85,A,4543.87030,N,00450.08939,E,0.029,,040225,,,D*63

2025-02-04 09:32:43.025454 -- $GNVTG,,T,,M,0.029,N,0.055,K,D*33

2025-02-04 09:32:43.212226 -- $GNRMC,083243.05,A,4543.87029,N,00450.08938,E,0.093,,040225,,,D*62

2025-02-04 09:32:43.212558 -- $GNVTG,,T,,M,0.093,N,0.173,K,D*37

2025-02-04 09:32:43.416189 -- $GNRMC,083243.25,A,4543.87027,N,00450.08937,E,0.019,,040225,,,D*63

2025-02-04 09:32:43.416519 -- $GNVTG,,T,,M,0.019,N,0.036,K,D*35

2025-02-04 09:32:43.633272 -- $GNRMC,083243.45,A,4543.87027,N,00450.08935,E,0.046,,040225,,,D*6D

2025-02-04 09:32:43.633582 -- $GNVTG,,T,,M,0.046,N,0.085,K,D*37

2025-02-04 09:32:43.817817 -- $GNRMC,083243.65,A,4543.87026,N,00450.08934,E,0.034,,040225,,,D*6A

2025-02-04 09:32:43.818186 -- $GNVTG,,T,,M,0.034,N,0.063,K,D*3A

2025-02-04 09:32:44.216186 -- $GNRMC,083244.05,A,4543.87023,N,00450.08931,E,0.056,,040225,,,D*6F

2025-02-04 09:32:44.613566 -- $GNRMC,083244.45,A,4543.87022,N,00450.08928,E,0.091,,040225,,,D*69

2025-02-04 09:32:44.613945 -- $GNVTG,,T,,M,0.091,N,0.169,K,D*3E

2025-02-04 09:32:45.222291 -- $GNRMC,083245.05,A,4543.87021,N,00450.08924,E,0.087,,040225,,,D*64

2025-02-04 09:32:45.405983 -- $GNRMC,083245.25,A,4543.87020,N,00450.08923,E,0.041,,040225,,,D*6A

2025-02-04 09:32:45.606147 -- $GNRMC,083245.45,A,4543.87020,N,00450.08921,E,0.045,,040225,,,D*6A

2025-02-04 09:32:45.610419 -- $GNVTG,,T,,M,0.045,N,0.082,K,D*33

2025-02-04 09:32:45.831809 -- $GNRMC,083245.65,A,4543.87020,N,00450.08920,E,0.019,,040225,,,D*60

2025-02-04 09:32:46.420996 -- $GNRMC,083246.25,A,4543.87018,N,00450.08918,E,0.088,,040225,,,D*6F

2025-02-04 09:32:46.824546 -- $GNRMC,083246.65,A,4543.87018,N,00450.08916,E,0.049,,040225,,,D*68

2025-02-04 09:32:47.023274 -- $GNRMC,083246.85,A,4543.87018,N,00450.08915,E,0.020,,040225,,,D*6A

2025-02-04 09:32:47.423960 -- $GNRMC,083247.25,A,4543.87017,N,00450.08913,E,0.038,,040225,,,D*61

2025-02-04 09:32:47.619522 -- $GNRMC,083247.45,A,4543.87017,N,00450.08912,E,0.017,,040225,,,D*6B

2025-02-04 09:32:47.619953 -- $GNVTG,,T,,M,0.017,N,0.032,K,D*3F

2025-02-04 09:32:47.817757 -- $GNRMC,083247.65,A,4543.87018,N,00450.08911,E,0.016,,040225,,,D*64

2025-02-04 09:32:47.818367 -- $GNVTG,,T,,M,0.016,N,0.029,K,D*34

2025-02-04 09:32:48.028543 -- $GNRMC,083247.85,A,4543.87018,N,00450.08909,E,0.009,,040225,,,D*6D

2025-02-04 09:32:48.028880 -- $GNVTG,,T,,M,0.009,N,0.017,K,D*37

2025-02-04 09:32:48.224766 -- $GNRMC,083248.05,A,4543.87019,N,00450.08908,E,0.043,,040225,,,D*64

2025-02-04 09:32:48.225237 -- $GNVTG,,T,,M,0.043,N,0.079,K,D*31

2025-02-04 09:32:48.615091 -- $GNRMC,083248.45,A,4543.87019,N,00450.08906,E,0.035,,040225,,,D*6F

2025-02-04 09:32:49.215477 -- $GNRMC,083249.05,A,4543.87020,N,00450.08902,E,0.043,,040225,,,D*65

2025-02-04 09:32:49.620099 -- $GNRMC,083249.45,A,4543.87021,N,00450.08898,E,0.043,,040225,,,D*62

2025-02-04 09:32:49.804931 -- $GNRMC,083249.65,A,4543.87022,N,00450.08897,E,0.021,,040225,,,D*68

2025-02-04 09:32:49.805270 -- $GNVTG,,T,,M,0.021,N,0.039,K,D*31

2025-02-04 09:32:50.214111 -- $GNRMC,083250.05,A,4543.87026,N,00450.08896,E,0.023,,040225,,,D*61

2025-02-04 09:32:50.413945 -- $GNRMC,083250.25,A,4543.87027,N,00450.08895,E,0.029,,040225,,,D*6B

2025-02-04 09:32:50.807154 -- $GNRMC,083250.65,A,4543.87030,N,00450.08894,E,0.005,,040225,,,D*66

2025-02-04 09:32:51.411540 -- $GNRMC,083251.25,A,4543.87036,N,00450.08894,E,0.013,,040225,,,D*62

2025-02-04 09:32:52.404126 -- $GNRMC,083252.25,A,4543.87048,N,00450.08902,E,0.030,,040225,,,D*67

2025-02-04 09:32:52.606322 -- $GNRMC,083252.45,A,4543.87051,N,00450.08904,E,0.062,,040225,,,D*68

2025-02-04 09:32:53.010680 -- $GNRMC,083252.85,A,4543.87057,N,00450.08907,E,0.047,,040225,,,D*66

2025-02-04 09:32:53.011276 -- $GNVTG,,T,,M,0.047,N,0.088,K,D*3B

2025-02-04 09:32:53.615590 -- $GNRMC,083253.45,A,4543.87065,N,00450.08914,E,0.072,,040225,,,D*6E

2025-02-04 09:32:54.011706 -- $GNRMC,083253.85,A,4543.87070,N,00450.08920,E,0.054,,040225,,,D*65

2025-02-04 09:32:54.012240 -- $GNVTG,,T,,M,0.054,N,0.100,K,D*38

2025-02-04 09:32:54.235866 -- $GNRMC,083254.05,A,4543.87073,N,00450.08923,E,0.030,,040225,,,D*68

2025-02-04 09:32:54.236192 -- $GNVTG,,T,,M,0.030,N,0.055,K,D*3B

2025-02-04 09:32:54.406172 -- $GNRMC,083254.25,A,4543.87075,N,00450.08926,E,0.033,,040225,,,D*6A

2025-02-04 09:32:54.406546 -- $GNVTG,,T,,M,0.033,N,0.061,K,D*3F

2025-02-04 09:32:54.801390 -- $GNRMC,083254.65,A,4543.87081,N,00450.08931,E,0.073,,040225,,,D*67

2025-02-04 09:32:55.604501 -- $GNRMC,083255.45,A,4543.87092,N,00450.08938,E,0.108,,040225,,,D*62

2025-02-04 09:32:55.604946 -- $GNVTG,,T,,M,0.108,N,0.200,K,D*33

2025-02-04 09:32:56.004658 -- $GNRMC,083255.85,A,4543.87097,N,00450.08941,E,0.079,,040225,,,D*62

2025-02-04 09:32:56.215386 -- $GNRMC,083256.05,A,4543.87099,N,00450.08941,E,0.072,,040225,,,D*6C

2025-02-04 09:32:56.598424 -- $GNRMC,083256.45,A,4543.87103,N,00450.08943,E,0.061,,040225,,,D*6A

2025-02-04 09:32:57.007932 -- $GNRMC,083256.85,A,4543.87108,N,00450.08946,E,0.032,,040225,,,D*6E

2025-02-04 09:32:57.208384 -- $GNRMC,083257.05,A,4543.87110,N,00450.08947,E,0.058,,040225,,,D*63

2025-02-04 09:32:57.607167 -- $GNRMC,083257.45,A,4543.87115,N,00450.08950,E,0.005,,040225,,,D*6C

2025-02-04 09:32:57.607593 -- $GNVTG,,T,,M,0.005,N,0.010,K,D*3C

2025-02-04 09:32:57.811271 -- $GNRMC,083257.65,A,4543.87118,N,00450.08951,E,0.030,,040225,,,D*64

2025-02-04 09:32:58.216806 -- $GNRMC,083258.05,A,4543.87122,N,00450.08955,E,0.030,,040225,,,D*60

2025-02-04 09:32:58.217259 -- $GNVTG,,T,,M,0.030,N,0.056,K,D*38

2025-02-04 09:32:58.813513 -- $GNRMC,083258.65,A,4543.87128,N,00450.08958,E,0.048,,040225,,,D*6E

2025-02-04 09:32:58.814047 -- $GNVTG,,T,,M,0.048,N,0.089,K,D*35

