2025-04-14 11:59:54.570667 -- $GNRMC,095953.35,A,4541.56260,N,00457.33562,E,2.729,274.02,140425,,,D*7F

2025-04-14 11:59:54.570961 -- $GNVTG,274.02,T,,M,2.729,N,5.054,K,D*2F

2025-04-14 11:59:54.573754 -- $GNRMC,095953.55,A,4541.56263,N,00457.33542,E,2.658,279.18,140425,,,D*79

2025-04-14 11:59:54.578663 -- $GNRMC,095953.95,A,4541.56266,N,00457.33504,E,2.218,275.28,140425,,,D*7D

2025-04-14 11:59:54.581707 -- $GNRMC,095954.15,A,4541.56266,N,00457.33488,E,1.877,274.11,140425,,,D*7C

2025-04-14 11:59:54.705541 -- $GNRMC,095954.35,A,4541.56267,N,00457.33473,E,1.813,273.88,140425,,,D*7E

2025-04-14 11:59:54.894330 -- $GNRMC,095954.55,A,4541.56267,N,00457.33459,E,1.607,272.34,140425,,,D*7D

2025-04-14 11:59:54.894520 -- $GNVTG,272.34,T,,M,1.607,N,2.977,K,D*2D

2025-04-14 11:59:55.102826 -- $GNRMC,095954.75,A,4541.56268,N,00457.33446,E,1.661,276.54,140425,,,D*7C

2025-04-14 11:59:55.537917 -- $GNRMC,095955.15,A,4541.56269,N,00457.33428,E,0.591,263.77,140425,,,D*7A

2025-04-14 11:59:55.538112 -- $GNVTG,263.77,T,,M,0.591,N,1.095,K,D*21

2025-04-14 11:59:55.915503 -- $GNRMC,095955.55,A,4541.56270,N,00457.33424,E,0.098,,140425,,,D*6F

2025-04-14 11:59:55.915842 -- $GNVTG,,T,,M,0.098,N,0.182,K,D*32

2025-04-14 11:59:56.112393 -- $GNRMC,095955.75,A,4541.56271,N,00457.33425,E,0.100,,140425,,,D*6D

2025-04-14 11:59:56.300340 -- $GNRMC,095955.95,A,4541.56272,N,00457.33424,E,0.069,,140425,,,D*6F

2025-04-14 11:59:56.300709 -- $GNVTG,,T,,M,0.069,N,0.128,K,D*3C

2025-04-14 11:59:56.712876 -- $GNRMC,095956.35,A,4541.56273,N,00457.33424,E,0.103,,140425,,,D*6A

2025-04-14 11:59:56.910953 -- $GNRMC,095956.55,A,4541.56274,N,00457.33423,E,0.062,,140425,,,D*6A

2025-04-14 11:59:56.911178 -- $GNVTG,,T,,M,0.062,N,0.116,K,D*3A

2025-04-14 11:59:57.108600 -- $GNRMC,095956.75,A,4541.56274,N,00457.33422,E,0.021,,140425,,,D*6E

2025-04-14 11:59:57.312386 -- $GNRMC,095956.95,A,4541.56275,N,00457.33422,E,0.016,,140425,,,D*65

2025-04-14 11:59:57.312591 -- $GNVTG,,T,,M,0.016,N,0.029,K,D*34

2025-04-14 11:59:57.519762 -- $GNRMC,095957.15,A,4541.56275,N,00457.33421,E,0.065,,140425,,,D*6B

2025-04-14 11:59:57.519918 -- $GNVTG,,T,,M,0.065,N,0.120,K,D*38

2025-04-14 11:59:57.694986 -- $GNRMC,095957.35,A,4541.56276,N,00457.33420,E,0.028,,140425,,,D*62

2025-04-14 11:59:57.695152 -- $GNVTG,,T,,M,0.028,N,0.053,K,D*34

2025-04-14 11:59:57.907695 -- $GNRMC,095957.55,A,4541.56277,N,00457.33418,E,0.033,,140425,,,D*64

2025-04-14 11:59:57.908070 -- $GNVTG,,T,,M,0.033,N,0.062,K,D*3C

2025-04-14 11:59:58.108152 -- $GNRMC,095957.75,A,4541.56278,N,00457.33417,E,0.061,,140425,,,D*61

2025-04-14 11:59:58.108326 -- $GNVTG,,T,,M,0.061,N,0.112,K,D*3D

2025-04-14 11:59:58.310972 -- $GNRMC,095957.95,A,4541.56279,N,00457.33415,E,0.066,,140425,,,D*6B

2025-04-14 11:59:58.311145 -- $GNVTG,,T,,M,0.066,N,0.123,K,D*38

2025-04-14 11:59:58.536169 -- $GNRMC,095958.15,A,4541.56279,N,00457.33413,E,0.024,,140425,,,D*6C

2025-04-14 11:59:58.536374 -- $GNVTG,,T,,M,0.024,N,0.044,K,D*3E

2025-04-14 11:59:58.712193 -- $GNRMC,095958.35,A,4541.56280,N,00457.33412,E,0.018,,140425,,,D*66

2025-04-14 11:59:59.309878 -- $GNRMC,095958.95,A,4541.56284,N,00457.33409,E,0.048,,140425,,,D*67

2025-04-14 11:59:59.310071 -- $GNVTG,,T,,M,0.048,N,0.088,K,D*34

2025-04-14 11:59:59.531012 -- $GNRMC,095959.15,A,4541.56286,N,00457.33407,E,0.061,,140425,,,D*69

2025-04-14 11:59:59.715827 -- $GNRMC,095959.35,A,4541.56288,N,00457.33405,E,0.081,,140425,,,D*69

2025-04-14 12:00:00.108137 -- $GNRMC,095959.75,A,4541.56291,N,00457.33403,E,0.014,,140425,,,D*6F

2025-04-14 12:00:00.108290 -- $GNVTG,,T,,M,0.014,N,0.026,K,D*39

2025-04-14 12:00:00.319001 -- $GNRMC,095959.95,A,4541.56293,N,00457.33402,E,0.048,,140425,,,D*6B

2025-04-14 12:00:00.319154 -- $GNVTG,,T,,M,0.048,N,0.088,K,D*34

2025-04-14 12:00:00.552476 -- $GNRMC,100000.15,A,4541.56294,N,00457.33401,E,0.043,,140425,,,D*64

2025-04-14 12:00:00.552650 -- $GNVTG,,T,,M,0.043,N,0.080,K,D*37

2025-04-14 12:00:00.806524 -- $GNRMC,100000.45,A,4541.56296,N,00457.33399,E,0.110,,140425,,,D*62

2025-04-14 12:00:00.806736 -- $GNVTG,,T,,M,0.110,N,0.203,K,D*39

2025-04-14 12:00:01.007178 -- $GNRMC,100000.65,A,4541.56297,N,00457.33397,E,0.047,,140425,,,D*6C

2025-04-14 12:00:01.209181 -- $GNRMC,100000.85,A,4541.56298,N,00457.33396,E,0.079,,140425,,,D*61

2025-04-14 12:00:01.209330 -- $GNVTG,,T,,M,0.079,N,0.146,K,D*35

2025-04-14 12:00:01.425324 -- $GNRMC,100001.05,A,4541.56300,N,00457.33395,E,0.060,,140425,,,D*63

2025-04-14 12:00:01.425533 -- $GNVTG,,T,,M,0.060,N,0.111,K,D*3F

2025-04-14 12:00:01.614037 -- $GNRMC,100001.25,A,4541.56301,N,00457.33394,E,0.019,,140425,,,D*6F

2025-04-14 12:00:02.007694 -- $GNRMC,100001.65,A,4541.56304,N,00457.33394,E,0.022,,140425,,,D*66

2025-04-14 12:00:02.007884 -- $GNVTG,,T,,M,0.022,N,0.040,K,D*3C

2025-04-14 12:00:02.620692 -- $GNRMC,100002.25,A,4541.56307,N,00457.33392,E,0.025,,140425,,,D*63

2025-04-14 12:00:02.812393 -- $GNRMC,100002.45,A,4541.56309,N,00457.33391,E,0.040,,140425,,,D*6B

2025-04-14 12:00:02.812620 -- $GNVTG,,T,,M,0.040,N,0.073,K,D*38

2025-04-14 12:00:03.200045 -- $GNRMC,100002.85,A,4541.56311,N,00457.33389,E,0.054,,140425,,,D*62

2025-04-14 12:00:03.200198 -- $GNVTG,,T,,M,0.054,N,0.100,K,D*38

2025-04-14 12:00:03.429780 -- $GNRMC,100003.05,A,4541.56312,N,00457.33389,E,0.029,,140425,,,D*62

2025-04-14 12:00:04.007348 -- $GNRMC,100003.65,A,4541.56314,N,00457.33388,E,0.030,,140425,,,D*6B

2025-04-14 12:00:04.007540 -- $GNVTG,,T,,M,0.030,N,0.055,K,D*3B

2025-04-14 12:00:04.804382 -- $GNRMC,100004.45,A,4541.56318,N,00457.33386,E,0.082,,140425,,,D*65

2025-04-14 12:00:04.804769 -- $GNVTG,,T,,M,0.082,N,0.152,K,D*34

2025-04-14 12:00:04.998130 -- $GNRMC,100004.65,A,4541.56319,N,00457.33385,E,0.011,,140425,,,D*6F

2025-04-14 12:00:04.998278 -- $GNVTG,,T,,M,0.011,N,0.021,K,D*3B

2025-04-14 12:00:05.205196 -- $GNRMC,100004.85,A,4541.56320,N,00457.33385,E,0.022,,140425,,,D*6B

2025-04-14 12:00:05.205919 -- $GNVTG,,T,,M,0.022,N,0.041,K,D*3D

2025-04-14 12:00:05.425050 -- $GNRMC,100005.05,A,4541.56320,N,00457.33385,E,0.024,,140425,,,D*64

2025-04-14 12:00:05.425897 -- $GNVTG,,T,,M,0.024,N,0.045,K,D*3F

2025-04-14 12:00:05.611264 -- $GNRMC,100005.25,A,4541.56320,N,00457.33385,E,0.062,,140425,,,D*64

2025-04-14 12:00:05.801308 -- $GNRMC,100005.45,A,4541.56320,N,00457.33385,E,0.059,,140425,,,D*6A

2025-04-14 12:00:05.995934 -- $GNRMC,100005.65,A,4541.56320,N,00457.33384,E,0.125,,140425,,,D*63

2025-04-14 12:00:05.996076 -- $GNVTG,,T,,M,0.125,N,0.231,K,D*3E

2025-04-14 12:00:06.449831 -- $GNRMC,100006.05,A,4541.56320,N,00457.33384,E,0.021,,140425,,,D*63

2025-04-14 12:00:06.449978 -- $GNVTG,,T,,M,0.021,N,0.039,K,D*31

2025-04-14 12:00:06.715604 -- $GNRMC,100006.35,A,4541.56319,N,00457.33384,E,0.034,,140425,,,D*6E

2025-04-14 12:00:06.715939 -- $GNVTG,,T,,M,0.034,N,0.064,K,D*3D

2025-04-14 12:00:06.901798 -- $GNRMC,100006.55,A,4541.56319,N,00457.33385,E,0.040,,140425,,,D*6A

2025-04-14 12:00:06.902012 -- $GNVTG,,T,,M,0.040,N,0.074,K,D*3F

2025-04-14 12:00:07.104091 -- $GNRMC,100006.75,A,4541.56319,N,00457.33385,E,0.042,,140425,,,D*6A

2025-04-14 12:00:07.105044 -- $GNVTG,,T,,M,0.042,N,0.079,K,D*30

2025-04-14 12:00:07.297420 -- $GNRMC,100006.95,A,4541.56318,N,00457.33386,E,0.009,,140425,,,D*69

2025-04-14 12:00:07.699124 -- $GNRMC,100007.35,A,4541.56318,N,00457.33387,E,0.037,,140425,,,D*6E

2025-04-14 12:00:07.699412 -- $GNVTG,,T,,M,0.037,N,0.068,K,D*32

2025-04-14 12:00:07.899617 -- $GNRMC,100007.55,A,4541.56318,N,00457.33388,E,0.056,,140425,,,D*60

2025-04-14 12:00:08.097001 -- $GNRMC,100007.75,A,4541.56318,N,00457.33388,E,0.049,,140425,,,D*6C

2025-04-14 12:00:08.097149 -- $GNVTG,,T,,M,0.049,N,0.090,K,D*3C

2025-04-14 12:00:08.303893 -- $GNRMC,100007.95,A,4541.56317,N,00457.33389,E,0.059,,140425,,,D*6D

2025-04-14 12:00:08.306175 -- $GNVTG,,T,,M,0.059,N,0.109,K,D*3C

2025-04-14 12:00:08.522926 -- $GNRMC,100008.15,A,4541.56317,N,00457.33390,E,0.026,,140425,,,D*6A

2025-04-14 12:00:09.113507 -- $GNRMC,100008.75,A,4541.56315,N,00457.33393,E,0.017,,140425,,,D*6F

2025-04-14 12:00:09.113665 -- $GNVTG,,T,,M,0.017,N,0.031,K,D*3C

2025-04-14 12:00:09.894962 -- $GNRMC,100009.55,A,4541.56314,N,00457.33398,E,0.083,,140425,,,D*6B

2025-04-14 12:00:09.895165 -- $GNVTG,,T,,M,0.083,N,0.153,K,D*34

2025-04-14 12:00:10.091869 -- $GNRMC,100009.75,A,4541.56314,N,00457.33399,E,0.031,,140425,,,D*61

2025-04-14 12:00:10.092020 -- $GNVTG,,T,,M,0.031,N,0.057,K,D*38

2025-04-14 12:00:10.300788 -- $GNRMC,100009.95,A,4541.56313,N,00457.33400,E,0.034,,140425,,,D*6A

2025-04-14 12:00:10.300935 -- $GNVTG,,T,,M,0.034,N,0.064,K,D*3D

2025-04-14 12:00:10.534185 -- $GNRMC,100010.15,A,4541.56313,N,00457.33400,E,0.033,,140425,,,D*6D

2025-04-14 12:00:10.534323 -- $GNVTG,,T,,M,0.033,N,0.060,K,D*3E

2025-04-14 12:00:10.898614 -- $GNRMC,100010.55,A,4541.56312,N,00457.33402,E,0.024,,140425,,,D*6C

2025-04-14 12:00:11.096874 -- $GNRMC,100010.75,A,4541.56312,N,00457.33403,E,0.044,,140425,,,D*69

2025-04-14 12:00:11.097019 -- $GNVTG,,T,,M,0.044,N,0.081,K,D*31

2025-04-14 12:00:11.295828 -- $GNRMC,100010.95,A,4541.56311,N,00457.33403,E,0.041,,140425,,,D*61

2025-04-14 12:00:11.295976 -- $GNVTG,,T,,M,0.041,N,0.076,K,D*3C

2025-04-14 12:00:11.521404 -- $GNRMC,100011.15,A,4541.56311,N,00457.33404,E,0.027,,140425,,,D*6F

2025-04-14 12:00:11.521940 -- $GNVTG,,T,,M,0.027,N,0.051,K,D*39

2025-04-14 12:00:11.699472 -- $GNRMC,100011.35,A,4541.56311,N,00457.33405,E,0.047,,140425,,,D*6A

2025-04-14 12:00:11.903473 -- $GNRMC,100011.55,A,4541.56311,N,00457.33407,E,0.085,,140425,,,D*60

2025-04-14 12:00:11.903719 -- $GNVTG,,T,,M,0.085,N,0.158,K,D*39

2025-04-14 12:00:12.106195 -- $GNRMC,100011.75,A,4541.56311,N,00457.33408,E,0.058,,140425,,,D*6D

2025-04-14 12:00:12.106638 -- $GNVTG,,T,,M,0.058,N,0.107,K,D*33

2025-04-14 12:00:12.321256 -- $GNRMC,100011.95,A,4541.56311,N,00457.33408,E,0.029,,140425,,,D*65

2025-04-14 12:00:12.522027 -- $GNRMC,100012.15,A,4541.56311,N,00457.33409,E,0.033,,140425,,,D*64

2025-04-14 12:00:12.522661 -- $GNVTG,,T,,M,0.033,N,0.061,K,D*3F

2025-04-14 12:00:12.920080 -- $GNRMC,100012.55,A,4541.56311,N,00457.33411,E,0.018,,140425,,,D*60

2025-04-14 12:00:13.304931 -- $GNRMC,100012.95,A,4541.56311,N,00457.33414,E,0.039,,140425,,,D*6A

2025-04-14 12:00:13.305244 -- $GNVTG,,T,,M,0.039,N,0.073,K,D*36

2025-04-14 12:00:13.524851 -- $GNRMC,100013.15,A,4541.56311,N,00457.33415,E,0.049,,140425,,,D*65

2025-04-14 12:00:13.697180 -- $GNRMC,100013.35,A,4541.56312,N,00457.33417,E,0.067,,140425,,,D*6A

2025-04-14 12:00:13.697646 -- $GNVTG,,T,,M,0.067,N,0.124,K,D*3E

2025-04-14 12:00:13.893814 -- $GNRMC,100013.55,A,4541.56312,N,00457.33418,E,0.025,,140425,,,D*65

2025-04-14 12:00:14.083263 -- $GNRMC,100013.75,A,4541.56312,N,00457.33420,E,0.036,,140425,,,D*6E

2025-04-14 12:00:14.083584 -- $GNVTG,,T,,M,0.036,N,0.066,K,D*3D

2025-04-14 12:00:14.279836 -- $GNRMC,100013.95,A,4541.56312,N,00457.33421,E,0.047,,140425,,,D*67

2025-04-14 12:00:14.280007 -- $GNVTG,,T,,M,0.047,N,0.088,K,D*3B

2025-04-14 12:00:14.499118 -- $GNRMC,100014.15,A,4541.56312,N,00457.33422,E,0.018,,140425,,,D*61

2025-04-14 12:00:14.499430 -- $GNVTG,,T,,M,0.018,N,0.034,K,D*36

2025-04-14 12:00:14.672044 -- $GNRMC,100014.35,A,4541.56313,N,00457.33424,E,0.050,,140425,,,D*68

2025-04-14 12:00:14.672184 -- $GNVTG,,T,,M,0.050,N,0.092,K,D*36

2025-04-14 12:00:15.065207 -- $GNRMC,100014.75,A,4541.56313,N,00457.33427,E,0.044,,140425,,,D*6A

2025-04-14 12:00:15.065433 -- $GNVTG,,T,,M,0.044,N,0.082,K,D*32

2025-04-14 12:00:15.271561 -- $GNRMC,100014.95,A,4541.56314,N,00457.33429,E,0.006,,140425,,,D*6B

2025-04-14 12:00:15.271735 -- $GNVTG,,T,,M,0.006,N,0.012,K,D*3D

2025-04-14 12:00:16.250664 -- $GNRMC,100015.95,A,4541.56314,N,00457.33438,E,0.030,,140425,,,D*6F

2025-04-14 12:00:16.743452 -- $GNRMC,100016.45,A,4541.56315,N,00457.33442,E,0.053,,140425,,,D*68

2025-04-14 12:00:16.743631 -- $GNVTG,,T,,M,0.053,N,0.098,K,D*3F

2025-04-14 12:00:17.135041 -- $GNRMC,100016.85,A,4541.56316,N,00457.33445,E,0.043,,140425,,,D*61

2025-04-14 12:00:17.135209 -- $GNVTG,,T,,M,0.043,N,0.080,K,D*37

2025-04-14 12:00:17.728888 -- $GNRMC,100017.45,A,4541.56317,N,00457.33451,E,0.077,,140425,,,D*6F

2025-04-14 12:00:17.729191 -- $GNVTG,,T,,M,0.077,N,0.143,K,D*3E

2025-04-14 12:00:17.925135 -- $GNRMC,100017.65,A,4541.56317,N,00457.33453,E,0.056,,140425,,,D*6C

2025-04-14 12:00:18.119363 -- $GNRMC,100017.85,A,4541.56317,N,00457.33454,E,0.039,,140425,,,D*6C

2025-04-14 12:00:18.119757 -- $GNVTG,,T,,M,0.039,N,0.071,K,D*34

2025-04-14 12:00:18.356926 -- $GNRMC,100018.05,A,4541.56317,N,00457.33456,E,0.025,,140425,,,D*64

2025-04-14 12:00:18.357177 -- $GNVTG,,T,,M,0.025,N,0.046,K,D*3D

2025-04-14 12:00:18.637912 -- $GNRMC,100018.35,A,4541.56317,N,00457.33458,E,0.010,,140425,,,D*6F

2025-04-14 12:00:18.638117 -- $GNVTG,,T,,M,0.010,N,0.019,K,D*31

2025-04-14 12:00:18.807994 -- $GNRMC,100018.55,A,4541.56317,N,00457.33459,E,0.036,,140425,,,D*6C

2025-04-14 12:00:19.009466 -- $GNRMC,100018.75,A,4541.56317,N,00457.33461,E,0.063,,140425,,,D*65

2025-04-14 12:00:19.211387 -- $GNRMC,100018.95,A,4541.56317,N,00457.33463,E,0.020,,140425,,,D*6E

2025-04-14 12:00:19.423912 -- $GNRMC,100019.15,A,4541.56317,N,00457.33464,E,0.075,,140425,,,D*60

2025-04-14 12:00:19.424090 -- $GNVTG,,T,,M,0.075,N,0.139,K,D*31

2025-04-14 12:00:19.592880 -- $GNRMC,100019.35,A,4541.56317,N,00457.33466,E,0.088,,140425,,,D*62

2025-04-14 12:00:19.593344 -- $GNVTG,,T,,M,0.088,N,0.163,K,D*3C

2025-04-14 12:00:19.805948 -- $GNRMC,100019.55,A,4541.56316,N,00457.33468,E,0.056,,140425,,,D*68

2025-04-14 12:00:19.999547 -- $GNRMC,100019.75,A,4541.56316,N,00457.33469,E,0.016,,140425,,,D*6F

2025-04-14 12:00:19.999894 -- $GNVTG,,T,,M,0.016,N,0.029,K,D*34

2025-04-14 12:00:20.206287 -- $GNRMC,100019.95,A,4541.56316,N,00457.33471,E,0.029,,140425,,,D*64

2025-04-14 12:00:20.437066 -- $GNRMC,100020.15,A,4541.56316,N,00457.33473,E,0.031,,140425,,,D*6D

2025-04-14 12:00:20.909043 -- $GNRMC,100020.65,A,4541.56316,N,00457.33476,E,0.051,,140425,,,D*69

2025-04-14 12:00:20.909323 -- $GNVTG,,T,,M,0.051,N,0.094,K,D*31

2025-04-14 12:00:21.125029 -- $GNRMC,100020.85,A,4541.56315,N,00457.33478,E,0.039,,140425,,,D*64

2025-04-14 12:00:21.438908 -- $GNRMC,100021.15,A,4541.56315,N,00457.33479,E,0.008,,140425,,,D*6F

2025-04-14 12:00:21.439365 -- $GNVTG,,T,,M,0.008,N,0.014,K,D*35

2025-04-14 12:00:21.701029 -- $GNRMC,100021.45,A,4541.56315,N,00457.33481,E,0.067,,140425,,,D*64

2025-04-14 12:00:21.701241 -- $GNVTG,,T,,M,0.067,N,0.125,K,D*3F

2025-04-14 12:00:21.891105 -- $GNRMC,100021.65,A,4541.56314,N,00457.33483,E,0.045,,140425,,,D*65

2025-04-14 12:00:21.891306 -- $GNVTG,,T,,M,0.045,N,0.083,K,D*32

2025-04-14 12:00:22.323257 -- $GNRMC,100022.05,A,4541.56312,N,00457.33486,E,0.053,,140425,,,D*64

2025-04-14 12:00:22.323457 -- $GNVTG,,T,,M,0.053,N,0.098,K,D*3F

2025-04-14 12:00:22.602315 -- $GNRMC,100022.35,A,4541.56311,N,00457.33487,E,0.068,,140425,,,D*6D

2025-04-14 12:00:22.602500 -- $GNVTG,,T,,M,0.068,N,0.126,K,D*33

2025-04-14 12:00:22.789792 -- $GNRMC,100022.55,A,4541.56310,N,00457.33489,E,0.038,,140425,,,D*61

2025-04-14 12:00:22.790001 -- $GNVTG,,T,,M,0.038,N,0.071,K,D*35

2025-04-14 12:00:23.016968 -- $GNRMC,100022.75,A,4541.56310,N,00457.33491,E,0.061,,140425,,,D*66

2025-04-14 12:00:23.017211 -- $GNVTG,,T,,M,0.061,N,0.112,K,D*3D

2025-04-14 12:00:23.307741 -- $GNRMC,100023.05,A,4541.56309,N,00457.33492,E,0.078,,140425,,,D*63

2025-04-14 12:00:23.308005 -- $GNVTG,,T,,M,0.078,N,0.145,K,D*37

2025-04-14 12:00:24.393291 -- $GNRMC,100024.15,A,4541.56306,N,00457.33500,E,0.030,,140425,,,D*6C

2025-04-14 12:00:24.393813 -- $GNVTG,,T,,M,0.030,N,0.056,K,D*38

2025-04-14 12:00:24.579373 -- $GNRMC,100024.35,A,4541.56306,N,00457.33500,E,0.053,,140425,,,D*6B

2025-04-14 12:00:24.777106 -- $GNRMC,100024.55,A,4541.56305,N,00457.33501,E,0.051,,140425,,,D*6D

2025-04-14 12:00:24.777311 -- $GNVTG,,T,,M,0.051,N,0.095,K,D*30

2025-04-14 12:00:25.171470 -- $GNRMC,100024.95,A,4541.56303,N,00457.33501,E,0.024,,140425,,,D*65

2025-04-14 12:00:25.171808 -- $GNVTG,,T,,M,0.024,N,0.044,K,D*3E

2025-04-14 12:00:25.383777 -- $GNRMC,100025.15,A,4541.56302,N,00457.33501,E,0.042,,140425,,,D*6D

2025-04-14 12:00:25.384204 -- $GNVTG,,T,,M,0.042,N,0.078,K,D*31

2025-04-14 12:00:25.752740 -- $GNRMC,100025.55,A,4541.56300,N,00457.33502,E,0.016,,140425,,,D*69

2025-04-14 12:00:25.753318 -- $GNVTG,,T,,M,0.016,N,0.030,K,D*3C

2025-04-14 12:00:25.958143 -- $GNRMC,100025.75,A,4541.56299,N,00457.33502,E,0.069,,140425,,,D*62

2025-04-14 12:00:26.160546 -- $GNRMC,100025.95,A,4541.56298,N,00457.33503,E,0.010,,140425,,,D*62

2025-04-14 12:00:26.160955 -- $GNVTG,,T,,M,0.010,N,0.018,K,D*30

2025-04-14 12:00:26.759502 -- $GNRMC,100026.55,A,4541.56296,N,00457.33505,E,0.064,,140425,,,D*66

2025-04-14 12:00:26.759886 -- $GNVTG,,T,,M,0.064,N,0.119,K,D*33

2025-04-14 12:00:27.371481 -- $GNRMC,100027.15,A,4541.56293,N,00457.33507,E,0.038,,140425,,,D*6D

2025-04-14 12:00:27.371803 -- $GNVTG,,T,,M,0.038,N,0.069,K,D*3C

2025-04-14 12:00:27.550247 -- $GNRMC,100027.35,A,4541.56292,N,00457.33508,E,0.012,,140425,,,D*69

2025-04-14 12:00:27.550504 -- $GNVTG,,T,,M,0.012,N,0.023,K,D*3A

2025-04-14 12:00:27.755918 -- $GNRMC,100027.55,A,4541.56291,N,00457.33508,E,0.056,,140425,,,D*6C

2025-04-14 12:00:27.953638 -- $GNRMC,100027.75,A,4541.56290,N,00457.33508,E,0.025,,140425,,,D*6B

2025-04-14 12:00:27.954154 -- $GNVTG,,T,,M,0.025,N,0.047,K,D*3C

2025-04-14 12:00:28.949255 -- $GNRMC,100028.75,A,4541.56286,N,00457.33509,E,0.028,,140425,,,D*6F

2025-04-14 12:00:28.949634 -- $GNVTG,,T,,M,0.028,N,0.051,K,D*36

2025-04-14 12:00:29.160060 -- $GNRMC,100028.95,A,4541.56284,N,00457.33509,E,0.072,,140425,,,D*6C

2025-04-14 12:00:29.367804 -- $GNRMC,100029.15,A,4541.56284,N,00457.33510,E,0.038,,140425,,,D*63

2025-04-14 12:00:29.368070 -- $GNVTG,,T,,M,0.038,N,0.071,K,D*35

2025-04-14 12:00:29.552434 -- $GNRMC,100029.35,A,4541.56283,N,00457.33510,E,0.029,,140425,,,D*66

2025-04-14 12:00:29.737697 -- $GNRMC,100029.55,A,4541.56283,N,00457.33510,E,0.071,,140425,,,D*6D

2025-04-14 12:00:29.737936 -- $GNVTG,,T,,M,0.071,N,0.131,K,D*3D

2025-04-14 12:00:29.937795 -- $GNRMC,100029.75,A,4541.56282,N,00457.33510,E,0.047,,140425,,,D*6B

2025-04-14 12:00:29.938050 -- $GNVTG,,T,,M,0.047,N,0.086,K,D*35

2025-04-14 12:00:30.362933 -- $GNRMC,100030.15,A,4541.56281,N,00457.33511,E,0.043,,140425,,,D*63

2025-04-14 12:00:30.367361 -- $GNVTG,,T,,M,0.043,N,0.080,K,D*37

2025-04-14 12:00:30.544366 -- $GNRMC,100030.35,A,4541.56280,N,00457.33511,E,0.024,,140425,,,D*61

2025-04-14 12:00:30.740726 -- $GNRMC,100030.55,A,4541.56279,N,00457.33511,E,0.027,,140425,,,D*62

2025-04-14 12:00:30.740944 -- $GNVTG,,T,,M,0.027,N,0.050,K,D*38

2025-04-14 12:00:31.135904 -- $GNRMC,100030.95,A,4541.56278,N,00457.33510,E,0.060,,140425,,,D*6D

2025-04-14 12:00:31.136223 -- $GNVTG,,T,,M,0.060,N,0.111,K,D*3F

2025-04-14 12:00:31.358311 -- $GNRMC,100031.15,A,4541.56278,N,00457.33510,E,0.054,,140425,,,D*63

2025-04-14 12:00:31.358493 -- $GNVTG,,T,,M,0.054,N,0.100,K,D*38

2025-04-14 12:00:31.738285 -- $GNRMC,100031.55,A,4541.56277,N,00457.33509,E,0.022,,140425,,,D*61

2025-04-14 12:00:32.127702 -- $GNRMC,100031.95,A,4541.56276,N,00457.33508,E,0.089,,140425,,,D*6C

2025-04-14 12:00:32.351337 -- $GNRMC,100032.15,A,4541.56276,N,00457.33508,E,0.036,,140425,,,D*63

2025-04-14 12:00:32.351575 -- $GNVTG,,T,,M,0.036,N,0.066,K,D*3D

2025-04-14 12:00:32.531989 -- $GNRMC,100032.35,A,4541.56275,N,00457.33507,E,0.036,,140425,,,D*6D

2025-04-14 12:00:32.532345 -- $GNVTG,,T,,M,0.036,N,0.067,K,D*3C

2025-04-14 12:00:34.134541 -- $GNRMC,100033.95,A,4541.56272,N,00457.33502,E,0.022,,140425,,,D*61

2025-04-14 12:00:34.134832 -- $GNVTG,,T,,M,0.022,N,0.041,K,D*3D

2025-04-14 12:00:34.352770 -- $GNRMC,100034.15,A,4541.56271,N,00457.33501,E,0.025,,140425,,,D*69

2025-04-14 12:00:34.353119 -- $GNVTG,,T,,M,0.025,N,0.047,K,D*3C

2025-04-14 12:00:34.530670 -- $GNRMC,100034.35,A,4541.56270,N,00457.33501,E,0.070,,140425,,,D*6A

2025-04-14 12:00:35.126516 -- $GNRMC,100034.95,A,4541.56268,N,00457.33499,E,0.023,,140425,,,D*6F

2025-04-14 12:00:35.126772 -- $GNVTG,,T,,M,0.023,N,0.043,K,D*3E

2025-04-14 12:00:35.534178 -- $GNRMC,100035.35,A,4541.56267,N,00457.33498,E,0.013,,140425,,,D*69

2025-04-14 12:00:35.728029 -- $GNRMC,100035.55,A,4541.56267,N,00457.33498,E,0.036,,140425,,,D*68

2025-04-14 12:00:35.728261 -- $GNVTG,,T,,M,0.036,N,0.067,K,D*3C

2025-04-14 12:00:35.930297 -- $GNRMC,100035.75,A,4541.56267,N,00457.33498,E,0.051,,140425,,,D*6B

2025-04-14 12:00:35.930612 -- $GNVTG,,T,,M,0.051,N,0.095,K,D*30

2025-04-14 12:00:36.154658 -- $GNRMC,100035.95,A,4541.56267,N,00457.33497,E,0.055,,140425,,,D*6E

2025-04-14 12:00:36.154880 -- $GNVTG,,T,,M,0.055,N,0.102,K,D*3B

2025-04-14 12:00:36.349603 -- $GNRMC,100036.15,A,4541.56267,N,00457.33497,E,0.061,,140425,,,D*62

2025-04-14 12:00:36.350099 -- $GNVTG,,T,,M,0.061,N,0.113,K,D*3C

2025-04-14 12:00:36.732791 -- $GNRMC,100036.55,A,4541.56267,N,00457.33497,E,0.031,,140425,,,D*63

2025-04-14 12:00:36.928127 -- $GNRMC,100036.75,A,4541.56268,N,00457.33497,E,0.029,,140425,,,D*67

2025-04-14 12:00:36.928466 -- $GNVTG,,T,,M,0.029,N,0.054,K,D*32

2025-04-14 12:00:37.133366 -- $GNRMC,100036.95,A,4541.56268,N,00457.33496,E,0.038,,140425,,,D*68

2025-04-14 12:00:37.133739 -- $GNVTG,,T,,M,0.038,N,0.071,K,D*35

2025-04-14 12:00:37.350345 -- $GNRMC,100037.15,A,4541.56268,N,00457.33496,E,0.054,,140425,,,D*6B

2025-04-14 12:00:37.522149 -- $GNRMC,100037.35,A,4541.56268,N,00457.33496,E,0.066,,140425,,,D*68

2025-04-14 12:00:37.522574 -- $GNVTG,,T,,M,0.066,N,0.122,K,D*39

2025-04-14 12:00:37.725934 -- $GNRMC,100037.55,A,4541.56268,N,00457.33496,E,0.078,,140425,,,D*61

2025-04-14 12:00:37.726320 -- $GNVTG,,T,,M,0.078,N,0.145,K,D*37

2025-04-14 12:00:37.926913 -- $GNRMC,100037.75,A,4541.56269,N,00457.33495,E,0.005,,140425,,,D*6B

2025-04-14 12:00:37.927374 -- $GNVTG,,T,,M,0.005,N,0.010,K,D*3C

2025-04-14 12:00:38.129703 -- $GNRMC,100037.95,A,4541.56269,N,00457.33494,E,0.061,,140425,,,D*66

2025-04-14 12:00:38.130069 -- $GNVTG,,T,,M,0.061,N,0.114,K,D*3B

2025-04-14 12:00:38.349038 -- $GNRMC,100038.15,A,4541.56269,N,00457.33493,E,0.047,,140425,,,D*62

2025-04-14 12:00:38.741372 -- $GNRMC,100038.55,A,4541.56270,N,00457.33492,E,0.005,,140425,,,D*69

2025-04-14 12:00:38.741821 -- $GNVTG,,T,,M,0.005,N,0.009,K,D*34

2025-04-14 12:00:38.928339 -- $GNRMC,100038.75,A,4541.56270,N,00457.33491,E,0.013,,140425,,,D*6F

2025-04-14 12:00:38.928717 -- $GNVTG,,T,,M,0.013,N,0.023,K,D*3B

2025-04-14 12:00:39.132912 -- $GNRMC,100038.95,A,4541.56270,N,00457.33491,E,0.026,,140425,,,D*67

2025-04-14 12:00:39.351094 -- $GNRMC,100039.15,A,4541.56271,N,00457.33491,E,0.080,,140425,,,D*63

2025-04-14 12:00:39.351340 -- $GNVTG,,T,,M,0.080,N,0.147,K,D*32

2025-04-14 12:00:39.533338 -- $GNRMC,100039.35,A,4541.56271,N,00457.33491,E,0.010,,140425,,,D*68

2025-04-14 12:00:39.726416 -- $GNRMC,100039.55,A,4541.56271,N,00457.33491,E,0.053,,140425,,,D*69

2025-04-14 12:00:39.726665 -- $GNVTG,,T,,M,0.053,N,0.099,K,D*3E

2025-04-14 12:00:39.926145 -- $GNRMC,100039.75,A,4541.56272,N,00457.33490,E,0.069,,140425,,,D*60

2025-04-14 12:00:39.926541 -- $GNVTG,,T,,M,0.069,N,0.128,K,D*3C

2025-04-14 12:00:40.127901 -- $GNRMC,100039.95,A,4541.56272,N,00457.33490,E,0.018,,140425,,,D*68

2025-04-14 12:00:40.128235 -- $GNVTG,,T,,M,0.018,N,0.034,K,D*36

2025-04-14 12:00:40.343648 -- $GNRMC,100040.15,A,4541.56273,N,00457.33490,E,0.045,,140425,,,D*67

2025-04-14 12:00:40.343891 -- $GNVTG,,T,,M,0.045,N,0.084,K,D*35

2025-04-14 12:00:40.525673 -- $GNRMC,100040.35,A,4541.56273,N,00457.33490,E,0.028,,140425,,,D*6E

2025-04-14 12:00:40.526033 -- $GNVTG,,T,,M,0.028,N,0.051,K,D*36

2025-04-14 12:00:40.727193 -- $GNRMC,100040.55,A,4541.56274,N,00457.33490,E,0.015,,140425,,,D*61

2025-04-14 12:00:40.922582 -- $GNRMC,100040.75,A,4541.56274,N,00457.33490,E,0.010,,140425,,,D*66

2025-04-14 12:00:40.922897 -- $GNVTG,,T,,M,0.010,N,0.019,K,D*31

2025-04-14 12:00:41.117177 -- $GNRMC,100040.95,A,4541.56274,N,00457.33490,E,0.063,,140425,,,D*6C

2025-04-14 12:00:41.117575 -- $GNVTG,,T,,M,0.063,N,0.116,K,D*3B

2025-04-14 12:00:41.348010 -- $GNRMC,100041.15,A,4541.56274,N,00457.33490,E,0.024,,140425,,,D*66

2025-04-14 12:00:41.721877 -- $GNRMC,100041.55,A,4541.56274,N,00457.33489,E,0.026,,140425,,,D*68

2025-04-14 12:00:41.722133 -- $GNVTG,,T,,M,0.026,N,0.047,K,D*3F

2025-04-14 12:00:42.143342 -- $GNRMC,100041.95,A,4541.56275,N,00457.33488,E,0.036,,140425,,,D*65

2025-04-14 12:00:42.143721 -- $GNVTG,,T,,M,0.036,N,0.067,K,D*3C

2025-04-14 12:00:42.344715 -- $GNRMC,100042.15,A,4541.56275,N,00457.33487,E,0.088,,140425,,,D*64

2025-04-14 12:00:43.127243 -- $GNRMC,100042.95,A,4541.56276,N,00457.33486,E,0.038,,140425,,,D*65

2025-04-14 12:00:43.334475 -- $GNRMC,100043.15,A,4541.56277,N,00457.33486,E,0.087,,140425,,,D*69

2025-04-14 12:00:43.334833 -- $GNVTG,,T,,M,0.087,N,0.161,K,D*31

2025-04-14 12:00:43.525357 -- $GNRMC,100043.35,A,4541.56277,N,00457.33485,E,0.064,,140425,,,D*65

2025-04-14 12:00:43.710656 -- $GNRMC,100043.55,A,4541.56277,N,00457.33485,E,0.074,,140425,,,D*62

2025-04-14 12:00:43.710948 -- $GNVTG,,T,,M,0.074,N,0.136,K,D*3F

2025-04-14 12:00:43.912710 -- $GNRMC,100043.75,A,4541.56277,N,00457.33485,E,0.018,,140425,,,D*6A

2025-04-14 12:00:43.913025 -- $GNVTG,,T,,M,0.018,N,0.033,K,D*31

2025-04-14 12:00:44.116050 -- $GNRMC,100043.95,A,4541.56278,N,00457.33485,E,0.086,,140425,,,D*6C

2025-04-14 12:00:44.116296 -- $GNVTG,,T,,M,0.086,N,0.160,K,D*31

2025-04-14 12:00:44.329777 -- $GNRMC,100044.15,A,4541.56279,N,00457.33484,E,0.093,,140425,,,D*67

2025-04-14 12:00:44.716449 -- $GNRMC,100044.55,A,4541.56281,N,00457.33483,E,0.052,,140425,,,D*6E

2025-04-14 12:00:44.716681 -- $GNVTG,,T,,M,0.052,N,0.096,K,D*30

2025-04-14 12:00:44.918309 -- $GNRMC,100044.75,A,4541.56281,N,00457.33483,E,0.016,,140425,,,D*6C

2025-04-14 12:00:44.918826 -- $GNVTG,,T,,M,0.016,N,0.030,K,D*3C

2025-04-14 12:00:45.115366 -- $GNRMC,100044.95,A,4541.56282,N,00457.33483,E,0.064,,140425,,,D*64

2025-04-14 12:00:45.332563 -- $GNRMC,100045.15,A,4541.56283,N,00457.33483,E,0.045,,140425,,,D*6F

2025-04-14 12:00:45.520177 -- $GNRMC,100045.35,A,4541.56283,N,00457.33483,E,0.031,,140425,,,D*6E

2025-04-14 12:00:45.520412 -- $GNVTG,,T,,M,0.031,N,0.058,K,D*37

2025-04-14 12:00:45.912095 -- $GNRMC,100045.75,A,4541.56285,N,00457.33482,E,0.024,,140425,,,D*69

2025-04-14 12:00:46.343334 -- $GNRMC,100046.15,A,4541.56286,N,00457.33483,E,0.050,,140425,,,D*6D

2025-04-14 12:00:46.514828 -- $GNRMC,100046.35,A,4541.56286,N,00457.33483,E,0.070,,140425,,,D*6D

2025-04-14 12:00:46.733743 -- $GNRMC,100046.55,A,4541.56287,N,00457.33483,E,0.053,,140425,,,D*6B

2025-04-14 12:00:46.734111 -- $GNVTG,,T,,M,0.053,N,0.098,K,D*3F

2025-04-14 12:00:46.929305 -- $GNRMC,100046.75,A,4541.56287,N,00457.33483,E,0.056,,140425,,,D*6C

2025-04-14 12:00:47.114519 -- $GNRMC,100046.95,A,4541.56288,N,00457.33483,E,0.021,,140425,,,D*6D

2025-04-14 12:00:47.732249 -- $GNRMC,100047.55,A,4541.56291,N,00457.33483,E,0.037,,140425,,,D*6F

2025-04-14 12:00:48.155345 -- $GNRMC,100047.95,A,4541.56292,N,00457.33484,E,0.041,,140425,,,D*66

2025-04-14 12:00:48.155744 -- $GNVTG,,T,,M,0.041,N,0.077,K,D*3D

2025-04-14 12:00:48.351156 -- $GNRMC,100048.15,A,4541.56293,N,00457.33485,E,0.014,,140425,,,D*61

2025-04-14 12:00:48.351441 -- $GNVTG,,T,,M,0.014,N,0.026,K,D*39

2025-04-14 12:00:48.519581 -- $GNRMC,100048.35,A,4541.56293,N,00457.33485,E,0.069,,140425,,,D*69

2025-04-14 12:00:48.519815 -- $GNVTG,,T,,M,0.069,N,0.128,K,D*3C

2025-04-14 12:00:48.736120 -- $GNRMC,100048.55,A,4541.56294,N,00457.33486,E,0.048,,140425,,,D*68

2025-04-14 12:00:48.736462 -- $GNVTG,,T,,M,0.048,N,0.088,K,D*34

2025-04-14 12:00:48.936557 -- $GNRMC,100048.75,A,4541.56294,N,00457.33487,E,0.003,,140425,,,D*64

2025-04-14 12:00:49.137759 -- $GNRMC,100048.95,A,4541.56295,N,00457.33487,E,0.057,,140425,,,D*6A

2025-04-14 12:00:49.138378 -- $GNVTG,,T,,M,0.057,N,0.106,K,D*3D

2025-04-14 12:00:49.545318 -- $GNRMC,100049.35,A,4541.56295,N,00457.33488,E,0.066,,140425,,,D*6C

2025-04-14 12:00:49.545681 -- $GNVTG,,T,,M,0.066,N,0.123,K,D*38

2025-04-14 12:00:49.749571 -- $GNRMC,100049.55,A,4541.56295,N,00457.33489,E,0.032,,140425,,,D*6A

2025-04-14 12:00:49.749861 -- $GNVTG,,T,,M,0.032,N,0.060,K,D*3F

2025-04-14 12:00:49.946458 -- $GNRMC,100049.75,A,4541.56295,N,00457.33489,E,0.038,,140425,,,D*62

2025-04-14 12:00:49.946839 -- $GNVTG,,T,,M,0.038,N,0.070,K,D*34

2025-04-14 12:00:50.161010 -- $GNRMC,100049.95,A,4541.56295,N,00457.33489,E,0.008,,140425,,,D*6F

2025-04-14 12:00:50.381996 -- $GNRMC,100050.15,A,4541.56296,N,00457.33489,E,0.054,,140425,,,D*65

2025-04-14 12:00:50.382361 -- $GNVTG,,T,,M,0.054,N,0.100,K,D*38

2025-04-14 12:00:50.864895 -- $GNRMC,100050.65,A,4541.56297,N,00457.33489,E,0.023,,140425,,,D*63

2025-04-14 12:00:51.060473 -- $GNRMC,100050.85,A,4541.56298,N,00457.33488,E,0.069,,140425,,,D*6D

2025-04-14 12:00:51.277940 -- $GNRMC,100051.05,A,4541.56298,N,00457.33488,E,0.021,,140425,,,D*68

2025-04-14 12:00:51.278465 -- $GNVTG,,T,,M,0.021,N,0.039,K,D*31

2025-04-14 12:00:51.565780 -- $GNRMC,100051.35,A,4541.56299,N,00457.33488,E,0.044,,140425,,,D*69

2025-04-14 12:00:51.566099 -- $GNVTG,,T,,M,0.044,N,0.082,K,D*32

2025-04-14 12:00:51.754957 -- $GNRMC,100051.55,A,4541.56299,N,00457.33488,E,0.020,,140425,,,D*6D

2025-04-14 12:00:51.755271 -- $GNVTG,,T,,M,0.020,N,0.037,K,D*3E

2025-04-14 12:00:51.955475 -- $GNRMC,100051.75,A,4541.56299,N,00457.33488,E,0.035,,140425,,,D*6B

2025-04-14 12:00:51.955835 -- $GNVTG,,T,,M,0.035,N,0.065,K,D*3D

2025-04-14 12:00:52.160178 -- $GNRMC,100051.95,A,4541.56300,N,00457.33488,E,0.056,,140425,,,D*61

2025-04-14 12:00:52.160419 -- $GNVTG,,T,,M,0.056,N,0.104,K,D*3E

2025-04-14 12:00:52.396747 -- $GNRMC,100052.15,A,4541.56300,N,00457.33488,E,0.112,,140425,,,D*6B

2025-04-14 12:00:52.397343 -- $GNVTG,,T,,M,0.112,N,0.207,K,D*3F

2025-04-14 12:00:52.666306 -- $GNRMC,100052.45,A,4541.56301,N,00457.33488,E,0.024,,140425,,,D*6B

2025-04-14 12:00:52.871892 -- $GNRMC,100052.65,A,4541.56301,N,00457.33488,E,0.095,,140425,,,D*63

2025-04-14 12:00:52.872235 -- $GNVTG,,T,,M,0.095,N,0.175,K,D*37

2025-04-14 12:00:53.064128 -- $GNRMC,100052.85,A,4541.56302,N,00457.33488,E,0.015,,140425,,,D*66

2025-04-14 12:00:53.292861 -- $GNRMC,100053.05,A,4541.56303,N,00457.33488,E,0.027,,140425,,,D*6F

2025-04-14 12:00:53.293101 -- $GNVTG,,T,,M,0.027,N,0.050,K,D*38

2025-04-14 12:00:53.572343 -- $GNRMC,100053.35,A,4541.56303,N,00457.33488,E,0.025,,140425,,,D*6E

2025-04-14 12:00:53.572562 -- $GNVTG,,T,,M,0.025,N,0.046,K,D*3D

2025-04-14 12:00:53.765983 -- $GNRMC,100053.55,A,4541.56303,N,00457.33488,E,0.034,,140425,,,D*68

2025-04-14 12:00:53.971338 -- $GNRMC,100053.75,A,4541.56304,N,00457.33488,E,0.011,,140425,,,D*6A

2025-04-14 12:00:53.971684 -- $GNVTG,,T,,M,0.011,N,0.020,K,D*3A

2025-04-14 12:00:54.190089 -- $GNRMC,100053.95,A,4541.56304,N,00457.33488,E,0.003,,140425,,,D*67

2025-04-14 12:00:54.190315 -- $GNVTG,,T,,M,0.003,N,0.005,K,D*3E

2025-04-14 12:00:54.672576 -- $GNRMC,100054.45,A,4541.56305,N,00457.33489,E,0.054,,140425,,,D*6F

2025-04-14 12:00:54.673127 -- $GNVTG,,T,,M,0.054,N,0.100,K,D*38

2025-04-14 12:00:55.306418 -- $GNRMC,100055.05,A,4541.56307,N,00457.33489,E,0.049,,140425,,,D*64

2025-04-14 12:00:55.306765 -- $GNVTG,,T,,M,0.049,N,0.091,K,D*3D

2025-04-14 12:00:55.571299 -- $GNRMC,100055.35,A,4541.56308,N,00457.33489,E,0.078,,140425,,,D*6A

2025-04-14 12:00:55.772478 -- $GNRMC,100055.55,A,4541.56308,N,00457.33489,E,0.065,,140425,,,D*60

2025-04-14 12:00:55.964024 -- $GNRMC,100055.75,A,4541.56309,N,00457.33489,E,0.030,,140425,,,D*63

2025-04-14 12:00:55.964249 -- $GNVTG,,T,,M,0.030,N,0.055,K,D*3B

2025-04-14 12:00:56.170184 -- $GNVTG,,T,,M,0.083,N,0.154,K,D*33

2025-04-14 12:00:56.397696 -- $GNRMC,100056.15,A,4541.56310,N,00457.33489,E,0.040,,140425,,,D*69

2025-04-14 12:00:56.397951 -- $GNVTG,,T,,M,0.040,N,0.075,K,D*3E

2025-04-14 12:00:56.671148 -- $GNVTG,,T,,M,0.066,N,0.122,K,D*39

2025-04-14 12:00:56.878147 -- $GNRMC,100056.65,A,4541.56309,N,00457.33490,E,0.022,,140425,,,D*6A

2025-04-14 12:00:56.878477 -- $GNVTG,,T,,M,0.022,N,0.041,K,D*3D

2025-04-14 12:00:57.071647 -- $GNRMC,100056.85,A,4541.56310,N,00457.33491,E,0.053,,140425,,,D*6B

2025-04-14 12:00:57.071891 -- $GNVTG,,T,,M,0.053,N,0.099,K,D*3E

2025-04-14 12:00:57.476304 -- $GNRMC,100057.25,A,4541.56310,N,00457.33490,E,0.042,,140425,,,D*61

2025-04-14 12:00:57.672473 -- $GNRMC,100057.45,A,4541.56311,N,00457.33490,E,0.018,,140425,,,D*69

2025-04-14 12:00:57.673282 -- $GNVTG,,T,,M,0.018,N,0.033,K,D*31

2025-04-14 12:00:57.872531 -- $GNRMC,100057.65,A,4541.56311,N,00457.33490,E,0.062,,140425,,,D*66

2025-04-14 12:00:57.872805 -- $GNVTG,,T,,M,0.062,N,0.115,K,D*39

2025-04-14 12:00:58.301294 -- $GNRMC,100058.05,A,4541.56312,N,00457.33490,E,0.038,,140425,,,D*63

2025-04-14 12:00:59.000077 -- $GNRMC,100058.75,A,4541.56313,N,00457.33489,E,0.064,,140425,,,D*64

2025-04-14 12:00:59.000299 -- $GNVTG,,T,,M,0.064,N,0.119,K,D*33

2025-04-14 12:00:59.314524 -- $GNRMC,100059.05,A,4541.56313,N,00457.33489,E,0.102,,140425,,,D*63

2025-04-14 12:00:59.315096 -- $GNVTG,,T,,M,0.102,N,0.190,K,D*33

2025-04-14 12:00:59.582800 -- $GNRMC,100059.35,A,4541.56313,N,00457.33489,E,0.020,,140425,,,D*61

2025-04-14 12:00:59.583148 -- $GNVTG,,T,,M,0.020,N,0.036,K,D*3F

2025-04-14 12:00:59.964480 -- $GNRMC,100059.75,A,4541.56313,N,00457.33489,E,0.027,,140425,,,D*62

2025-04-14 12:01:00.183022 -- $GNRMC,100059.95,A,4541.56313,N,00457.33489,E,0.039,,140425,,,D*63

2025-04-14 12:01:00.387809 -- $GNRMC,100100.15,A,4541.56314,N,00457.33489,E,0.061,,140425,,,D*6C

2025-04-14 12:01:00.388037 -- $GNVTG,,T,,M,0.061,N,0.112,K,D*3D

2025-04-14 12:01:00.565907 -- $GNRMC,100100.35,A,4541.56314,N,00457.33488,E,0.050,,140425,,,D*6D

2025-04-14 12:01:00.764810 -- $GNRMC,100100.55,A,4541.56315,N,00457.33488,E,0.059,,140425,,,D*63

2025-04-14 12:01:00.958294 -- $GNRMC,100100.75,A,4541.56315,N,00457.33488,E,0.032,,140425,,,D*6C

2025-04-14 12:01:00.958520 -- $GNVTG,,T,,M,0.032,N,0.058,K,D*34

2025-04-14 12:01:01.166057 -- $GNRMC,100100.95,A,4541.56316,N,00457.33488,E,0.054,,140425,,,D*61

2025-04-14 12:01:01.166274 -- $GNVTG,,T,,M,0.054,N,0.100,K,D*38

2025-04-14 12:01:01.562490 -- $GNRMC,100101.35,A,4541.56316,N,00457.33489,E,0.034,,140425,,,D*6D

2025-04-14 12:01:01.562882 -- $GNVTG,,T,,M,0.034,N,0.063,K,D*3A

2025-04-14 12:01:01.768368 -- $GNRMC,100101.55,A,4541.56316,N,00457.33489,E,0.074,,140425,,,D*6F

2025-04-14 12:01:01.768704 -- $GNVTG,,T,,M,0.074,N,0.137,K,D*3E

2025-04-14 12:01:01.967054 -- $GNRMC,100101.75,A,4541.56316,N,00457.33489,E,0.031,,140425,,,D*6C

2025-04-14 12:01:02.169039 -- $GNRMC,100101.95,A,4541.56316,N,00457.33489,E,0.056,,140425,,,D*63

2025-04-14 12:01:02.169608 -- $GNVTG,,T,,M,0.056,N,0.103,K,D*39

2025-04-14 12:01:02.385802 -- $GNRMC,100102.15,A,4541.56316,N,00457.33489,E,0.073,,140425,,,D*6F

2025-04-14 12:01:02.386224 -- $GNVTG,,T,,M,0.073,N,0.134,K,D*3A

2025-04-14 12:01:02.565183 -- $GNRMC,100102.35,A,4541.56315,N,00457.33489,E,0.059,,140425,,,D*66

2025-04-14 12:01:02.565558 -- $GNVTG,,T,,M,0.059,N,0.110,K,D*34

2025-04-14 12:01:02.981120 -- $GNRMC,100102.75,A,4541.56315,N,00457.33489,E,0.043,,140425,,,D*69

2025-04-14 12:01:03.392023 -- $GNRMC,100103.15,A,4541.56315,N,00457.33490,E,0.067,,140425,,,D*60

2025-04-14 12:01:03.392412 -- $GNVTG,,T,,M,0.067,N,0.124,K,D*3E

2025-04-14 12:01:03.565477 -- $GNRMC,100103.35,A,4541.56315,N,00457.33489,E,0.028,,140425,,,D*61

2025-04-14 12:01:03.565931 -- $GNVTG,,T,,M,0.028,N,0.052,K,D*35

2025-04-14 12:01:03.761010 -- $GNRMC,100103.55,A,4541.56314,N,00457.33489,E,0.053,,140425,,,D*6A

2025-04-14 12:01:03.761346 -- $GNVTG,,T,,M,0.053,N,0.098,K,D*3F

2025-04-14 12:01:04.171124 -- $GNRMC,100103.95,A,4541.56314,N,00457.33488,E,0.004,,140425,,,D*65

2025-04-14 12:01:04.767359 -- $GNRMC,100104.55,A,4541.56313,N,00457.33485,E,0.028,,140425,,,D*6A

2025-04-14 12:01:05.389789 -- $GNRMC,100105.15,A,4541.56313,N,00457.33483,E,0.029,,140425,,,D*68

2025-04-14 12:01:05.967240 -- $GNRMC,100105.75,A,4541.56311,N,00457.33483,E,0.013,,140425,,,D*65

2025-04-14 12:01:05.967466 -- $GNVTG,,T,,M,0.013,N,0.024,K,D*3C

2025-04-14 12:01:07.176763 -- $GNRMC,100106.95,A,4541.56307,N,00457.33484,E,0.021,,140425,,,D*69

2025-04-14 12:01:07.177294 -- $GNVTG,,T,,M,0.021,N,0.040,K,D*3F

2025-04-14 12:01:07.571653 -- $GNVTG,,T,,M,0.054,N,0.100,K,D*38

2025-04-14 12:01:07.770979 -- $GNRMC,100107.55,A,4541.56305,N,00457.33484,E,0.034,,140425,,,D*62

2025-04-14 12:01:07.969762 -- $GNRMC,100107.75,A,4541.56306,N,00457.33484,E,0.033,,140425,,,D*64

2025-04-14 12:01:08.173471 -- $GNRMC,100107.95,A,4541.56305,N,00457.33484,E,0.050,,140425,,,D*6C

2025-04-14 12:01:08.173799 -- $GNVTG,,T,,M,0.050,N,0.093,K,D*37

2025-04-14 12:01:08.391024 -- $GNRMC,100108.15,A,4541.56305,N,00457.33484,E,0.032,,140425,,,D*6F

2025-04-14 12:01:08.573568 -- $GNRMC,100108.35,A,4541.56305,N,00457.33484,E,0.065,,140425,,,D*6F

2025-04-14 12:01:08.767735 -- $GNRMC,100108.55,A,4541.56305,N,00457.33484,E,0.056,,140425,,,D*69

2025-04-14 12:01:08.768065 -- $GNVTG,,T,,M,0.056,N,0.104,K,D*3E

2025-04-14 12:01:08.978178 -- $GNRMC,100108.75,A,4541.56304,N,00457.33484,E,0.028,,140425,,,D*63

2025-04-14 12:01:09.174414 -- $GNRMC,100108.95,A,4541.56304,N,00457.33484,E,0.062,,140425,,,D*63

2025-04-14 12:01:09.387398 -- $GNRMC,100109.15,A,4541.56304,N,00457.33484,E,0.032,,140425,,,D*6F

2025-04-14 12:01:09.387775 -- $GNVTG,,T,,M,0.032,N,0.059,K,D*35

2025-04-14 12:01:09.773861 -- $GNRMC,100109.55,A,4541.56304,N,00457.33483,E,0.042,,140425,,,D*6B

2025-04-14 12:01:09.971482 -- $GNRMC,100109.75,A,4541.56304,N,00457.33483,E,0.006,,140425,,,D*69

2025-04-14 12:01:09.971717 -- $GNVTG,,T,,M,0.006,N,0.011,K,D*3E

2025-04-14 12:01:10.171469 -- $GNRMC,100109.95,A,4541.56303,N,00457.33483,E,0.090,,140425,,,D*6F

2025-04-14 12:01:10.171839 -- $GNVTG,,T,,M,0.090,N,0.166,K,D*30

2025-04-14 12:01:10.392237 -- $GNRMC,100110.15,A,4541.56303,N,00457.33483,E,0.047,,140425,,,D*65

2025-04-14 12:01:10.573559 -- $GNRMC,100110.35,A,4541.56303,N,00457.33483,E,0.032,,140425,,,D*65

2025-04-14 12:01:10.769503 -- $GNRMC,100110.55,A,4541.56302,N,00457.33483,E,0.043,,140425,,,D*64

2025-04-14 12:01:10.769832 -- $GNVTG,,T,,M,0.043,N,0.079,K,D*31

2025-04-14 12:01:10.974149 -- $GNRMC,100110.75,A,4541.56302,N,00457.33483,E,0.015,,140425,,,D*65

2025-04-14 12:01:11.170486 -- $GNRMC,100110.95,A,4541.56301,N,00457.33483,E,0.030,,140425,,,D*6F

2025-04-14 12:01:11.170884 -- $GNVTG,,T,,M,0.030,N,0.056,K,D*38

2025-04-14 12:01:11.384823 -- $GNRMC,100111.15,A,4541.56301,N,00457.33483,E,0.051,,140425,,,D*61

2025-04-14 12:01:11.385155 -- $GNVTG,,T,,M,0.051,N,0.094,K,D*31

2025-04-14 12:01:11.772315 -- $GNRMC,100111.55,A,4541.56300,N,00457.33483,E,0.047,,140425,,,D*63

2025-04-14 12:01:11.964317 -- $GNRMC,100111.75,A,4541.56299,N,00457.33482,E,0.034,,140425,,,D*65

2025-04-14 12:01:11.964709 -- $GNVTG,,T,,M,0.034,N,0.063,K,D*3A

2025-04-14 12:01:12.177446 -- $GNRMC,100111.95,A,4541.56299,N,00457.33482,E,0.046,,140425,,,D*6E

2025-04-14 12:01:12.177794 -- $GNVTG,,T,,M,0.046,N,0.084,K,D*36

2025-04-14 12:01:12.399650 -- $GNRMC,100112.15,A,4541.56298,N,00457.33482,E,0.021,,140425,,,D*65

2025-04-14 12:01:12.567053 -- $GNRMC,100112.35,A,4541.56298,N,00457.33481,E,0.006,,140425,,,D*61

2025-04-14 12:01:12.567608 -- $GNVTG,,T,,M,0.006,N,0.012,K,D*3D

2025-04-14 12:01:12.768208 -- $GNRMC,100112.55,A,4541.56297,N,00457.33480,E,0.057,,140425,,,D*6D

2025-04-14 12:01:12.769284 -- $GNVTG,,T,,M,0.057,N,0.106,K,D*3D

2025-04-14 12:01:12.956049 -- $GNRMC,100112.75,A,4541.56296,N,00457.33480,E,0.059,,140425,,,D*60

2025-04-14 12:01:12.956269 -- $GNVTG,,T,,M,0.059,N,0.108,K,D*3D

2025-04-14 12:01:13.377061 -- $GNRMC,100113.15,A,4541.56295,N,00457.33479,E,0.028,,140425,,,D*64

2025-04-14 12:01:13.377407 -- $GNVTG,,T,,M,0.028,N,0.052,K,D*35

2025-04-14 12:01:13.769296 -- $GNRMC,100113.55,A,4541.56293,N,00457.33478,E,0.034,,140425,,,D*6A

2025-04-14 12:01:13.964272 -- $GNRMC,100113.75,A,4541.56293,N,00457.33477,E,0.051,,140425,,,D*64

2025-04-14 12:01:13.964846 -- $GNVTG,,T,,M,0.051,N,0.094,K,D*31

2025-04-14 12:01:14.172442 -- $GNRMC,100113.95,A,4541.56291,N,00457.33477,E,0.019,,140425,,,D*64

2025-04-14 12:01:14.386513 -- $GNRMC,100114.15,A,4541.56290,N,00457.33476,E,0.020,,140425,,,D*61

2025-04-14 12:01:14.386737 -- $GNVTG,,T,,M,0.020,N,0.037,K,D*3E

2025-04-14 12:01:14.566127 -- $GNRMC,100114.35,A,4541.56290,N,00457.33475,E,0.071,,140425,,,D*64

2025-04-14 12:01:14.566363 -- $GNVTG,,T,,M,0.071,N,0.131,K,D*3D

2025-04-14 12:01:14.760012 -- $GNRMC,100114.55,A,4541.56288,N,00457.33475,E,0.012,,140425,,,D*6E

2025-04-14 12:01:14.959887 -- $GNRMC,100114.75,A,4541.56287,N,00457.33474,E,0.089,,140425,,,D*60

2025-04-14 12:01:15.158358 -- $GNRMC,100114.95,A,4541.56287,N,00457.33473,E,0.039,,140425,,,D*62

2025-04-14 12:01:15.158734 -- $GNVTG,,T,,M,0.039,N,0.073,K,D*36

2025-04-14 12:01:15.384463 -- $GNRMC,100115.15,A,4541.56285,N,00457.33471,E,0.024,,140425,,,D*67

2025-04-14 12:01:15.561617 -- $GNRMC,100115.35,A,4541.56284,N,00457.33470,E,0.021,,140425,,,D*60

2025-04-14 12:01:15.761599 -- $GNRMC,100115.55,A,4541.56284,N,00457.33468,E,0.053,,140425,,,D*6A

2025-04-14 12:01:15.761942 -- $GNVTG,,T,,M,0.053,N,0.099,K,D*3E

2025-04-14 12:01:15.961933 -- $GNRMC,100115.75,A,4541.56283,N,00457.33467,E,0.047,,140425,,,D*65

2025-04-14 12:01:16.160205 -- $GNRMC,100115.95,A,4541.56282,N,00457.33466,E,0.038,,140425,,,D*63

2025-04-14 12:01:16.160449 -- $GNVTG,,T,,M,0.038,N,0.069,K,D*3C

2025-04-14 12:01:16.768544 -- $GNRMC,100116.55,A,4541.56279,N,00457.33460,E,0.061,,140425,,,D*62

2025-04-14 12:01:16.768907 -- $GNVTG,,T,,M,0.061,N,0.112,K,D*3D

2025-04-14 12:01:16.988079 -- $GNRMC,100116.75,A,4541.56278,N,00457.33458,E,0.075,,140425,,,D*6F

2025-04-14 12:01:16.988958 -- $GNVTG,,T,,M,0.075,N,0.138,K,D*30

2025-04-14 12:01:17.168855 -- $GNRMC,100116.95,A,4541.56277,N,00457.33456,E,0.012,,140425,,,D*61

2025-04-14 12:01:17.169619 -- $GNVTG,,T,,M,0.012,N,0.023,K,D*3A

2025-04-14 12:01:17.384451 -- $GNRMC,100117.15,A,4541.56276,N,00457.33454,E,0.058,,140425,,,D*65

2025-04-14 12:01:17.556684 -- $GNRMC,100117.35,A,4541.56275,N,00457.33453,E,0.051,,140425,,,D*6A

2025-04-14 12:01:17.557026 -- $GNVTG,,T,,M,0.051,N,0.094,K,D*31

2025-04-14 12:01:17.764819 -- $GNRMC,100117.55,A,4541.56274,N,00457.33451,E,0.021,,140425,,,D*68

2025-04-14 12:01:17.765245 -- $GNVTG,,T,,M,0.021,N,0.040,K,D*3F

2025-04-14 12:01:17.960145 -- $GNRMC,100117.75,A,4541.56274,N,00457.33450,E,0.024,,140425,,,D*6E

2025-04-14 12:01:17.960405 -- $GNVTG,,T,,M,0.024,N,0.044,K,D*3E

2025-04-14 12:01:18.377593 -- $GNRMC,100118.15,A,4541.56272,N,00457.33447,E,0.029,,140425,,,D*6A

2025-04-14 12:01:18.377867 -- $GNVTG,,T,,M,0.029,N,0.054,K,D*32

2025-04-14 12:01:18.760944 -- $GNRMC,100118.55,A,4541.56270,N,00457.33445,E,0.005,,140425,,,D*60

2025-04-14 12:01:19.178343 -- $GNRMC,100118.95,A,4541.56268,N,00457.33443,E,0.040,,140425,,,D*62

2025-04-14 12:01:19.178572 -- $GNVTG,,T,,M,0.040,N,0.073,K,D*38

2025-04-14 12:01:19.760730 -- $GNRMC,100119.55,A,4541.56266,N,00457.33440,E,0.088,,140425,,,D*66

2025-04-14 12:01:19.761091 -- $GNVTG,,T,,M,0.088,N,0.163,K,D*3C

2025-04-14 12:01:20.164809 -- $GNRMC,100119.95,A,4541.56264,N,00457.33438,E,0.011,,140425,,,D*67

2025-04-14 12:01:20.165147 -- $GNVTG,,T,,M,0.011,N,0.021,K,D*3B

2025-04-14 12:01:20.379234 -- $GNRMC,100120.15,A,4541.56263,N,00457.33438,E,0.073,,140425,,,D*66

2025-04-14 12:01:20.564063 -- $GNRMC,100120.35,A,4541.56262,N,00457.33437,E,0.080,,140425,,,D*66

2025-04-14 12:01:20.760103 -- $GNRMC,100120.55,A,4541.56262,N,00457.33436,E,0.024,,140425,,,D*6F

2025-04-14 12:01:20.760380 -- $GNVTG,,T,,M,0.024,N,0.045,K,D*3F

2025-04-14 12:01:21.382800 -- $GNRMC,100121.15,A,4541.56261,N,00457.33434,E,0.016,,140425,,,D*6A

2025-04-14 12:01:21.762313 -- $GNRMC,100121.55,A,4541.56260,N,00457.33433,E,0.056,,140425,,,D*6C

2025-04-14 12:01:21.964208 -- $GNRMC,100121.75,A,4541.56260,N,00457.33431,E,0.030,,140425,,,D*6C

2025-04-14 12:01:22.163273 -- $GNRMC,100121.95,A,4541.56260,N,00457.33430,E,0.048,,140425,,,D*6C

2025-04-14 12:01:22.163505 -- $GNVTG,,T,,M,0.048,N,0.089,K,D*35

2025-04-14 12:01:22.562251 -- $GNRMC,100122.35,A,4541.56259,N,00457.33428,E,0.091,,140425,,,D*62

2025-04-14 12:01:22.562543 -- $GNVTG,,T,,M,0.091,N,0.168,K,D*3F

2025-04-14 12:01:22.962406 -- $GNRMC,100122.75,A,4541.56258,N,00457.33427,E,0.021,,140425,,,D*63

2025-04-14 12:01:22.962832 -- $GNVTG,,T,,M,0.021,N,0.039,K,D*31

2025-04-14 12:01:23.163325 -- $GNRMC,100122.95,A,4541.56258,N,00457.33427,E,0.052,,140425,,,D*69

2025-04-14 12:01:23.379982 -- $GNRMC,100123.15,A,4541.56257,N,00457.33426,E,0.041,,140425,,,D*6C

2025-04-14 12:01:23.380212 -- $GNVTG,,T,,M,0.041,N,0.075,K,D*3F

2025-04-14 12:01:23.764321 -- $GNRMC,100123.55,A,4541.56256,N,00457.33424,E,0.030,,140425,,,D*6D

2025-04-14 12:01:23.964638 -- $GNRMC,100123.75,A,4541.56255,N,00457.33423,E,0.083,,140425,,,D*63

2025-04-14 12:01:23.964988 -- $GNVTG,,T,,M,0.083,N,0.153,K,D*34

2025-04-14 12:01:24.385655 -- $GNRMC,100124.15,A,4541.56254,N,00457.33421,E,0.029,,140425,,,D*61

2025-04-14 12:01:24.568377 -- $GNRMC,100124.35,A,4541.56253,N,00457.33421,E,0.029,,140425,,,D*64

2025-04-14 12:01:24.568601 -- $GNVTG,,T,,M,0.029,N,0.054,K,D*32

2025-04-14 12:01:24.977648 -- $GNRMC,100124.75,A,4541.56253,N,00457.33419,E,0.061,,140425,,,D*67

2025-04-14 12:01:24.978039 -- $GNVTG,,T,,M,0.061,N,0.113,K,D*3C

2025-04-14 12:01:25.181362 -- $GNRMC,100124.95,A,4541.56253,N,00457.33418,E,0.039,,140425,,,D*65

2025-04-14 12:01:25.395544 -- $GNRMC,100125.15,A,4541.56253,N,00457.33416,E,0.038,,140425,,,D*63

2025-04-14 12:01:25.396001 -- $GNVTG,,T,,M,0.038,N,0.071,K,D*35

2025-04-14 12:01:25.577336 -- $GNRMC,100125.35,A,4541.56253,N,00457.33416,E,0.027,,140425,,,D*6F

2025-04-14 12:01:25.577584 -- $GNVTG,,T,,M,0.027,N,0.051,K,D*39

2025-04-14 12:01:25.768617 -- $GNRMC,100125.55,A,4541.56253,N,00457.33415,E,0.044,,140425,,,D*6F

2025-04-14 12:01:25.768857 -- $GNVTG,,T,,M,0.044,N,0.081,K,D*31

2025-04-14 12:01:26.180324 -- $GNRMC,100125.95,A,4541.56253,N,00457.33413,E,0.051,,140425,,,D*61

2025-04-14 12:01:26.180659 -- $GNVTG,,T,,M,0.051,N,0.095,K,D*30

2025-04-14 12:01:26.575484 -- $GNRMC,100126.35,A,4541.56254,N,00457.33411,E,0.064,,140425,,,D*6B

2025-04-14 12:01:26.575914 -- $GNVTG,,T,,M,0.064,N,0.119,K,D*33

2025-04-14 12:01:27.394632 -- $GNRMC,100127.15,A,4541.56255,N,00457.33406,E,0.061,,140425,,,D*6A

2025-04-14 12:01:27.395088 -- $GNVTG,,T,,M,0.061,N,0.113,K,D*3C

2025-04-14 12:01:27.772741 -- $GNRMC,100127.55,A,4541.56256,N,00457.33405,E,0.034,,140425,,,D*6E

2025-04-14 12:01:27.773106 -- $GNVTG,,T,,M,0.034,N,0.063,K,D*3A

2025-04-14 12:01:27.975781 -- $GNRMC,100127.75,A,4541.56256,N,00457.33404,E,0.024,,140425,,,D*6C

2025-04-14 12:01:27.976231 -- $GNVTG,,T,,M,0.024,N,0.044,K,D*3E

2025-04-14 12:01:28.176967 -- $GNRMC,100127.95,A,4541.56256,N,00457.33404,E,0.044,,140425,,,D*64

2025-04-14 12:01:28.177622 -- $GNVTG,,T,,M,0.044,N,0.081,K,D*31

2025-04-14 12:01:28.567544 -- $GNRMC,100128.35,A,4541.56258,N,00457.33403,E,0.103,,140425,,,D*6A

2025-04-14 12:01:28.770959 -- $GNRMC,100128.55,A,4541.56259,N,00457.33402,E,0.061,,140425,,,D*69

2025-04-14 12:01:29.179888 -- $GNRMC,100128.95,A,4541.56260,N,00457.33401,E,0.093,,140425,,,D*61

2025-04-14 12:01:29.770822 -- $GNRMC,100129.55,A,4541.56264,N,00457.33399,E,0.033,,140425,,,D*64

2025-04-14 12:01:29.771059 -- $GNVTG,,T,,M,0.033,N,0.062,K,D*3C

2025-04-14 12:01:29.970058 -- $GNRMC,100129.75,A,4541.56266,N,00457.33399,E,0.050,,140425,,,D*61

2025-04-14 12:01:29.970436 -- $GNVTG,,T,,M,0.050,N,0.092,K,D*36

2025-04-14 12:01:30.185722 -- $GNRMC,100129.95,A,4541.56268,N,00457.33399,E,0.044,,140425,,,D*64

2025-04-14 12:01:30.185957 -- $GNVTG,,T,,M,0.044,N,0.081,K,D*31

2025-04-14 12:01:30.391680 -- $GNRMC,100130.15,A,4541.56270,N,00457.33399,E,0.035,,140425,,,D*6B

2025-04-14 12:01:30.392021 -- $GNVTG,,T,,M,0.035,N,0.065,K,D*3D

2025-04-14 12:01:30.777846 -- $GNRMC,100130.55,A,4541.56274,N,00457.33400,E,0.020,,140425,,,D*68

2025-04-14 12:01:30.778073 -- $GNVTG,,T,,M,0.020,N,0.037,K,D*3E

2025-04-14 12:01:30.978835 -- $GNRMC,100130.75,A,4541.56276,N,00457.33401,E,0.073,,140425,,,D*6F

2025-04-14 12:01:30.979054 -- $GNVTG,,T,,M,0.073,N,0.135,K,D*3B

2025-04-14 12:01:31.178380 -- $GNRMC,100130.95,A,4541.56278,N,00457.33401,E,0.048,,140425,,,D*67

2025-04-14 12:01:31.178720 -- $GNVTG,,T,,M,0.048,N,0.089,K,D*35

2025-04-14 12:01:31.388803 -- $GNRMC,100131.15,A,4541.56280,N,00457.33402,E,0.099,,140425,,,D*66

2025-04-14 12:01:31.389172 -- $GNVTG,,T,,M,0.099,N,0.183,K,D*32

2025-04-14 12:01:31.777921 -- $GNRMC,100131.55,A,4541.56284,N,00457.33403,E,0.007,,140425,,,D*60

2025-04-14 12:01:32.187394 -- $GNRMC,100131.95,A,4541.56289,N,00457.33405,E,0.012,,140425,,,D*63

2025-04-14 12:01:32.187646 -- $GNVTG,,T,,M,0.012,N,0.022,K,D*3B

2025-04-14 12:01:32.575979 -- $GNRMC,100132.35,A,4541.56292,N,00457.33406,E,0.019,,140425,,,D*68

2025-04-14 12:01:32.576190 -- $GNVTG,,T,,M,0.019,N,0.035,K,D*36

2025-04-14 12:01:32.771861 -- $GNRMC,100132.55,A,4541.56294,N,00457.33407,E,0.010,,140425,,,D*60

2025-04-14 12:01:32.971318 -- $GNRMC,100132.75,A,4541.56296,N,00457.33409,E,0.051,,140425,,,D*6B

2025-04-14 12:01:32.971548 -- $GNVTG,,T,,M,0.051,N,0.094,K,D*31

2025-04-14 12:01:33.402624 -- $GNRMC,100133.15,A,4541.56300,N,00457.33411,E,0.039,,140425,,,D*65

2025-04-14 12:01:33.403140 -- $GNVTG,,T,,M,0.039,N,0.072,K,D*37

2025-04-14 12:01:33.588350 -- $GNRMC,100133.35,A,4541.56302,N,00457.33412,E,0.047,,140425,,,D*6F

2025-04-14 12:01:33.588968 -- $GNVTG,,T,,M,0.047,N,0.088,K,D*3B

2025-04-14 12:01:33.975470 -- $GNRMC,100133.75,A,4541.56306,N,00457.33414,E,0.054,,140425,,,D*6B

2025-04-14 12:01:34.394397 -- $GNRMC,100134.15,A,4541.56310,N,00457.33417,E,0.035,,140425,,,D*69

2025-04-14 12:01:34.394612 -- $GNVTG,,T,,M,0.035,N,0.065,K,D*3D

2025-04-14 12:01:34.782632 -- $GNRMC,100134.55,A,4541.56315,N,00457.33419,E,0.026,,140425,,,D*64

2025-04-14 12:01:34.782972 -- $GNVTG,,T,,M,0.026,N,0.049,K,D*31

2025-04-14 12:01:34.979206 -- $GNVTG,,T,,M,0.085,N,0.157,K,D*36

2025-04-14 12:01:35.178208 -- $GNRMC,100134.95,A,4541.56318,N,00457.33419,E,0.035,,140425,,,D*67

2025-04-14 12:01:35.178443 -- $GNVTG,,T,,M,0.035,N,0.064,K,D*3C

2025-04-14 12:01:35.405135 -- $GNRMC,100135.15,A,4541.56320,N,00457.33420,E,0.109,,140425,,,D*61

2025-04-14 12:01:35.590706 -- $GNRMC,100135.35,A,4541.56322,N,00457.33421,E,0.025,,140425,,,D*6F

2025-04-14 12:01:35.778603 -- $GNRMC,100135.55,A,4541.56323,N,00457.33421,E,0.051,,140425,,,D*6B

2025-04-14 12:01:35.778932 -- $GNVTG,,T,,M,0.051,N,0.095,K,D*30

2025-04-14 12:01:35.978800 -- $GNRMC,100135.75,A,4541.56325,N,00457.33422,E,0.043,,140425,,,D*6F

2025-04-14 12:01:35.979036 -- $GNVTG,,T,,M,0.043,N,0.080,K,D*37

2025-04-14 12:01:36.196107 -- $GNRMC,100135.95,A,4541.56326,N,00457.33423,E,0.050,,140425,,,D*61

2025-04-14 12:01:36.196333 -- $GNVTG,,T,,M,0.050,N,0.093,K,D*37

2025-04-14 12:01:36.580478 -- $GNRMC,100136.35,A,4541.56328,N,00457.33424,E,0.017,,140425,,,D*62

2025-04-14 12:01:36.580868 -- $GNVTG,,T,,M,0.017,N,0.032,K,D*3F

2025-04-14 12:01:36.981035 -- $GNRMC,100136.75,A,4541.56330,N,00457.33425,E,0.039,,140425,,,D*62

2025-04-14 12:01:36.981272 -- $GNVTG,,T,,M,0.039,N,0.072,K,D*37

2025-04-14 12:01:37.395249 -- $GNRMC,100137.15,A,4541.56331,N,00457.33427,E,0.069,,140425,,,D*63

2025-04-14 12:01:37.395793 -- $GNVTG,,T,,M,0.069,N,0.128,K,D*3C

2025-04-14 12:01:37.581448 -- $GNRMC,100137.35,A,4541.56332,N,00457.33427,E,0.109,,140425,,,D*65

2025-04-14 12:01:37.979624 -- $GNRMC,100137.75,A,4541.56334,N,00457.33428,E,0.080,,140425,,,D*68

2025-04-14 12:01:38.187049 -- $GNRMC,100137.95,A,4541.56335,N,00457.33429,E,0.022,,140425,,,D*6E

2025-04-14 12:01:38.187382 -- $GNVTG,,T,,M,0.022,N,0.040,K,D*3C

2025-04-14 12:01:38.397591 -- $GNRMC,100138.15,A,4541.56335,N,00457.33429,E,0.006,,140425,,,D*6F

2025-04-14 12:01:38.397913 -- $GNVTG,,T,,M,0.006,N,0.010,K,D*3F

2025-04-14 12:01:38.587404 -- $GNRMC,100138.35,A,4541.56335,N,00457.33431,E,0.043,,140425,,,D*65

2025-04-14 12:01:38.587893 -- $GNVTG,,T,,M,0.043,N,0.080,K,D*37

2025-04-14 12:01:38.789175 -- $GNRMC,100138.55,A,4541.56336,N,00457.33431,E,0.043,,140425,,,D*60

2025-04-14 12:01:38.789665 -- $GNVTG,,T,,M,0.043,N,0.080,K,D*37

2025-04-14 12:01:38.984221 -- $GNRMC,100138.75,A,4541.56336,N,00457.33433,E,0.038,,140425,,,D*6C

2025-04-14 12:01:38.984806 -- $GNVTG,,T,,M,0.038,N,0.071,K,D*35

2025-04-14 12:01:39.193249 -- $GNRMC,100138.95,A,4541.56336,N,00457.33434,E,0.017,,140425,,,D*68

2025-04-14 12:01:39.193584 -- $GNVTG,,T,,M,0.017,N,0.031,K,D*3C

2025-04-14 12:01:39.779769 -- $GNRMC,100139.55,A,4541.56336,N,00457.33437,E,0.024,,140425,,,D*66

2025-04-14 12:01:39.780026 -- $GNVTG,,T,,M,0.024,N,0.045,K,D*3F

2025-04-14 12:01:39.976532 -- $GNRMC,100139.75,A,4541.56335,N,00457.33438,E,0.055,,140425,,,D*6E

2025-04-14 12:01:39.976742 -- $GNVTG,,T,,M,0.055,N,0.101,K,D*38

2025-04-14 12:01:40.187975 -- $GNRMC,100139.95,A,4541.56335,N,00457.33438,E,0.076,,140425,,,D*61

2025-04-14 12:01:40.188197 -- $GNVTG,,T,,M,0.076,N,0.140,K,D*3C

2025-04-14 12:01:40.395584 -- $GNRMC,100140.15,A,4541.56335,N,00457.33438,E,0.066,,140425,,,D*66

2025-04-14 12:01:40.395837 -- $GNVTG,,T,,M,0.066,N,0.122,K,D*39

2025-04-14 12:01:40.577835 -- $GNRMC,100140.35,A,4541.56335,N,00457.33439,E,0.083,,140425,,,D*6E

2025-04-14 12:01:40.781456 -- $GNRMC,100140.55,A,4541.56335,N,00457.33440,E,0.042,,140425,,,D*6B

2025-04-14 12:01:40.781787 -- $GNVTG,,T,,M,0.042,N,0.078,K,D*31

2025-04-14 12:01:41.585451 -- $GNRMC,100141.35,A,4541.56333,N,00457.33443,E,0.012,,140425,,,D*6C

2025-04-14 12:01:41.585804 -- $GNVTG,,T,,M,0.012,N,0.022,K,D*3B

2025-04-14 12:01:41.779503 -- $GNRMC,100141.55,A,4541.56332,N,00457.33443,E,0.046,,140425,,,D*6A

2025-04-14 12:01:41.779735 -- $GNVTG,,T,,M,0.046,N,0.085,K,D*37

2025-04-14 12:01:41.982644 -- $GNRMC,100141.75,A,4541.56332,N,00457.33443,E,0.035,,140425,,,D*6C

2025-04-14 12:01:41.986104 -- $GNVTG,,T,,M,0.035,N,0.064,K,D*3C

2025-04-14 12:01:42.196347 -- $GNRMC,100141.95,A,4541.56331,N,00457.33442,E,0.020,,140425,,,D*64

2025-04-14 12:01:42.390296 -- $GNRMC,100142.15,A,4541.56330,N,00457.33442,E,0.028,,140425,,,D*66

2025-04-14 12:01:42.390516 -- $GNVTG,,T,,M,0.028,N,0.051,K,D*36

2025-04-14 12:01:42.576077 -- $GNRMC,100142.35,A,4541.56330,N,00457.33442,E,0.063,,140425,,,D*6B

2025-04-14 12:01:42.780042 -- $GNRMC,100142.55,A,4541.56330,N,00457.33442,E,0.041,,140425,,,D*6D

2025-04-14 12:01:42.780269 -- $GNVTG,,T,,M,0.041,N,0.076,K,D*3C

2025-04-14 12:01:42.981421 -- $GNRMC,100142.75,A,4541.56330,N,00457.33443,E,0.024,,140425,,,D*6D

2025-04-14 12:01:43.404444 -- $GNRMC,100143.15,A,4541.56328,N,00457.33443,E,0.052,,140425,,,D*62

2025-04-14 12:01:43.404829 -- $GNVTG,,T,,M,0.052,N,0.097,K,D*31

2025-04-14 12:01:43.582590 -- $GNRMC,100143.35,A,4541.56328,N,00457.33443,E,0.058,,140425,,,D*6A

2025-04-14 12:01:43.786647 -- $GNRMC,100143.55,A,4541.56327,N,00457.33443,E,0.005,,140425,,,D*6B

2025-04-14 12:01:43.786914 -- $GNVTG,,T,,M,0.005,N,0.009,K,D*34

2025-04-14 12:01:43.979773 -- $GNRMC,100143.75,A,4541.56327,N,00457.33444,E,0.125,,140425,,,D*6D

2025-04-14 12:01:44.185617 -- $GNRMC,100143.95,A,4541.56326,N,00457.33445,E,0.019,,140425,,,D*6D

2025-04-14 12:01:44.401385 -- $GNRMC,100144.15,A,4541.56326,N,00457.33445,E,0.011,,140425,,,D*6A

2025-04-14 12:01:44.774470 -- $GNRMC,100144.55,A,4541.56325,N,00457.33446,E,0.030,,140425,,,D*6D

2025-04-14 12:01:44.774695 -- $GNVTG,,T,,M,0.030,N,0.056,K,D*38

2025-04-14 12:01:44.978395 -- $GNRMC,100144.75,A,4541.56325,N,00457.33445,E,0.049,,140425,,,D*62

2025-04-14 12:01:44.978765 -- $GNVTG,,T,,M,0.049,N,0.091,K,D*3D

2025-04-14 12:01:45.169886 -- $GNRMC,100144.95,A,4541.56324,N,00457.33446,E,0.040,,140425,,,D*67

2025-04-14 12:01:45.170251 -- $GNVTG,,T,,M,0.040,N,0.074,K,D*3F

2025-04-14 12:01:45.394862 -- $GNRMC,100145.15,A,4541.56324,N,00457.33446,E,0.043,,140425,,,D*6D

2025-04-14 12:01:45.395087 -- $GNVTG,,T,,M,0.043,N,0.080,K,D*37

2025-04-14 12:01:45.578159 -- $GNRMC,100145.35,A,4541.56323,N,00457.33446,E,0.044,,140425,,,D*6F

2025-04-14 12:01:45.579180 -- $GNVTG,,T,,M,0.044,N,0.081,K,D*31

2025-04-14 12:01:45.779052 -- $GNVTG,,T,,M,0.070,N,0.130,K,D*3D

2025-04-14 12:01:45.979475 -- $GNRMC,100145.75,A,4541.56324,N,00457.33446,E,0.028,,140425,,,D*66

2025-04-14 12:01:46.401932 -- $GNRMC,100146.15,A,4541.56323,N,00457.33446,E,0.021,,140425,,,D*6D

2025-04-14 12:01:46.402446 -- $GNVTG,,T,,M,0.021,N,0.039,K,D*31

2025-04-14 12:01:46.575245 -- $GNRMC,100146.35,A,4541.56323,N,00457.33445,E,0.020,,140425,,,D*6D

2025-04-14 12:01:46.575477 -- $GNVTG,,T,,M,0.020,N,0.037,K,D*3E

2025-04-14 12:01:46.777722 -- $GNRMC,100146.55,A,4541.56323,N,00457.33445,E,0.036,,140425,,,D*6C

2025-04-14 12:01:46.778005 -- $GNVTG,,T,,M,0.036,N,0.066,K,D*3D

2025-04-14 12:01:46.979224 -- $GNRMC,100146.75,A,4541.56322,N,00457.33445,E,0.062,,140425,,,D*6E

2025-04-14 12:01:47.187305 -- $GNRMC,100146.95,A,4541.56321,N,00457.33446,E,0.020,,140425,,,D*66

2025-04-14 12:01:47.187628 -- $GNVTG,,T,,M,0.020,N,0.036,K,D*3F

2025-04-14 12:01:47.399168 -- $GNRMC,100147.15,A,4541.56321,N,00457.33445,E,0.006,,140425,,,D*68

2025-04-14 12:01:47.578798 -- $GNRMC,100147.35,A,4541.56320,N,00457.33445,E,0.068,,140425,,,D*63

2025-04-14 12:01:47.579035 -- $GNVTG,,T,,M,0.068,N,0.126,K,D*33

2025-04-14 12:01:47.778949 -- $GNRMC,100147.55,A,4541.56319,N,00457.33445,E,0.030,,140425,,,D*62

2025-04-14 12:01:48.193095 -- $GNRMC,100147.95,A,4541.56317,N,00457.33445,E,0.030,,140425,,,D*60

2025-04-14 12:01:48.193431 -- $GNVTG,,T,,M,0.030,N,0.056,K,D*38

2025-04-14 12:01:48.394149 -- $GNRMC,100148.15,A,4541.56316,N,00457.33446,E,0.023,,140425,,,D*67

2025-04-14 12:01:48.394369 -- $GNVTG,,T,,M,0.023,N,0.043,K,D*3E

2025-04-14 12:01:48.580717 -- $GNRMC,100148.35,A,4541.56315,N,00457.33445,E,0.053,,140425,,,D*62

2025-04-14 12:01:48.779167 -- $GNRMC,100148.55,A,4541.56314,N,00457.33445,E,0.011,,140425,,,D*63

2025-04-14 12:01:48.779402 -- $GNVTG,,T,,M,0.011,N,0.021,K,D*3B

2025-04-14 12:01:48.980837 -- $GNRMC,100148.75,A,4541.56314,N,00457.33446,E,0.032,,140425,,,D*63

