2025-01-24 07:27:11.454578 -- $GNRMC,062711.00,A,4544.54603,N,00452.66166,E,6.284,215.47,240125,,,A*79

2025-01-24 07:27:12.454846 -- $GNRMC,062712.00,A,4544.54449,N,00452.66008,E,7.017,215.51,240125,,,A*71

2025-01-24 07:27:13.458556 -- $GNRMC,062713.00,A,4544.54285,N,00452.65821,E,7.548,217.72,240125,,,A*7A

2025-01-24 07:27:14.462265 -- $GNRMC,062714.00,A,4544.54121,N,00452.65608,E,7.835,221.46,240125,,,A*70

2025-01-24 07:27:15.458292 -- $GNRMC,062715.00,A,4544.53962,N,00452.65394,E,7.871,225.97,240125,,,D*74

2025-01-24 07:27:16.458698 -- $GNRMC,062716.00,A,4544.53808,N,00452.65171,E,7.942,225.70,240125,,,D*7B

2025-01-24 07:27:17.459102 -- $GNRMC,062717.00,A,4544.53655,N,00452.64941,E,8.010,225.14,240125,,,D*75

2025-01-24 07:27:18.498015 -- $GNRMC,062718.00,A,4544.53537,N,00452.64663,E,8.077,225.12,240125,,,D*75

2025-01-24 07:27:19.458443 -- $GNRMC,062719.00,A,4544.53393,N,00452.64425,E,8.099,226.08,240125,,,D*74

2025-01-24 07:27:20.476597 -- $GNRMC,062720.00,A,4544.53240,N,00452.64201,E,8.075,225.86,240125,,,D*76

2025-01-24 07:27:21.477677 -- $GNRMC,062721.00,A,4544.53077,N,00452.63968,E,8.493,225.12,240125,,,D*73

2025-01-24 07:27:22.459370 -- $GNRMC,062722.00,A,4544.52897,N,00452.63715,E,9.632,225.04,240125,,,D*7C

2025-01-24 07:27:23.454934 -- $GNRMC,062723.00,A,4544.52701,N,00452.63447,E,10.115,225.48,240125,,,D*4B

2025-01-24 07:27:24.446420 -- $GNRMC,062724.00,A,4544.52505,N,00452.63173,E,9.993,225.05,240125,,,D*7F

2025-01-24 07:27:25.448623 -- $GNRMC,062725.00,A,4544.52321,N,00452.62912,E,8.804,225.35,240125,,,D*7D

2025-01-24 07:27:26.455568 -- $GNRMC,062726.00,A,4544.52168,N,00452.62697,E,6.825,225.65,240125,,,D*7B

2025-01-24 07:27:27.448333 -- $GNRMC,062727.00,A,4544.52057,N,00452.62539,E,4.509,225.98,240125,,,D*73

2025-01-24 07:27:28.449099 -- $GNRMC,062728.00,A,4544.51990,N,00452.62446,E,2.303,224.74,240125,,,D*7D

2025-01-24 07:27:29.446450 -- $GNRMC,062729.00,A,4544.51961,N,00452.62408,E,0.520,227.89,240125,,,D*7C

2025-01-24 07:27:30.447553 -- $GNRMC,062730.00,A,4544.51957,N,00452.62403,E,0.025,,240125,,,D*62

2025-01-24 07:27:31.449205 -- $GNRMC,062731.00,A,4544.51958,N,00452.62405,E,0.019,,240125,,,D*65

2025-01-24 07:27:32.446867 -- $GNRMC,062732.00,A,4544.51956,N,00452.62410,E,0.030,,240125,,,D*67

2025-01-24 07:27:33.446444 -- $GNRMC,062733.00,A,4544.51955,N,00452.62413,E,0.032,,240125,,,D*64

2025-01-24 07:27:34.438611 -- $GNRMC,062734.00,A,4544.51951,N,00452.62416,E,0.030,,240125,,,D*60

2025-01-24 07:27:35.448302 -- $GNRMC,062735.00,A,4544.51947,N,00452.62418,E,0.035,,240125,,,D*6D

2025-01-24 07:27:36.448204 -- $GNRMC,062736.00,A,4544.51943,N,00452.62420,E,0.028,,240125,,,D*6D

2025-01-24 07:27:37.444908 -- $GNRMC,062737.00,A,4544.51937,N,00452.62422,E,0.010,,240125,,,D*66

2025-01-24 07:27:38.448247 -- $GNRMC,062738.00,A,4544.51932,N,00452.62424,E,0.029,,240125,,,D*60

2025-01-24 07:27:39.453913 -- $GNRMC,062739.00,A,4544.51926,N,00452.62426,E,0.052,,240125,,,D*6A

2025-01-24 07:27:40.448412 -- $GNRMC,062740.00,A,4544.51921,N,00452.62429,E,0.011,,240125,,,D*6B

2025-01-24 07:27:41.464562 -- $GNRMC,062741.00,A,4544.51915,N,00452.62432,E,0.014,,240125,,,D*62

2025-01-24 07:27:42.446625 -- $GNRMC,062742.00,A,4544.51909,N,00452.62434,E,0.017,,240125,,,D*69

2025-01-24 07:27:43.447220 -- $GNRMC,062743.00,A,4544.51903,N,00452.62433,E,0.025,,240125,,,D*64

2025-01-24 07:27:44.463371 -- $GNRMC,062744.00,A,4544.51897,N,00452.62433,E,0.037,,240125,,,D*6C

2025-01-24 07:27:45.454266 -- $GNRMC,062745.00,A,4544.51893,N,00452.62432,E,0.019,,240125,,,D*64

2025-01-24 07:27:46.451124 -- $GNRMC,062746.00,A,4544.51890,N,00452.62431,E,0.019,,240125,,,D*67

2025-01-24 07:27:47.452766 -- $GNRMC,062747.00,A,4544.51888,N,00452.62430,E,0.026,,240125,,,D*62

2025-01-24 07:27:48.448349 -- $GNRMC,062748.00,A,4544.51887,N,00452.62428,E,0.055,,240125,,,D*6F

2025-01-24 07:27:49.461289 -- $GNRMC,062749.00,A,4544.51887,N,00452.62426,E,0.011,,240125,,,D*60

2025-01-24 07:27:50.463623 -- $GNRMC,062750.00,A,4544.51887,N,00452.62425,E,0.006,,240125,,,D*6D

2025-01-24 07:27:51.462570 -- $GNRMC,062751.00,A,4544.51889,N,00452.62424,E,0.008,,240125,,,D*6D

2025-01-24 07:27:52.463125 -- $GNRMC,062752.00,A,4544.51890,N,00452.62423,E,0.017,,240125,,,D*6F

2025-01-24 07:27:53.461077 -- $GNRMC,062753.00,A,4544.51892,N,00452.62423,E,0.012,,240125,,,D*69

2025-01-24 07:27:54.461347 -- $GNRMC,062754.00,A,4544.51893,N,00452.62424,E,0.022,,240125,,,D*6B

2025-01-24 07:27:55.459939 -- $GNRMC,062755.00,A,4544.51896,N,00452.62424,E,0.019,,240125,,,D*67

2025-01-24 07:27:56.451779 -- $GNRMC,062756.00,A,4544.51898,N,00452.62427,E,0.019,,240125,,,D*69

2025-01-24 07:27:57.466127 -- $GNRMC,062757.00,A,4544.51900,N,00452.62427,E,0.040,,240125,,,D*64

2025-01-24 07:27:58.452697 -- $GNRMC,062758.00,A,4544.51903,N,00452.62428,E,0.004,,240125,,,D*67

2025-01-24 07:27:59.461466 -- $GNRMC,062759.00,A,4544.51905,N,00452.62431,E,0.009,,240125,,,D*65

2025-01-24 07:28:00.464022 -- $GNRMC,062800.00,A,4544.51908,N,00452.62431,E,0.006,,240125,,,D*64

2025-01-24 07:28:01.465534 -- $GNRMC,062801.00,A,4544.51910,N,00452.62432,E,0.026,,240125,,,D*6D

2025-01-24 07:28:02.468492 -- $GNRMC,062802.00,A,4544.51912,N,00452.62432,E,0.013,,240125,,,D*6A

2025-01-24 07:28:03.462448 -- $GNRMC,062803.00,A,4544.51914,N,00452.62433,E,0.039,,240125,,,D*64

2025-01-24 07:28:04.458829 -- $GNRMC,062804.00,A,4544.51916,N,00452.62432,E,0.031,,240125,,,D*68

2025-01-24 07:28:05.460258 -- $GNRMC,062805.00,A,4544.51916,N,00452.62432,E,0.006,,240125,,,D*6D

2025-01-24 07:28:06.469107 -- $GNRMC,062806.00,A,4544.51918,N,00452.62433,E,0.021,,240125,,,D*64

2025-01-24 07:28:07.457193 -- $GNRMC,062807.00,A,4544.51921,N,00452.62434,E,0.030,,240125,,,D*68

2025-01-24 07:28:08.467821 -- $GNRMC,062808.00,A,4544.51924,N,00452.62435,E,0.018,,240125,,,D*69

2025-01-24 07:28:09.464969 -- $GNRMC,062809.00,A,4544.51926,N,00452.62436,E,0.024,,240125,,,D*66

2025-01-24 07:28:10.466298 -- $GNRMC,062810.00,A,4544.51929,N,00452.62438,E,0.019,,240125,,,D*61

2025-01-24 07:28:11.467082 -- $GNRMC,062811.00,A,4544.51931,N,00452.62440,E,0.034,,240125,,,D*69

2025-01-24 07:28:12.459380 -- $GNRMC,062812.00,A,4544.51934,N,00452.62442,E,0.018,,240125,,,D*63

2025-01-24 07:28:13.472022 -- $GNRMC,062813.00,A,4544.51936,N,00452.62446,E,0.017,,240125,,,D*6B

2025-01-24 07:28:14.467965 -- $GNRMC,062814.00,A,4544.51937,N,00452.62451,E,0.013,,240125,,,D*6F

2025-01-24 07:28:15.469174 -- $GNRMC,062815.00,A,4544.51939,N,00452.62454,E,0.024,,240125,,,D*61

2025-01-24 07:28:16.464892 -- $GNRMC,062816.00,A,4544.51939,N,00452.62460,E,0.027,,240125,,,D*66

2025-01-24 07:28:17.459200 -- $GNRMC,062817.00,A,4544.51941,N,00452.62465,E,0.012,,240125,,,D*6B

2025-01-24 07:28:18.446343 -- $GNRMC,062818.00,A,4544.51942,N,00452.62472,E,0.017,,240125,,,D*64

2025-01-24 07:28:19.458753 -- $GNRMC,062819.00,A,4544.51942,N,00452.62479,E,0.016,,240125,,,D*6F

2025-01-24 07:28:20.462080 -- $GNRMC,062820.00,A,4544.51942,N,00452.62485,E,0.008,,240125,,,D*69

2025-01-24 07:28:21.467887 -- $GNRMC,062821.00,A,4544.51942,N,00452.62490,E,0.014,,240125,,,D*61

2025-01-24 07:28:22.459208 -- $GNRMC,062822.00,A,4544.51942,N,00452.62495,E,0.008,,240125,,,D*6A

2025-01-24 07:28:23.460659 -- $GNRMC,062823.00,A,4544.51941,N,00452.62499,E,0.036,,240125,,,D*69

2025-01-24 07:28:24.459939 -- $GNRMC,062824.00,A,4544.51939,N,00452.62499,E,0.034,,240125,,,D*63

2025-01-24 07:28:25.456024 -- $GNRMC,062825.00,A,4544.51938,N,00452.62497,E,0.034,,240125,,,D*6D

2025-01-24 07:28:26.463803 -- $GNRMC,062826.00,A,4544.51938,N,00452.62496,E,0.015,,240125,,,D*6C

2025-01-24 07:28:27.478556 -- $GNRMC,062827.00,A,4544.51938,N,00452.62495,E,0.034,,240125,,,D*6D

2025-01-24 07:28:28.460449 -- $GNRMC,062828.00,A,4544.51938,N,00452.62492,E,0.038,,240125,,,D*69

2025-01-24 07:28:29.452591 -- $GNRMC,062829.00,A,4544.51940,N,00452.62486,E,0.024,,240125,,,D*6F

2025-01-24 07:28:30.459457 -- $GNRMC,062830.00,A,4544.51941,N,00452.62482,E,0.047,,240125,,,D*67

2025-01-24 07:28:31.479103 -- $GNRMC,062831.00,A,4544.51942,N,00452.62479,E,0.026,,240125,,,D*66

2025-01-24 07:28:32.461527 -- $GNRMC,062832.00,A,4544.51943,N,00452.62475,E,0.005,,240125,,,D*69

2025-01-24 07:28:33.482905 -- $GNRMC,062833.00,A,4544.51942,N,00452.62469,E,0.013,,240125,,,D*63

2025-01-24 07:28:34.466400 -- $GNRMC,062834.00,A,4544.51942,N,00452.62461,E,0.015,,240125,,,D*6A

2025-01-24 07:28:35.459749 -- $GNRMC,062835.00,A,4544.51939,N,00452.62453,E,0.018,,240125,,,D*6B

2025-01-24 07:28:36.458599 -- $GNRMC,062836.00,A,4544.51935,N,00452.62440,E,0.048,,240125,,,D*63

2025-01-24 07:28:37.460860 -- $GNRMC,062837.00,A,4544.51932,N,00452.62428,E,0.041,,240125,,,D*62

2025-01-24 07:28:38.460848 -- $GNRMC,062838.00,A,4544.51928,N,00452.62416,E,0.030,,240125,,,D*6D

2025-01-24 07:28:39.461901 -- $GNRMC,062839.00,A,4544.51925,N,00452.62407,E,0.042,,240125,,,D*64

2025-01-24 07:28:40.459153 -- $GNRMC,062840.00,A,4544.51924,N,00452.62400,E,0.029,,240125,,,D*61

2025-01-24 07:28:41.470354 -- $GNRMC,062841.00,A,4544.51923,N,00452.62394,E,0.029,,240125,,,D*6D

2025-01-24 07:28:42.466318 -- $GNRMC,062842.00,A,4544.51922,N,00452.62391,E,0.038,,240125,,,D*6A

2025-01-24 07:28:43.457254 -- $GNRMC,062843.00,A,4544.51922,N,00452.62389,E,0.047,,240125,,,D*6A

2025-01-24 07:28:44.465291 -- $GNRMC,062844.00,A,4544.51920,N,00452.62389,E,0.049,,240125,,,D*61

2025-01-24 07:28:45.466823 -- $GNRMC,062845.00,A,4544.51918,N,00452.62390,E,0.016,,240125,,,D*69

2025-01-24 07:28:46.464374 -- $GNRMC,062846.00,A,4544.51917,N,00452.62393,E,0.024,,240125,,,D*67

2025-01-24 07:28:47.452566 -- $GNRMC,062847.00,A,4544.51914,N,00452.62396,E,0.024,,240125,,,D*60

2025-01-24 07:28:48.458468 -- $GNRMC,062848.00,A,4544.51912,N,00452.62400,E,0.040,,240125,,,D*63

2025-01-24 07:28:49.464915 -- $GNRMC,062849.00,A,4544.51910,N,00452.62406,E,0.015,,240125,,,D*66

2025-01-24 07:28:50.453391 -- $GNRMC,062850.00,A,4544.51907,N,00452.62412,E,0.030,,240125,,,D*6A

2025-01-24 07:28:51.451658 -- $GNRMC,062851.00,A,4544.51906,N,00452.62417,E,0.030,,240125,,,D*6F

2025-01-24 07:28:52.458610 -- $GNRMC,062852.00,A,4544.51904,N,00452.62423,E,0.032,,240125,,,D*6B

2025-01-24 07:28:53.462760 -- $GNRMC,062853.00,A,4544.51901,N,00452.62428,E,0.014,,240125,,,D*60

2025-01-24 07:28:54.460149 -- $GNRMC,062854.00,A,4544.51898,N,00452.62435,E,0.010,,240125,,,D*6E

2025-01-24 07:28:55.468650 -- $GNRMC,062855.00,A,4544.51895,N,00452.62440,E,0.005,,240125,,,D*64

2025-01-24 07:28:56.465644 -- $GNRMC,062856.00,A,4544.51893,N,00452.62446,E,0.011,,240125,,,D*62

2025-01-24 07:28:57.464813 -- $GNRMC,062857.00,A,4544.51892,N,00452.62453,E,0.004,,240125,,,D*62

2025-01-24 07:28:58.458576 -- $GNRMC,062858.00,A,4544.51891,N,00452.62461,E,0.013,,240125,,,D*69

2025-01-24 07:28:59.457642 -- $GNRMC,062859.00,A,4544.51890,N,00452.62466,E,0.033,,240125,,,D*6C

2025-01-24 07:29:00.482863 -- $GNRMC,062900.00,A,4544.51888,N,00452.62471,E,0.021,,240125,,,D*6D

2025-01-24 07:29:01.462030 -- $GNRMC,062901.00,A,4544.51888,N,00452.62474,E,0.017,,240125,,,D*6C

2025-01-24 07:29:02.463454 -- $GNRMC,062902.00,A,4544.51888,N,00452.62476,E,0.017,,240125,,,D*6D

2025-01-24 07:29:03.458998 -- $GNRMC,062903.00,A,4544.51888,N,00452.62477,E,0.022,,240125,,,D*6B

2025-01-24 07:29:04.462804 -- $GNRMC,062904.00,A,4544.51889,N,00452.62478,E,0.027,,240125,,,D*67

2025-01-24 07:29:05.448788 -- $GNRMC,062905.00,A,4544.51890,N,00452.62478,E,0.029,,240125,,,D*60

2025-01-24 07:29:06.461446 -- $GNRMC,062906.00,A,4544.51891,N,00452.62478,E,0.023,,240125,,,D*68

2025-01-24 07:29:07.463485 -- $GNRMC,062907.00,A,4544.51893,N,00452.62478,E,0.017,,240125,,,D*6C

2025-01-24 07:29:08.471126 -- $GNRMC,062908.00,A,4544.51895,N,00452.62474,E,0.017,,240125,,,D*69

2025-01-24 07:29:09.457914 -- $GNRMC,062909.00,A,4544.51897,N,00452.62472,E,0.020,,240125,,,D*68

2025-01-24 07:29:10.458044 -- $GNRMC,062910.00,A,4544.51899,N,00452.62467,E,0.060,,240125,,,D*6E

2025-01-24 07:29:11.466077 -- $GNRMC,062911.00,A,4544.51903,N,00452.62461,E,0.013,,240125,,,D*6F

2025-01-24 07:29:12.461746 -- $GNRMC,062912.00,A,4544.51904,N,00452.62457,E,0.048,,240125,,,D*60

2025-01-24 07:29:13.473129 -- $GNRMC,062913.00,A,4544.51907,N,00452.62451,E,0.045,,240125,,,D*69

2025-01-24 07:29:14.466225 -- $GNRMC,062914.00,A,4544.51907,N,00452.62445,E,0.032,,240125,,,D*6B

2025-01-24 07:29:15.462338 -- $GNRMC,062915.00,A,4544.51907,N,00452.62439,E,0.053,,240125,,,D*66

2025-01-24 07:29:16.463697 -- $GNRMC,062916.00,A,4544.51906,N,00452.62433,E,0.062,,240125,,,D*6C

2025-01-24 07:29:17.465346 -- $GNRMC,062917.00,A,4544.51904,N,00452.62428,E,0.011,,240125,,,D*61

2025-01-24 07:29:18.465978 -- $GNRMC,062918.00,A,4544.51901,N,00452.62424,E,0.044,,240125,,,D*67

2025-01-24 07:29:19.469965 -- $GNRMC,062919.00,A,4544.51897,N,00452.62418,E,0.045,,240125,,,D*66

2025-01-24 07:29:20.485760 -- $GNRMC,062920.00,A,4544.51892,N,00452.62414,E,0.023,,240125,,,D*65

2025-01-24 07:29:21.475025 -- $GNRMC,062921.00,A,4544.51889,N,00452.62410,E,0.004,,240125,,,D*6F

2025-01-24 07:29:22.470688 -- $GNRMC,062922.00,A,4544.51886,N,00452.62407,E,0.011,,240125,,,D*61

2025-01-24 07:29:23.460383 -- $GNRMC,062923.00,A,4544.51882,N,00452.62403,E,0.020,,240125,,,D*62

2025-01-24 07:29:24.457756 -- $GNRMC,062924.00,A,4544.51876,N,00452.62400,E,0.037,,240125,,,D*6B

2025-01-24 07:29:25.466276 -- $GNRMC,062925.00,A,4544.51871,N,00452.62397,E,0.030,,240125,,,D*63

2025-01-24 07:29:26.465803 -- $GNRMC,062926.00,A,4544.51866,N,00452.62393,E,0.035,,240125,,,D*67

2025-01-24 07:29:27.458323 -- $GNRMC,062927.00,A,4544.51863,N,00452.62386,E,0.036,,240125,,,D*64

2025-01-24 07:29:28.464556 -- $GNRMC,062928.00,A,4544.51860,N,00452.62378,E,0.039,,240125,,,D*66

2025-01-24 07:29:29.463288 -- $GNRMC,062929.00,A,4544.51856,N,00452.62370,E,0.024,,240125,,,D*66

2025-01-24 07:29:30.465184 -- $GNRMC,062930.00,A,4544.51853,N,00452.62364,E,0.041,,240125,,,D*6D

2025-01-24 07:29:31.468261 -- $GNRMC,062931.00,A,4544.51852,N,00452.62356,E,0.022,,240125,,,D*69

2025-01-24 07:29:32.460830 -- $GNRMC,062932.00,A,4544.51850,N,00452.62352,E,0.036,,240125,,,D*69

2025-01-24 07:29:33.467056 -- $GNRMC,062933.00,A,4544.51850,N,00452.62348,E,0.049,,240125,,,D*6B

2025-01-24 07:29:34.460438 -- $GNRMC,062934.00,A,4544.51852,N,00452.62345,E,0.036,,240125,,,D*6B

2025-01-24 07:29:35.461108 -- $GNRMC,062935.00,A,4544.51853,N,00452.62342,E,0.025,,240125,,,D*6E

2025-01-24 07:29:36.460408 -- $GNRMC,062936.00,A,4544.51857,N,00452.62339,E,0.009,,240125,,,D*6B

2025-01-24 07:29:37.464869 -- $GNRMC,062937.00,A,4544.51860,N,00452.62336,E,0.014,,240125,,,D*6D

2025-01-24 07:29:38.460764 -- $GNRMC,062938.00,A,4544.51864,N,00452.62334,E,0.022,,240125,,,D*61

2025-01-24 07:29:39.468689 -- $GNRMC,062939.00,A,4544.51867,N,00452.62332,E,0.019,,240125,,,D*6D

2025-01-24 07:29:40.469881 -- $GNRMC,062940.00,A,4544.51870,N,00452.62331,E,0.008,,240125,,,D*66

2025-01-24 07:29:41.465499 -- $GNRMC,062941.00,A,4544.51873,N,00452.62329,E,0.023,,240125,,,D*64

2025-01-24 07:29:42.461689 -- $GNRMC,062942.00,A,4544.51878,N,00452.62325,E,0.028,,240125,,,D*6B

2025-01-24 07:29:43.463015 -- $GNRMC,062943.00,A,4544.51883,N,00452.62321,E,0.042,,240125,,,D*66

2025-01-24 07:29:44.463113 -- $GNRMC,062944.00,A,4544.51890,N,00452.62315,E,0.047,,240125,,,D*61

2025-01-24 07:29:45.454142 -- $GNRMC,062945.00,A,4544.51896,N,00452.62310,E,0.010,,240125,,,D*61

2025-01-24 07:29:46.469416 -- $GNRMC,062946.00,A,4544.51901,N,00452.62308,E,0.023,,240125,,,D*64

2025-01-24 07:29:47.460503 -- $GNRMC,062947.00,A,4544.51912,N,00452.62289,E,0.047,,240125,,,D*6D

2025-01-24 07:29:48.449044 -- $GNRMC,062948.00,A,4544.51922,N,00452.62274,E,0.046,,240125,,,D*62

2025-01-24 07:29:49.450387 -- $GNRMC,062949.00,A,4544.51929,N,00452.62264,E,0.059,,240125,,,D*67

2025-01-24 07:29:50.467724 -- $GNRMC,062950.00,A,4544.51935,N,00452.62260,E,0.059,,240125,,,D*66

2025-01-24 07:29:51.455827 -- $GNRMC,062951.00,A,4544.51939,N,00452.62258,E,0.068,,240125,,,D*62

2025-01-24 07:29:52.457929 -- $GNRMC,062952.00,A,4544.51942,N,00452.62263,E,0.016,,240125,,,D*6C

2025-01-24 07:29:53.450191 -- $GNRMC,062953.00,A,4544.51943,N,00452.62272,E,0.014,,240125,,,D*6E

2025-01-24 07:29:54.450435 -- $GNRMC,062954.00,A,4544.51945,N,00452.62280,E,0.011,,240125,,,D*67

2025-01-24 07:29:55.455455 -- $GNRMC,062955.00,A,4544.51949,N,00452.62291,E,0.006,,240125,,,D*6C

2025-01-24 07:29:56.450845 -- $GNRMC,062956.00,A,4544.51953,N,00452.62304,E,0.009,,240125,,,D*66

2025-01-24 07:29:57.451908 -- $GNRMC,062957.00,A,4544.51955,N,00452.62311,E,0.029,,240125,,,D*67

2025-01-24 07:29:58.446316 -- $GNRMC,062958.00,A,4544.51954,N,00452.62314,E,0.007,,240125,,,D*60

2025-01-24 07:29:59.457103 -- $GNRMC,062959.00,A,4544.51949,N,00452.62315,E,0.014,,240125,,,D*6E

2025-01-24 07:30:00.461464 -- $GNRMC,063000.00,A,4544.51945,N,00452.62312,E,0.029,,240125,,,D*6F

2025-01-24 07:30:01.452502 -- $GNRMC,063001.00,A,4544.51941,N,00452.62306,E,0.015,,240125,,,D*60

2025-01-24 07:30:02.472454 -- $GNRMC,063002.00,A,4544.51939,N,00452.62303,E,0.022,,240125,,,D*6D

2025-01-24 07:30:03.449950 -- $GNRMC,063003.00,A,4544.51936,N,00452.62297,E,0.013,,240125,,,D*6D

2025-01-24 07:30:04.458437 -- $GNRMC,063004.00,A,4544.51932,N,00452.62293,E,0.019,,240125,,,D*60

2025-01-24 07:30:05.458155 -- $GNRMC,063005.00,A,4544.51927,N,00452.62288,E,0.040,,240125,,,D*63

2025-01-24 07:30:06.451444 -- $GNRMC,063006.00,A,4544.51924,N,00452.62281,E,0.021,,240125,,,D*6D

2025-01-24 07:30:07.452710 -- $GNRMC,063007.00,A,4544.51921,N,00452.62275,E,0.063,,240125,,,D*64

2025-01-24 07:30:08.467034 -- $GNRMC,063008.00,A,4544.51916,N,00452.62273,E,0.044,,240125,,,D*6C

2025-01-24 07:30:09.452785 -- $GNRMC,063009.00,A,4544.51912,N,00452.62270,E,0.034,,240125,,,D*6D

2025-01-24 07:30:10.463105 -- $GNRMC,063010.00,A,4544.51906,N,00452.62269,E,0.046,,240125,,,D*6D

2025-01-24 07:30:11.477687 -- $GNRMC,063011.00,A,4544.51899,N,00452.62270,E,0.046,,240125,,,D*63

2025-01-24 07:30:12.474690 -- $GNRMC,063012.00,A,4544.51889,N,00452.62275,E,0.014,,240125,,,D*63

2025-01-24 07:30:13.480876 -- $GNRMC,063013.00,A,4544.51877,N,00452.62280,E,0.037,,240125,,,D*68

2025-01-24 07:30:14.478518 -- $GNRMC,063014.00,A,4544.51858,N,00452.62274,E,0.032,,240125,,,D*6C

2025-01-24 07:30:15.464507 -- $GNRMC,063015.00,A,4544.51844,N,00452.62277,E,0.028,,240125,,,D*68

2025-01-24 07:30:16.462847 -- $GNRMC,063016.00,A,4544.51834,N,00452.62288,E,0.018,,240125,,,D*6F

2025-01-24 07:30:17.461099 -- $GNRMC,063017.00,A,4544.51828,N,00452.62299,E,0.016,,240125,,,D*6D

2025-01-24 07:30:18.461309 -- $GNRMC,063018.00,A,4544.51821,N,00452.62315,E,0.018,,240125,,,D*60

2025-01-24 07:30:19.465930 -- $GNRMC,063019.00,A,4544.51817,N,00452.62332,E,0.011,,240125,,,D*68

2025-01-24 07:30:20.462161 -- $GNRMC,063020.00,A,4544.51814,N,00452.62348,E,0.024,,240125,,,D*6A

2025-01-24 07:30:21.461223 -- $GNRMC,063021.00,A,4544.51815,N,00452.62356,E,0.018,,240125,,,D*6A

2025-01-24 07:30:22.465870 -- $GNRMC,063022.00,A,4544.51809,N,00452.62376,E,0.018,,240125,,,D*66

2025-01-24 07:30:23.461325 -- $GNRMC,063023.00,A,4544.51806,N,00452.62390,E,0.004,,240125,,,D*6D

2025-01-24 07:30:24.458704 -- $GNRMC,063024.00,A,4544.51804,N,00452.62403,E,0.012,,240125,,,D*62

2025-01-24 07:30:25.456497 -- $GNRMC,063025.00,A,4544.51804,N,00452.62414,E,0.006,,240125,,,D*60

2025-01-24 07:30:26.466338 -- $GNRMC,063026.00,A,4544.51805,N,00452.62421,E,0.020,,240125,,,D*60

2025-01-24 07:30:27.464848 -- $GNRMC,063027.00,A,4544.51806,N,00452.62428,E,0.011,,240125,,,D*69

2025-01-24 07:30:28.459272 -- $GNRMC,063028.00,A,4544.51809,N,00452.62431,E,0.013,,240125,,,D*63

2025-01-24 07:30:29.468420 -- $GNRMC,063029.00,A,4544.51813,N,00452.62433,E,0.017,,240125,,,D*6F

2025-01-24 07:30:30.463132 -- $GNRMC,063030.00,A,4544.51817,N,00452.62435,E,0.021,,240125,,,D*60

2025-01-24 07:30:31.470920 -- $GNRMC,063031.00,A,4544.51821,N,00452.62439,E,0.033,,240125,,,D*6B

2025-01-24 07:30:32.480532 -- $GNRMC,063032.00,A,4544.51827,N,00452.62448,E,0.245,,240125,,,D*6B

2025-01-24 07:30:33.468374 -- $GNRMC,063033.00,A,4544.51841,N,00452.62466,E,0.564,47.34,240125,,,D*48

2025-01-24 07:30:34.460044 -- $GNRMC,063034.00,A,4544.51855,N,00452.62479,E,0.629,36.75,240125,,,D*4D

2025-01-24 07:30:35.460174 -- $GNRMC,063035.00,A,4544.51875,N,00452.62505,E,0.659,44.36,240125,,,D*41

2025-01-24 07:30:36.448565 -- $GNRMC,063036.00,A,4544.51890,N,00452.62520,E,0.534,42.24,240125,,,D*43

2025-01-24 07:30:37.458541 -- $GNRMC,063037.00,A,4544.51899,N,00452.62535,E,0.425,,240125,,,D*60

2025-01-24 07:30:38.469769 -- $GNRMC,063038.00,A,4544.51908,N,00452.62546,E,0.331,,240125,,,D*60

2025-01-24 07:30:39.466846 -- $GNRMC,063039.00,A,4544.51914,N,00452.62554,E,0.208,,240125,,,D*64

2025-01-24 07:30:40.461129 -- $GNRMC,063040.00,A,4544.51927,N,00452.62545,E,0.069,,240125,,,D*6F

2025-01-24 07:30:41.466825 -- $GNRMC,063041.00,A,4544.51928,N,00452.62538,E,0.059,,240125,,,D*68

2025-01-24 07:30:42.482345 -- $GNRMC,063042.00,A,4544.51930,N,00452.62532,E,0.063,,240125,,,D*61

2025-01-24 07:30:43.470129 -- $GNRMC,063043.00,A,4544.51932,N,00452.62526,E,0.056,,240125,,,D*61

2025-01-24 07:30:44.477411 -- $GNRMC,063044.00,A,4544.51937,N,00452.62522,E,0.279,,240125,,,D*68

2025-01-24 07:30:45.463582 -- $GNRMC,063045.00,A,4544.51958,N,00452.62532,E,1.767,43.08,240125,,,D*4B

2025-01-24 07:30:46.464876 -- $GNRMC,063046.00,A,4544.52002,N,00452.62584,E,2.607,45.13,240125,,,D*48

2025-01-24 07:30:47.450477 -- $GNRMC,063047.00,A,4544.52061,N,00452.62664,E,3.330,42.71,240125,,,D*42

2025-01-24 07:30:48.467333 -- $GNRMC,063048.00,A,4544.52140,N,00452.62765,E,4.101,44.39,240125,,,D*42

2025-01-24 07:30:49.466559 -- $GNRMC,063049.00,A,4544.52228,N,00452.62893,E,4.853,44.96,240125,,,D*43

2025-01-24 07:30:50.466990 -- $GNRMC,063050.00,A,4544.52335,N,00452.63039,E,5.574,44.82,240125,,,D*43

2025-01-24 07:30:51.464270 -- $GNRMC,063051.00,A,4544.52453,N,00452.63207,E,6.289,45.10,240125,,,D*46

2025-01-24 07:30:52.470186 -- $GNRMC,063052.00,A,4544.52581,N,00452.63399,E,6.881,45.31,240125,,,D*4C

2025-01-24 07:30:53.480626 -- $GNRMC,063053.00,A,4544.52717,N,00452.63600,E,6.931,45.02,240125,,,D*4F

2025-01-24 07:30:54.469384 -- $GNRMC,063054.00,A,4544.52855,N,00452.63797,E,6.884,45.32,240125,,,D*42

2025-01-24 07:30:55.488836 -- $GNRMC,063055.00,A,4544.52991,N,00452.63995,E,6.816,45.32,240125,,,D*4D

2025-01-24 07:30:56.487621 -- $GNRMC,063056.00,A,4544.53118,N,00452.64197,E,6.641,45.26,240125,,,D*42

2025-01-24 07:30:57.494068 -- $GNRMC,063057.00,A,4544.53245,N,00452.64386,E,6.430,45.19,240125,,,D*42

2025-01-24 07:30:58.482038 -- $GNRMC,063058.00,A,4544.53373,N,00452.64558,E,6.154,45.51,240125,,,D*47

2025-01-24 07:30:59.502164 -- $GNRMC,063059.00,A,4544.53493,N,00452.64727,E,5.902,45.33,240125,,,D*49

2025-01-24 07:31:00.499709 -- $GNRMC,063100.00,A,4544.53608,N,00452.64886,E,5.736,44.35,240125,,,D*4E

2025-01-24 07:31:01.481676 -- $GNRMC,063101.00,A,4544.53722,N,00452.65041,E,5.497,44.89,240125,,,D*4B

2025-01-24 07:31:02.488394 -- $GNRMC,063102.00,A,4544.53830,N,00452.65190,E,5.107,45.59,240125,,,D*49

2025-01-24 07:31:03.485622 -- $GNRMC,063103.00,A,4544.53929,N,00452.65328,E,4.683,44.88,240125,,,D*47

2025-01-24 07:31:04.484653 -- $GNRMC,063104.00,A,4544.54018,N,00452.65451,E,4.228,44.52,240125,,,D*47

2025-01-24 07:31:05.473944 -- $GNRMC,063105.00,A,4544.54101,N,00452.65568,E,4.135,47.62,240125,,,D*4B

2025-01-24 07:31:06.483446 -- $GNRMC,063106.00,A,4544.54191,N,00452.65711,E,5.491,50.67,240125,,,D*44

2025-01-24 07:31:07.482849 -- $GNRMC,063107.00,A,4544.54295,N,00452.65902,E,6.584,55.03,240125,,,D*4F

2025-01-24 07:31:08.484242 -- $GNRMC,063108.00,A,4544.54408,N,00452.66120,E,6.952,53.79,240125,,,D*45

2025-01-24 07:31:09.475632 -- $GNRMC,063109.00,A,4544.54527,N,00452.66341,E,6.969,54.28,240125,,,D*46

2025-01-24 07:31:10.477703 -- $GNRMC,063110.00,A,4544.54648,N,00452.66569,E,7.146,52.93,240125,,,D*4A

2025-01-24 07:31:11.482203 -- $GNRMC,063111.00,A,4544.54773,N,00452.66805,E,7.451,52.23,240125,,,D*4D

2025-01-24 07:31:12.471628 -- $GNRMC,063112.00,A,4544.54909,N,00452.67030,E,7.408,47.17,240125,,,D*4D

2025-01-24 07:31:13.479662 -- $GNRMC,063113.00,A,4544.55054,N,00452.67240,E,7.512,44.04,240125,,,D*42

2025-01-24 07:31:14.479377 -- $GNRMC,063114.00,A,4544.55204,N,00452.67443,E,7.183,43.08,240125,,,D*40

2025-01-24 07:31:15.484665 -- $GNRMC,063115.00,A,4544.55357,N,00452.67641,E,7.677,43.42,240125,,,D*44

2025-01-24 07:31:16.472183 -- $GNRMC,063116.00,A,4544.55508,N,00452.67845,E,7.538,45.06,240125,,,D*4F

2025-01-24 07:31:17.478218 -- $GNRMC,063117.00,A,4544.55648,N,00452.68079,E,7.764,54.67,240125,,,D*4D

2025-01-24 07:31:18.480846 -- $GNRMC,063118.00,A,4544.55758,N,00452.68339,E,7.715,63.60,240125,,,D*40

2025-01-24 07:31:19.482632 -- $GNRMC,063119.00,A,4544.55833,N,00452.68642,E,7.653,71.83,240125,,,D*47

2025-01-24 07:31:20.482277 -- $GNRMC,063120.00,A,4544.55899,N,00452.68931,E,7.547,78.58,240125,,,D*4F

2025-01-24 07:31:21.484392 -- $GNRMC,063121.00,A,4544.55937,N,00452.69234,E,7.456,84.76,240125,,,D*4A

2025-01-24 07:31:22.485251 -- $GNRMC,063122.00,A,4544.55945,N,00452.69539,E,7.401,90.58,240125,,,D*4D

2025-01-24 07:31:23.467280 -- $GNRMC,063123.00,A,4544.55932,N,00452.69844,E,7.418,94.54,240125,,,D*4B

2025-01-24 07:31:24.482711 -- $GNRMC,063124.00,A,4544.55903,N,00452.70146,E,7.430,98.42,240125,,,D*4C

2025-01-24 07:31:25.469263 -- $GNRMC,063125.00,A,4544.55873,N,00452.70431,E,7.294,101.44,240125,,,D*71

2025-01-24 07:31:26.474960 -- $GNRMC,063126.00,A,4544.55838,N,00452.70706,E,7.020,102.18,240125,,,D*7D

2025-01-24 07:31:27.467020 -- $GNRMC,063127.00,A,4544.55799,N,00452.70971,E,6.797,103.33,240125,,,D*74

2025-01-24 07:31:28.476329 -- $GNRMC,063128.00,A,4544.55757,N,00452.71230,E,6.634,104.19,240125,,,D*71

2025-01-24 07:31:29.470995 -- $GNRMC,063129.00,A,4544.55711,N,00452.71480,E,6.365,103.23,240125,,,D*70

2025-01-24 07:31:30.472709 -- $GNRMC,063130.00,A,4544.55665,N,00452.71726,E,6.158,103.67,240125,,,D*79

2025-01-24 07:31:31.490951 -- $GNRMC,063131.00,A,4544.55617,N,00452.71971,E,6.041,103.31,240125,,,D*7B

2025-01-24 07:31:32.478668 -- $GNRMC,063132.00,A,4544.55574,N,00452.72209,E,6.255,103.44,240125,,,D*7C

2025-01-24 07:31:33.477119 -- $GNRMC,063133.00,A,4544.55530,N,00452.72466,E,6.695,103.75,240125,,,D*78

2025-01-24 07:31:34.475074 -- $GNRMC,063134.00,A,4544.55483,N,00452.72734,E,7.045,104.15,240125,,,D*79

2025-01-24 07:31:35.503100 -- $GNRMC,063135.00,A,4544.55425,N,00452.73014,E,7.123,103.13,240125,,,D*70

2025-01-24 07:31:36.460083 -- $GNRMC,063136.00,A,4544.55374,N,00452.73285,E,6.981,103.68,240125,,,D*77

2025-01-24 07:31:37.463375 -- $GNRMC,063137.00,A,4544.55327,N,00452.73547,E,6.859,103.92,240125,,,D*78

2025-01-24 07:31:38.462190 -- $GNRMC,063138.00,A,4544.55277,N,00452.73819,E,6.694,103.05,240125,,,D*74

2025-01-24 07:31:39.468196 -- $GNRMC,063139.00,A,4544.55229,N,00452.74062,E,5.629,104.23,240125,,,D*7B

2025-01-24 07:31:40.472337 -- $GNRMC,063140.00,A,4544.55187,N,00452.74276,E,4.432,103.51,240125,,,D*7E

2025-01-24 07:31:41.480493 -- $GNRMC,063141.00,A,4544.55158,N,00452.74436,E,2.970,104.66,240125,,,D*71

2025-01-24 07:31:42.473387 -- $GNRMC,063142.00,A,4544.55140,N,00452.74540,E,1.660,104.21,240125,,,D*75

2025-01-24 07:31:43.488557 -- $GNRMC,063143.00,A,4544.55135,N,00452.74590,E,0.842,106.39,240125,,,D*7F

2025-01-24 07:31:44.469442 -- $GNRMC,063144.00,A,4544.55131,N,00452.74619,E,0.021,,240125,,,D*60

2025-01-24 07:31:45.465233 -- $GNRMC,063145.00,A,4544.55133,N,00452.74628,E,0.014,,240125,,,D*67

2025-01-24 07:31:46.472291 -- $GNRMC,063146.00,A,4544.55132,N,00452.74635,E,0.022,,240125,,,D*6C

2025-01-24 07:31:47.470272 -- $GNRMC,063147.00,A,4544.55132,N,00452.74641,E,0.015,,240125,,,D*6A

2025-01-24 07:31:48.464225 -- $GNRMC,063148.00,A,4544.55132,N,00452.74644,E,0.015,,240125,,,D*60

2025-01-24 07:31:49.471814 -- $GNRMC,063149.00,A,4544.55130,N,00452.74646,E,0.006,,240125,,,D*63

2025-01-24 07:31:50.469642 -- $GNRMC,063150.00,A,4544.55129,N,00452.74648,E,0.007,,240125,,,D*6C

2025-01-24 07:31:51.462820 -- $GNRMC,063151.00,A,4544.55127,N,00452.74651,E,0.048,,240125,,,D*60

2025-01-24 07:31:52.473908 -- $GNRMC,063152.00,A,4544.55125,N,00452.74654,E,0.015,,240125,,,D*6C

2025-01-24 07:31:53.483583 -- $GNRMC,063153.00,A,4544.55127,N,00452.74657,E,0.034,,240125,,,D*6F

2025-01-24 07:31:54.462575 -- $GNRMC,063154.00,A,4544.55128,N,00452.74659,E,0.015,,240125,,,D*6A

2025-01-24 07:31:55.479530 -- $GNRMC,063155.00,A,4544.55130,N,00452.74662,E,0.021,,240125,,,D*6D

2025-01-24 07:31:56.463884 -- $GNRMC,063156.00,A,4544.55132,N,00452.74664,E,0.033,,240125,,,D*69

2025-01-24 07:31:57.468982 -- $GNRMC,063157.00,A,4544.55136,N,00452.74665,E,0.026,,240125,,,D*69

2025-01-24 07:31:58.471531 -- $GNRMC,063158.00,A,4544.55141,N,00452.74667,E,0.034,,240125,,,D*67

2025-01-24 07:31:59.469674 -- $GNRMC,063159.00,A,4544.55147,N,00452.74666,E,0.019,,240125,,,D*6E

2025-01-24 07:32:00.482529 -- $GNRMC,063200.00,A,4544.55154,N,00452.74663,E,0.030,,240125,,,D*6D

2025-01-24 07:32:01.473192 -- $GNRMC,063201.00,A,4544.55159,N,00452.74660,E,0.031,,240125,,,D*63

2025-01-24 07:32:02.472087 -- $GNRMC,063202.00,A,4544.55163,N,00452.74655,E,0.018,,240125,,,D*64

2025-01-24 07:32:03.459972 -- $GNRMC,063203.00,A,4544.55166,N,00452.74649,E,0.027,,240125,,,D*61

2025-01-24 07:32:04.477329 -- $GNRMC,063204.00,A,4544.55181,N,00452.74637,E,0.032,,240125,,,D*62

2025-01-24 07:32:05.474727 -- $GNRMC,063205.00,A,4544.55193,N,00452.74624,E,0.042,,240125,,,D*65

2025-01-24 07:32:06.486459 -- $GNRMC,063206.00,A,4544.55203,N,00452.74622,E,0.016,,240125,,,D*6B

2025-01-24 07:32:07.519559 -- $GNRMC,063207.00,A,4544.55220,N,00452.74574,E,0.019,,240125,,,D*64

2025-01-24 07:32:08.468934 -- $GNRMC,063208.00,A,4544.55216,N,00452.74539,E,0.028,,240125,,,D*65

2025-01-24 07:32:09.472768 -- $GNRMC,063209.00,A,4544.55214,N,00452.74523,E,0.036,,240125,,,D*62

2025-01-24 07:32:10.461172 -- $GNRMC,063210.00,A,4544.55208,N,00452.74527,E,0.044,,240125,,,D*66

2025-01-24 07:32:11.460671 -- $GNRMC,063211.00,A,4544.55212,N,00452.74527,E,0.013,,240125,,,D*6E

2025-01-24 07:32:12.481334 -- $GNRMC,063212.00,A,4544.55216,N,00452.74533,E,0.022,,240125,,,D*6E

2025-01-24 07:32:13.478205 -- $GNRMC,063213.00,A,4544.55218,N,00452.74538,E,0.023,,240125,,,D*6B

2025-01-24 07:32:14.453054 -- $GNRMC,063214.00,A,4544.55219,N,00452.74546,E,0.011,,240125,,,D*65

2025-01-24 07:32:15.466666 -- $GNRMC,063215.00,A,4544.55217,N,00452.74551,E,0.035,,240125,,,D*6A

2025-01-24 07:32:16.458445 -- $GNRMC,063216.00,A,4544.55214,N,00452.74557,E,0.015,,240125,,,D*6E

2025-01-24 07:32:17.464959 -- $GNRMC,063217.00,A,4544.55208,N,00452.74562,E,0.008,,240125,,,D*68

2025-01-24 07:32:18.467196 -- $GNRMC,063218.00,A,4544.55202,N,00452.74573,E,0.008,,240125,,,D*6D

2025-01-24 07:32:19.460750 -- $GNRMC,063219.00,A,4544.55199,N,00452.74576,E,0.018,,240125,,,D*69

2025-01-24 07:32:20.457520 -- $GNRMC,063220.00,A,4544.55196,N,00452.74577,E,0.037,,240125,,,D*60

2025-01-24 07:32:21.450452 -- $GNRMC,063221.00,A,4544.55191,N,00452.74576,E,0.052,,240125,,,D*64

2025-01-24 07:32:22.461011 -- $GNRMC,063222.00,A,4544.55185,N,00452.74572,E,0.031,,240125,,,D*63

2025-01-24 07:32:23.486218 -- $GNRMC,063223.00,A,4544.55179,N,00452.74570,E,0.027,,240125,,,D*64

2025-01-24 07:32:24.465874 -- $GNRMC,063224.00,A,4544.55176,N,00452.74568,E,0.043,,240125,,,D*67

2025-01-24 07:32:25.467440 -- $GNRMC,063225.00,A,4544.55172,N,00452.74575,E,0.029,,240125,,,D*62

2025-01-24 07:32:26.466626 -- $GNRMC,063226.00,A,4544.55172,N,00452.74572,E,0.058,,240125,,,D*60

2025-01-24 07:32:27.458694 -- $GNRMC,063227.00,A,4544.55172,N,00452.74574,E,0.021,,240125,,,D*69

2025-01-24 07:32:28.467029 -- $GNRMC,063228.00,A,4544.55174,N,00452.74575,E,0.021,,240125,,,D*61

2025-01-24 07:32:29.465960 -- $GNRMC,063229.00,A,4544.55176,N,00452.74577,E,0.020,,240125,,,D*61

2025-01-24 07:32:30.476559 -- $GNRMC,063230.00,A,4544.55166,N,00452.74615,E,1.000,104.15,240125,,,D*73

2025-01-24 07:32:31.467756 -- $GNRMC,063231.00,A,4544.55151,N,00452.74694,E,2.899,104.41,240125,,,D*75

2025-01-24 07:32:32.456670 -- $GNRMC,063232.00,A,4544.55123,N,00452.74840,E,4.634,103.49,240125,,,D*74

2025-01-24 07:32:33.498823 -- $GNRMC,063233.00,A,4544.55092,N,00452.75046,E,5.836,103.39,240125,,,D*7B

2025-01-24 07:32:34.475813 -- $GNRMC,063234.00,A,4544.55053,N,00452.75286,E,6.445,104.01,240125,,,D*78

2025-01-24 07:32:35.467500 -- $GNRMC,063235.00,A,4544.55015,N,00452.75540,E,6.743,103.97,240125,,,D*7B

2025-01-24 07:32:36.470920 -- $GNRMC,063236.00,A,4544.54971,N,00452.75796,E,6.641,103.21,240125,,,D*75

2025-01-24 07:32:37.482163 -- $GNRMC,063237.00,A,4544.54933,N,00452.76047,E,6.694,103.46,240125,,,D*73

2025-01-24 07:32:38.487275 -- $GNRMC,063238.00,A,4544.54892,N,00452.76299,E,6.559,103.81,240125,,,D*7E

2025-01-24 07:32:39.476017 -- $GNRMC,063239.00,A,4544.54845,N,00452.76563,E,6.550,103.97,240125,,,D*79

2025-01-24 07:32:40.467231 -- $GNRMC,063240.00,A,4544.54803,N,00452.76816,E,6.475,102.61,240125,,,D*74

2025-01-24 07:32:41.474965 -- $GNRMC,063241.00,A,4544.54761,N,00452.77048,E,5.730,104.06,240125,,,D*7A

2025-01-24 07:32:42.479614 -- $GNRMC,063242.00,A,4544.54727,N,00452.77242,E,4.609,103.52,240125,,,D*7F

2025-01-24 07:32:43.471254 -- $GNRMC,063243.00,A,4544.54700,N,00452.77387,E,3.178,105.00,240125,,,D*74

2025-01-24 07:32:44.483641 -- $GNRMC,063244.00,A,4544.54686,N,00452.77478,E,1.784,99.96,240125,,,D*47

2025-01-24 07:32:45.494849 -- $GNRMC,063245.00,A,4544.54680,N,00452.77523,E,0.699,97.86,240125,,,D*4C

2025-01-24 07:32:46.477303 -- $GNRMC,063246.00,A,4544.54682,N,00452.77538,E,0.015,,240125,,,D*6B

2025-01-24 07:32:47.475563 -- $GNRMC,063247.00,A,4544.54685,N,00452.77541,E,0.004,,240125,,,D*63

2025-01-24 07:32:48.473697 -- $GNRMC,063248.00,A,4544.54687,N,00452.77543,E,0.006,,240125,,,D*6E

2025-01-24 07:32:49.467122 -- $GNRMC,063249.00,A,4544.54683,N,00452.77566,E,0.646,105.34,240125,,,D*73

2025-01-24 07:32:50.470422 -- $GNRMC,063250.00,A,4544.54674,N,00452.77627,E,2.396,102.31,240125,,,D*7D

2025-01-24 07:32:51.462430 -- $GNRMC,063251.00,A,4544.54653,N,00452.77766,E,4.537,102.20,240125,,,D*76

2025-01-24 07:32:52.473796 -- $GNRMC,063252.00,A,4544.54616,N,00452.77992,E,6.810,104.45,240125,,,D*7E

2025-01-24 07:32:53.505430 -- $GNRMC,063253.00,A,4544.54556,N,00452.78338,E,8.489,103.22,240125,,,D*79

2025-01-24 07:32:54.455524 -- $GNRMC,063254.00,A,4544.54493,N,00452.78710,E,9.914,103.23,240125,,,D*71

2025-01-24 07:32:55.457647 -- $GNRMC,063255.00,A,4544.54427,N,00452.79125,E,11.420,103.75,240125,,,D*4E

2025-01-24 07:32:56.452453 -- $GNRMC,063256.00,A,4544.54339,N,00452.79590,E,12.775,103.47,240125,,,D*4E

2025-01-24 07:32:57.462948 -- $GNRMC,063257.00,A,4544.54264,N,00452.80100,E,14.065,103.48,240125,,,D*42

2025-01-24 07:32:58.454587 -- $GNRMC,063258.00,A,4544.54167,N,00452.80649,E,15.126,103.69,240125,,,D*43

2025-01-24 07:32:59.463488 -- $GNRMC,063259.00,A,4544.54068,N,00452.81253,E,16.324,103.43,240125,,,D*49

2025-01-24 07:33:00.465383 -- $GNRMC,063300.00,A,4544.53965,N,00452.81894,E,17.246,103.49,240125,,,D*48

2025-01-24 07:33:01.453232 -- $GNRMC,063301.00,A,4544.53847,N,00452.82564,E,17.821,102.89,240125,,,D*4F

2025-01-24 07:33:02.462650 -- $GNRMC,063302.00,A,4544.53732,N,00452.83248,E,18.029,102.99,240125,,,D*47

2025-01-24 07:33:03.453387 -- $GNRMC,063303.00,A,4544.53617,N,00452.83950,E,18.297,102.72,240125,,,D*40

2025-01-24 07:33:04.458549 -- $GNRMC,063304.00,A,4544.53507,N,00452.84653,E,18.592,102.76,240125,,,D*48

2025-01-24 07:33:05.462233 -- $GNRMC,063305.00,A,4544.53392,N,00452.85372,E,18.707,102.54,240125,,,D*4A

2025-01-24 07:33:06.461016 -- $GNRMC,063306.00,A,4544.53275,N,00452.86090,E,18.292,102.68,240125,,,D*4B

2025-01-24 07:33:07.470091 -- $GNRMC,063307.00,A,4544.53164,N,00452.86793,E,17.937,102.62,240125,,,D*4C

2025-01-24 07:33:08.452533 -- $GNRMC,063308.00,A,4544.53057,N,00452.87475,E,17.515,102.16,240125,,,D*47

2025-01-24 07:33:09.458916 -- $GNRMC,063309.00,A,4544.52948,N,00452.88152,E,17.545,102.88,240125,,,D*4D

2025-01-24 07:33:10.441942 -- $GNRMC,063310.00,A,4544.52842,N,00452.88825,E,17.377,102.44,240125,,,D*40

2025-01-24 07:33:11.445975 -- $GNRMC,063311.00,A,4544.52738,N,00452.89491,E,17.201,102.44,240125,,,D*41

2025-01-24 07:33:12.453921 -- $GNRMC,063312.00,A,4544.52631,N,00452.90149,E,17.113,102.49,240125,,,D*4F

2025-01-24 07:33:13.452544 -- $GNRMC,063313.00,A,4544.52524,N,00452.90803,E,16.923,102.73,240125,,,D*4D

2025-01-24 07:33:14.457518 -- $GNRMC,063314.00,A,4544.52421,N,00452.91452,E,16.824,102.55,240125,,,D*45

2025-01-24 07:33:15.458698 -- $GNRMC,063315.00,A,4544.52320,N,00452.92098,E,16.668,102.45,240125,,,D*44

2025-01-24 07:33:16.441331 -- $GNRMC,063316.00,A,4544.52216,N,00452.92745,E,16.858,103.57,240125,,,D*4B

2025-01-24 07:33:17.454514 -- $GNRMC,063317.00,A,4544.52113,N,00452.93398,E,16.909,102.22,240125,,,D*4F

2025-01-24 07:33:18.447867 -- $GNRMC,063318.00,A,4544.52005,N,00452.94061,E,17.189,102.99,240125,,,D*45

2025-01-24 07:33:19.460923 -- $GNRMC,063319.00,A,4544.51898,N,00452.94734,E,17.723,102.97,240125,,,D*44

2025-01-24 07:33:20.449691 -- $GNRMC,063320.00,A,4544.51790,N,00452.95421,E,17.878,102.94,240125,,,D*4D

2025-01-24 07:33:21.456290 -- $GNRMC,063321.00,A,4544.51679,N,00452.96119,E,18.099,103.23,240125,,,D*42

2025-01-24 07:33:22.451133 -- $GNRMC,063322.00,A,4544.51559,N,00452.96802,E,17.594,104.77,240125,,,D*42

2025-01-24 07:33:23.456280 -- $GNRMC,063323.00,A,4544.51414,N,00452.97454,E,16.603,109.22,240125,,,D*44

2025-01-24 07:33:24.459850 -- $GNRMC,063324.00,A,4544.51236,N,00452.98042,E,15.792,115.84,240125,,,D*42

2025-01-24 07:33:25.463427 -- $GNRMC,063325.00,A,4544.51029,N,00452.98594,E,15.198,121.62,240125,,,D*42

2025-01-24 07:33:26.473795 -- $GNRMC,063326.00,A,4544.50812,N,00452.99106,E,14.756,124.94,240125,,,D*47

2025-01-24 07:33:27.456654 -- $GNRMC,063327.00,A,4544.50582,N,00452.99585,E,14.492,125.05,240125,,,D*4F

2025-01-24 07:33:28.465112 -- $GNRMC,063328.00,A,4544.50361,N,00453.00077,E,14.617,124.53,240125,,,D*4F

2025-01-24 07:33:29.466891 -- $GNRMC,063329.00,A,4544.50136,N,00453.00571,E,14.618,120.88,240125,,,D*40

2025-01-24 07:33:30.449329 -- $GNRMC,063330.00,A,4544.49940,N,00453.01071,E,13.804,117.10,240125,,,D*4C

2025-01-24 07:33:31.460583 -- $GNRMC,063331.00,A,4544.49773,N,00453.01554,E,12.842,115.63,240125,,,D*44

2025-01-24 07:33:32.457734 -- $GNRMC,063332.00,A,4544.49623,N,00453.02005,E,11.871,116.00,240125,,,D*44

2025-01-24 07:33:33.457690 -- $GNRMC,063333.00,A,4544.49488,N,00453.02416,E,10.566,115.66,240125,,,D*49

2025-01-24 07:33:34.450026 -- $GNRMC,063334.00,A,4544.49366,N,00453.02783,E,9.457,116.18,240125,,,D*77

2025-01-24 07:33:35.457597 -- $GNRMC,063335.00,A,4544.49257,N,00453.03099,E,7.891,116.06,240125,,,D*7F

2025-01-24 07:33:36.458978 -- $GNRMC,063336.00,A,4544.49173,N,00453.03350,E,5.871,115.72,240125,,,D*73

2025-01-24 07:33:37.447989 -- $GNRMC,063337.00,A,4544.49114,N,00453.03534,E,4.166,115.49,240125,,,D*71

2025-01-24 07:33:38.447441 -- $GNRMC,063338.00,A,4544.49077,N,00453.03653,E,2.343,115.31,240125,,,D*74

2025-01-24 07:33:39.447664 -- $GNRMC,063339.00,A,4544.49063,N,00453.03708,E,0.544,117.38,240125,,,D*77

2025-01-24 07:33:40.455624 -- $GNRMC,063340.00,A,4544.49060,N,00453.03722,E,0.003,,240125,,,D*66

2025-01-24 07:33:41.447006 -- $GNRMC,063341.00,A,4544.49061,N,00453.03726,E,0.002,,240125,,,D*63

2025-01-24 07:33:42.457015 -- $GNRMC,063342.00,A,4544.49062,N,00453.03730,E,0.002,,240125,,,D*64

2025-01-24 07:33:43.453838 -- $GNRMC,063343.00,A,4544.49063,N,00453.03734,E,0.020,,240125,,,D*60

2025-01-24 07:33:44.457016 -- $GNRMC,063344.00,A,4544.49064,N,00453.03738,E,0.009,,240125,,,D*67

2025-01-24 07:33:45.456569 -- $GNRMC,063345.00,A,4544.49068,N,00453.03742,E,0.009,,240125,,,D*67

2025-01-24 07:33:46.462793 -- $GNRMC,063346.00,A,4544.49072,N,00453.03746,E,0.019,,240125,,,D*6A

2025-01-24 07:33:47.453062 -- $GNRMC,063347.00,A,4544.49074,N,00453.03749,E,0.012,,240125,,,D*69

2025-01-24 07:33:48.455931 -- $GNRMC,063348.00,A,4544.49078,N,00453.03751,E,0.010,,240125,,,D*61

2025-01-24 07:33:49.463004 -- $GNRMC,063349.00,A,4544.49083,N,00453.03751,E,0.019,,240125,,,D*6D

2025-01-24 07:33:50.470816 -- $GNRMC,063350.00,A,4544.49088,N,00453.03750,E,0.016,,240125,,,D*60

2025-01-24 07:33:51.468622 -- $GNRMC,063351.00,A,4544.49091,N,00453.03751,E,0.026,,240125,,,D*6B

2025-01-24 07:33:52.475761 -- $GNRMC,063352.00,A,4544.49094,N,00453.03750,E,0.007,,240125,,,D*6F

2025-01-24 07:33:53.467598 -- $GNRMC,063353.00,A,4544.49094,N,00453.03748,E,0.014,,240125,,,D*65

2025-01-24 07:33:54.476184 -- $GNRMC,063354.00,A,4544.49094,N,00453.03746,E,0.023,,240125,,,D*68

2025-01-24 07:33:55.474676 -- $GNRMC,063355.00,A,4544.49095,N,00453.03744,E,0.013,,240125,,,D*69

2025-01-24 07:33:56.472273 -- $GNRMC,063356.00,A,4544.49096,N,00453.03742,E,0.020,,240125,,,D*6F

2025-01-24 07:33:57.467009 -- $GNRMC,063357.00,A,4544.49096,N,00453.03738,E,0.018,,240125,,,D*68

2025-01-24 07:33:58.462911 -- $GNRMC,063358.00,A,4544.49098,N,00453.03734,E,0.034,,240125,,,D*6B

2025-01-24 07:33:59.474882 -- $GNRMC,063359.00,A,4544.49094,N,00453.03748,E,0.973,116.58,240125,,,D*72

2025-01-24 07:34:00.475428 -- $GNRMC,063400.00,A,4544.49078,N,00453.03806,E,2.374,116.56,240125,,,D*7F

2025-01-24 07:34:01.465649 -- $GNRMC,063401.00,A,4544.49042,N,00453.03915,E,3.852,116.01,240125,,,D*78

2025-01-24 07:34:02.456864 -- $GNRMC,063402.00,A,4544.48992,N,00453.04079,E,5.275,115.76,240125,,,D*70

2025-01-24 07:34:03.463132 -- $GNRMC,063403.00,A,4544.48922,N,00453.04295,E,6.737,115.92,240125,,,D*70

2025-01-24 07:34:04.445468 -- $GNRMC,063404.00,A,4544.48834,N,00453.04559,E,8.118,116.16,240125,,,D*7C

2025-01-24 07:34:05.454588 -- $GNRMC,063405.00,A,4544.48731,N,00453.04877,E,9.518,115.79,240125,,,D*79

2025-01-24 07:34:06.454825 -- $GNRMC,063406.00,A,4544.48608,N,00453.05242,E,10.906,115.95,240125,,,D*45

2025-01-24 07:34:07.460173 -- $GNRMC,063407.00,A,4544.48469,N,00453.05655,E,12.286,115.81,240125,,,D*47

2025-01-24 07:34:08.455002 -- $GNRMC,063408.00,A,4544.48310,N,00453.06116,E,13.596,115.82,240125,,,D*46

2025-01-24 07:34:09.456913 -- $GNRMC,063409.00,A,4544.48134,N,00453.06627,E,14.927,116.06,240125,,,D*48

2025-01-24 07:34:10.451740 -- $GNRMC,063410.00,A,4544.47942,N,00453.07183,E,16.265,115.99,240125,,,D*44

2025-01-24 07:34:11.455556 -- $GNRMC,063411.00,A,4544.47733,N,00453.07776,E,17.179,114.88,240125,,,D*4F

2025-01-24 07:34:12.460559 -- $GNRMC,063412.00,A,4544.47544,N,00453.08402,E,17.043,111.01,240125,,,D*4D

2025-01-24 07:34:13.451027 -- $GNRMC,063413.00,A,4544.47396,N,00453.09043,E,16.909,104.52,240125,,,D*41

2025-01-24 07:34:14.446468 -- $GNRMC,063414.00,A,4544.47288,N,00453.09691,E,16.545,101.61,240125,,,D*40

2025-01-24 07:34:15.442376 -- $GNRMC,063415.00,A,4544.47216,N,00453.10338,E,16.545,96.39,240125,,,D*7A

2025-01-24 07:34:16.454259 -- $GNRMC,063416.00,A,4544.47177,N,00453.10987,E,16.531,92.79,240125,,,D*70

2025-01-24 07:34:17.451878 -- $GNRMC,063417.00,A,4544.47154,N,00453.11633,E,16.566,92.01,240125,,,D*7C

2025-01-24 07:34:18.455610 -- $GNRMC,063418.00,A,4544.47134,N,00453.12273,E,16.674,93.63,240125,,,D*73

2025-01-24 07:34:19.461481 -- $GNRMC,063419.00,A,4544.47079,N,00453.12945,E,16.991,98.73,240125,,,D*7A

2025-01-24 07:34:20.450590 -- $GNRMC,063420.00,A,4544.46983,N,00453.13598,E,16.834,105.34,240125,,,D*48

2025-01-24 07:34:21.460635 -- $GNRMC,063421.00,A,4544.46846,N,00453.14237,E,16.845,108.51,240125,,,D*4C

2025-01-24 07:34:22.441014 -- $GNRMC,063422.00,A,4544.46685,N,00453.14851,E,16.153,112.05,240125,,,D*40

2025-01-24 07:34:23.452999 -- $GNRMC,063423.00,A,4544.46505,N,00453.15424,E,15.544,114.82,240125,,,D*4D

2025-01-24 07:34:24.443548 -- $GNRMC,063424.00,A,4544.46317,N,00453.15970,E,14.929,114.94,240125,,,D*42

2025-01-24 07:34:25.451002 -- $GNRMC,063425.00,A,4544.46150,N,00453.16487,E,13.931,114.86,240125,,,D*49

2025-01-24 07:34:26.442769 -- $GNRMC,063426.00,A,4544.45995,N,00453.16971,E,12.588,115.25,240125,,,D*4B

2025-01-24 07:34:27.445973 -- $GNRMC,063427.00,A,4544.45859,N,00453.17398,E,10.976,114.70,240125,,,D*49

2025-01-24 07:34:28.448736 -- $GNRMC,063428.00,A,4544.45746,N,00453.17769,E,9.276,114.62,240125,,,D*7D

2025-01-24 07:34:29.434217 -- $GNRMC,063429.00,A,4544.45647,N,00453.18073,E,7.553,115.39,240125,,,D*7E

2025-01-24 07:34:30.441274 -- $GNRMC,063430.00,A,4544.45568,N,00453.18318,E,5.928,115.07,240125,,,D*79

2025-01-24 07:34:31.444429 -- $GNRMC,063431.00,A,4544.45509,N,00453.18504,E,4.296,114.88,240125,,,D*7D

2025-01-24 07:34:32.448162 -- $GNRMC,063432.00,A,4544.45468,N,00453.18633,E,2.854,115.24,240125,,,D*7A

2025-01-24 07:34:33.433140 -- $GNRMC,063433.00,A,4544.45441,N,00453.18719,E,1.922,113.91,240125,,,D*72

2025-01-24 07:34:34.455473 -- $GNRMC,063434.00,A,4544.45418,N,00453.18790,E,2.072,114.80,240125,,,D*70

2025-01-24 07:34:35.449014 -- $GNRMC,063435.00,A,4544.45385,N,00453.18891,E,3.529,115.98,240125,,,D*7E

2025-01-24 07:34:36.447144 -- $GNRMC,063436.00,A,4544.45335,N,00453.19046,E,5.058,114.68,240125,,,D*7E

2025-01-24 07:34:37.441530 -- $GNRMC,063437.00,A,4544.45269,N,00453.19258,E,6.649,114.93,240125,,,D*7B

2025-01-24 07:34:38.443978 -- $GNRMC,063438.00,A,4544.45182,N,00453.19529,E,8.303,115.28,240125,,,D*77

2025-01-24 07:34:39.449916 -- $GNRMC,063439.00,A,4544.45073,N,00453.19856,E,10.001,115.37,240125,,,D*4A

2025-01-24 07:34:40.438258 -- $GNRMC,063440.00,A,4544.44947,N,00453.20250,E,11.804,115.24,240125,,,D*43

2025-01-24 07:34:41.449713 -- $GNRMC,063441.00,A,4544.44799,N,00453.20706,E,13.556,115.07,240125,,,D*40

2025-01-24 07:34:42.437281 -- $GNRMC,063442.00,A,4544.44629,N,00453.21226,E,15.364,115.25,240125,,,D*4E

2025-01-24 07:34:43.445219 -- $GNRMC,063443.00,A,4544.44437,N,00453.21813,E,17.150,115.30,240125,,,D*4D

2025-01-24 07:34:44.435416 -- $GNRMC,063444.00,A,4544.44220,N,00453.22454,E,18.698,115.13,240125,,,D*4B

2025-01-24 07:34:45.444867 -- $GNRMC,063445.00,A,4544.43993,N,00453.23147,E,19.740,115.19,240125,,,D*47

2025-01-24 07:34:46.445620 -- $GNRMC,063446.00,A,4544.43758,N,00453.23873,E,20.495,114.75,240125,,,D*49

2025-01-24 07:34:47.446566 -- $GNRMC,063447.00,A,4544.43510,N,00453.24619,E,21.058,115.21,240125,,,D*47

2025-01-24 07:34:48.441840 -- $GNRMC,063448.00,A,4544.43258,N,00453.25380,E,21.357,115.11,240125,,,D*48

2025-01-24 07:34:49.439893 -- $GNRMC,063449.00,A,4544.43004,N,00453.26143,E,21.136,115.25,240125,,,D*4E

2025-01-24 07:34:50.439041 -- $GNRMC,063450.00,A,4544.42752,N,00453.26898,E,20.858,115.11,240125,,,D*4B

2025-01-24 07:34:51.437449 -- $GNRMC,063451.00,A,4544.42504,N,00453.27642,E,20.632,115.46,240125,,,D*43

2025-01-24 07:34:52.444459 -- $GNRMC,063452.00,A,4544.42259,N,00453.28382,E,20.546,115.16,240125,,,D*4C

2025-01-24 07:34:53.439994 -- $GNRMC,063453.00,A,4544.42015,N,00453.29126,E,20.794,115.05,240125,,,D*45

2025-01-24 07:34:54.441340 -- $GNRMC,063454.00,A,4544.41764,N,00453.29883,E,21.354,115.14,240125,,,D*4F

2025-01-24 07:34:55.439790 -- $GNRMC,063455.00,A,4544.41500,N,00453.30661,E,22.138,115.74,240125,,,D*49

2025-01-24 07:34:56.450046 -- $GNRMC,063456.00,A,4544.41225,N,00453.31462,E,22.771,116.38,240125,,,D*4A

2025-01-24 07:34:57.441047 -- $GNRMC,063457.00,A,4544.40947,N,00453.32286,E,23.392,114.88,240125,,,D*4B

2025-01-24 07:34:58.445463 -- $GNRMC,063458.00,A,4544.40666,N,00453.33131,E,23.872,115.46,240125,,,D*40

2025-01-24 07:34:59.447804 -- $GNRMC,063459.00,A,4544.40380,N,00453.33991,E,24.211,115.21,240125,,,D*47

2025-01-24 07:35:00.454888 -- $GNRMC,063500.00,A,4544.40094,N,00453.34862,E,24.322,115.22,240125,,,D*44

2025-01-24 07:35:01.435373 -- $GNRMC,063501.00,A,4544.39807,N,00453.35730,E,24.088,115.28,240125,,,D*49

2025-01-24 07:35:02.437401 -- $GNRMC,063502.00,A,4544.39526,N,00453.36583,E,23.410,114.97,240125,,,D*4A

2025-01-24 07:35:03.449129 -- $GNRMC,063503.00,A,4544.39255,N,00453.37411,E,22.732,115.39,240125,,,D*44

2025-01-24 07:35:04.448387 -- $GNRMC,063504.00,A,4544.38987,N,00453.38208,E,22.033,116.07,240125,,,D*4F

2025-01-24 07:35:05.458041 -- $GNRMC,063505.00,A,4544.38729,N,00453.38982,E,21.320,115.22,240125,,,D*4B

2025-01-24 07:35:06.454469 -- $GNRMC,063506.00,A,4544.38476,N,00453.39730,E,20.492,115.53,240125,,,D*4E

2025-01-24 07:35:07.447198 -- $GNRMC,063507.00,A,4544.38232,N,00453.40457,E,19.989,115.13,240125,,,D*4C

2025-01-24 07:35:08.444915 -- $GNRMC,063508.00,A,4544.37994,N,00453.41162,E,19.284,115.54,240125,,,D*4C

2025-01-24 07:35:09.442195 -- $GNRMC,063509.00,A,4544.37768,N,00453.41844,E,18.603,115.68,240125,,,D*48

2025-01-24 07:35:10.447962 -- $GNRMC,063510.00,A,4544.37556,N,00453.42508,E,18.005,115.11,240125,,,D*47

2025-01-24 07:35:11.436183 -- $GNRMC,063511.00,A,4544.37346,N,00453.43141,E,17.312,114.96,240125,,,D*4D

2025-01-24 07:35:12.436613 -- $GNRMC,063512.00,A,4544.37143,N,00453.43749,E,16.679,115.42,240125,,,D*46

2025-01-24 07:35:13.433639 -- $GNRMC,063513.00,A,4544.36946,N,00453.44336,E,16.133,115.95,240125,,,D*43

2025-01-24 07:35:14.439554 -- $GNRMC,063514.00,A,4544.36757,N,00453.44908,E,15.532,115.53,240125,,,D*41

2025-01-24 07:35:15.444601 -- $GNRMC,063515.00,A,4544.36578,N,00453.45450,E,14.671,115.34,240125,,,D*4A

2025-01-24 07:35:16.447621 -- $GNRMC,063516.00,A,4544.36413,N,00453.45956,E,13.441,115.16,240125,,,D*48

2025-01-24 07:35:17.454392 -- $GNRMC,063517.00,A,4544.36268,N,00453.46415,E,11.879,115.10,240125,,,D*49

2025-01-24 07:35:18.446159 -- $GNRMC,063518.00,A,4544.36135,N,00453.46811,E,10.209,115.23,240125,,,D*49

2025-01-24 07:35:19.443080 -- $GNRMC,063519.00,A,4544.36023,N,00453.47148,E,8.551,115.01,240125,,,D*79

2025-01-24 07:35:20.444070 -- $GNRMC,063520.00,A,4544.35928,N,00453.47426,E,7.061,115.13,240125,,,D*75

2025-01-24 07:35:21.447392 -- $GNRMC,063521.00,A,4544.35859,N,00453.47663,E,5.702,114.86,240125,,,D*7D

2025-01-24 07:35:22.438959 -- $GNRMC,063522.00,A,4544.35796,N,00453.47844,E,4.481,115.08,240125,,,D*77

2025-01-24 07:35:23.455537 -- $GNRMC,063523.00,A,4544.35750,N,00453.47990,E,3.534,115.35,240125,,,D*72

2025-01-24 07:35:24.439999 -- $GNRMC,063524.00,A,4544.35714,N,00453.48104,E,2.795,115.64,240125,,,D*73

2025-01-24 07:35:25.439594 -- $GNRMC,063525.00,A,4544.35684,N,00453.48188,E,1.984,115.21,240125,,,D*72

2025-01-24 07:35:26.453209 -- $GNRMC,063526.00,A,4544.35664,N,00453.48246,E,1.298,115.17,240125,,,D*7D

2025-01-24 07:35:27.458756 -- $GNRMC,063527.00,A,4544.35649,N,00453.48285,E,1.009,115.90,240125,,,D*79

2025-01-24 07:35:28.455073 -- $GNRMC,063528.00,A,4544.35640,N,00453.48311,E,0.475,113.91,240125,,,D*7A

2025-01-24 07:35:29.460898 -- $GNRMC,063529.00,A,4544.35639,N,00453.48318,E,0.012,,240125,,,D*6C

2025-01-24 07:35:30.456627 -- $GNRMC,063530.00,A,4544.35643,N,00453.48323,E,0.026,,240125,,,D*66

2025-01-24 07:35:31.451393 -- $GNRMC,063531.00,A,4544.35646,N,00453.48328,E,0.006,,240125,,,D*6B

2025-01-24 07:35:32.457352 -- $GNRMC,063532.00,A,4544.35649,N,00453.48332,E,0.007,,240125,,,D*6D

2025-01-24 07:35:33.456443 -- $GNRMC,063533.00,A,4544.35652,N,00453.48334,E,0.032,,240125,,,D*66

2025-01-24 07:35:34.458855 -- $GNRMC,063534.00,A,4544.35654,N,00453.48336,E,0.024,,240125,,,D*62

2025-01-24 07:35:35.456608 -- $GNRMC,063535.00,A,4544.35657,N,00453.48337,E,0.020,,240125,,,D*65

2025-01-24 07:35:36.447021 -- $GNRMC,063536.00,A,4544.35658,N,00453.48339,E,0.004,,240125,,,D*61

2025-01-24 07:35:37.458736 -- $GNRMC,063537.00,A,4544.35658,N,00453.48340,E,0.019,,240125,,,D*62

2025-01-24 07:35:38.443422 -- $GNRMC,063538.00,A,4544.35658,N,00453.48340,E,0.038,,240125,,,D*6E

2025-01-24 07:35:39.442394 -- $GNRMC,063539.00,A,4544.35658,N,00453.48340,E,0.058,,240125,,,D*69

2025-01-24 07:35:40.453101 -- $GNRMC,063540.00,A,4544.35657,N,00453.48339,E,0.016,,240125,,,D*6C

2025-01-24 07:35:41.450358 -- $GNRMC,063541.00,A,4544.35655,N,00453.48338,E,0.012,,240125,,,D*6A

2025-01-24 07:35:42.444445 -- $GNRMC,063542.00,A,4544.35653,N,00453.48339,E,0.012,,240125,,,D*6E

2025-01-24 07:35:43.444339 -- $GNRMC,063543.00,A,4544.35651,N,00453.48340,E,0.010,,240125,,,D*61

2025-01-24 07:35:44.451043 -- $GNRMC,063544.00,A,4544.35648,N,00453.48341,E,0.011,,240125,,,D*6E

2025-01-24 07:35:45.475170 -- $GNRMC,063545.00,A,4544.35645,N,00453.48339,E,0.021,,240125,,,D*6E

2025-01-24 07:35:46.438364 -- $GNRMC,063546.00,A,4544.35642,N,00453.48336,E,0.020,,240125,,,D*64

2025-01-24 07:35:47.452353 -- $GNRMC,063547.00,A,4544.35640,N,00453.48333,E,0.022,,240125,,,D*60

2025-01-24 07:35:48.437361 -- $GNRMC,063548.00,A,4544.35638,N,00453.48330,E,0.010,,240125,,,D*62

2025-01-24 07:35:49.431215 -- $GNRMC,063549.00,A,4544.35635,N,00453.48327,E,0.011,,240125,,,D*69

2025-01-24 07:35:50.440667 -- $GNRMC,063550.00,A,4544.35632,N,00453.48324,E,0.030,,240125,,,D*66

2025-01-24 07:35:51.439627 -- $GNRMC,063551.00,A,4544.35629,N,00453.48321,E,0.024,,240125,,,D*6D

2025-01-24 07:35:52.453295 -- $GNRMC,063552.00,A,4544.35626,N,00453.48318,E,0.012,,240125,,,D*6E

2025-01-24 07:35:53.443007 -- $GNRMC,063553.00,A,4544.35623,N,00453.48315,E,0.026,,240125,,,D*60

2025-01-24 07:35:54.447958 -- $GNRMC,063554.00,A,4544.35619,N,00453.48312,E,0.023,,240125,,,D*6C

2025-01-24 07:35:55.450325 -- $GNRMC,063555.00,A,4544.35616,N,00453.48309,E,0.031,,240125,,,D*6B

2025-01-24 07:35:56.443527 -- $GNRMC,063556.00,A,4544.35613,N,00453.48306,E,0.028,,240125,,,D*6A

2025-01-24 07:35:57.440773 -- $GNRMC,063557.00,A,4544.35609,N,00453.48304,E,0.013,,240125,,,D*6A

2025-01-24 07:35:58.442500 -- $GNRMC,063558.00,A,4544.35606,N,00453.48301,E,0.026,,240125,,,D*69

2025-01-24 07:35:59.444442 -- $GNRMC,063559.00,A,4544.35603,N,00453.48297,E,0.038,,240125,,,D*6C

2025-01-24 07:36:00.501765 -- $GNRMC,063600.00,A,4544.35578,N,00453.48283,E,0.035,,240125,,,D*64

2025-01-24 07:36:01.451862 -- $GNRMC,063601.00,A,4544.35568,N,00453.48278,E,0.019,,240125,,,D*6E

2025-01-24 07:36:02.449700 -- $GNRMC,063602.00,A,4544.35562,N,00453.48276,E,0.028,,240125,,,D*6B

2025-01-24 07:36:03.456191 -- $GNRMC,063603.00,A,4544.35557,N,00453.48270,E,0.019,,240125,,,D*68

2025-01-24 07:36:04.455970 -- $GNRMC,063604.00,A,4544.35557,N,00453.48264,E,0.018,,240125,,,D*6B

2025-01-24 07:36:05.452922 -- $GNRMC,063605.00,A,4544.35557,N,00453.48261,E,0.014,,240125,,,D*63

2025-01-24 07:36:06.455887 -- $GNRMC,063606.00,A,4544.35557,N,00453.48258,E,0.016,,240125,,,D*68

2025-01-24 07:36:07.449474 -- $GNRMC,063607.00,A,4544.35560,N,00453.48257,E,0.024,,240125,,,D*63

2025-01-24 07:36:08.448312 -- $GNRMC,063608.00,A,4544.35562,N,00453.48257,E,0.030,,240125,,,D*6B

2025-01-24 07:36:09.471048 -- $GNRMC,063609.00,A,4544.35564,N,00453.48257,E,0.025,,240125,,,D*68

2025-01-24 07:36:10.445557 -- $GNRMC,063610.00,A,4544.35571,N,00453.48258,E,0.011,,240125,,,D*6C

2025-01-24 07:36:11.439868 -- $GNRMC,063611.00,A,4544.35577,N,00453.48257,E,0.014,,240125,,,D*61

2025-01-24 07:36:12.457491 -- $GNRMC,063612.00,A,4544.35585,N,00453.48256,E,0.033,,240125,,,D*6B

2025-01-24 07:36:13.449864 -- $GNRMC,063613.00,A,4544.35590,N,00453.48254,E,0.007,,240125,,,D*6B

2025-01-24 07:36:14.455753 -- $GNRMC,063614.00,A,4544.35595,N,00453.48250,E,0.010,,240125,,,D*6B

2025-01-24 07:36:15.458524 -- $GNRMC,063615.00,A,4544.35600,N,00453.48247,E,0.008,,240125,,,D*6A

2025-01-24 07:36:16.449570 -- $GNRMC,063616.00,A,4544.35606,N,00453.48246,E,0.032,,240125,,,D*67

2025-01-24 07:36:17.461204 -- $GNRMC,063617.00,A,4544.35612,N,00453.48246,E,0.019,,240125,,,D*6A

2025-01-24 07:36:18.450031 -- $GNRMC,063618.00,A,4544.35617,N,00453.48246,E,0.008,,240125,,,D*60

2025-01-24 07:36:19.446321 -- $GNRMC,063619.00,A,4544.35622,N,00453.48248,E,0.022,,240125,,,D*61

2025-01-24 07:36:20.460648 -- $GNRMC,063620.00,A,4544.35626,N,00453.48248,E,0.006,,240125,,,D*69

2025-01-24 07:36:21.449777 -- $GNRMC,063621.00,A,4544.35629,N,00453.48246,E,0.010,,240125,,,D*6E

2025-01-24 07:36:22.441038 -- $GNRMC,063622.00,A,4544.35632,N,00453.48243,E,0.010,,240125,,,D*62

2025-01-24 07:36:23.453591 -- $GNRMC,063623.00,A,4544.35636,N,00453.48241,E,0.019,,240125,,,D*6C

2025-01-24 07:36:24.469199 -- $GNRMC,063624.00,A,4544.35638,N,00453.48238,E,0.019,,240125,,,D*6B

2025-01-24 07:36:25.466540 -- $GNRMC,063625.00,A,4544.35640,N,00453.48235,E,0.008,,240125,,,D*68

2025-01-24 07:36:26.459961 -- $GNRMC,063626.00,A,4544.35643,N,00453.48230,E,0.023,,240125,,,D*64

2025-01-24 07:36:27.454586 -- $GNRMC,063627.00,A,4544.35643,N,00453.48227,E,0.018,,240125,,,D*6B

2025-01-24 07:36:28.456639 -- $GNRMC,063628.00,A,4544.35642,N,00453.48224,E,0.020,,240125,,,D*6D

2025-01-24 07:36:29.453245 -- $GNRMC,063629.00,A,4544.35642,N,00453.48221,E,0.027,,240125,,,D*6E

2025-01-24 07:36:30.441085 -- $GNRMC,063630.00,A,4544.35640,N,00453.48217,E,0.018,,240125,,,D*6D

2025-01-24 07:36:31.461410 -- $GNRMC,063631.00,A,4544.35639,N,00453.48213,E,0.025,,240125,,,D*68

2025-01-24 07:36:32.448807 -- $GNRMC,063632.00,A,4544.35639,N,00453.48209,E,0.016,,240125,,,D*60

2025-01-24 07:36:33.445772 -- $GNRMC,063633.00,A,4544.35638,N,00453.48203,E,0.032,,240125,,,D*6C

2025-01-24 07:36:34.451420 -- $GNRMC,063634.00,A,4544.35638,N,00453.48198,E,0.033,,240125,,,D*6B

2025-01-24 07:36:35.447412 -- $GNRMC,063635.00,A,4544.35638,N,00453.48192,E,0.022,,240125,,,D*60

2025-01-24 07:36:36.449498 -- $GNRMC,063636.00,A,4544.35638,N,00453.48186,E,0.021,,240125,,,D*65

2025-01-24 07:36:37.448326 -- $GNRMC,063637.00,A,4544.35638,N,00453.48181,E,0.013,,240125,,,D*62

2025-01-24 07:36:38.442834 -- $GNRMC,063638.00,A,4544.35642,N,00453.48176,E,0.022,,240125,,,D*6A

2025-01-24 07:36:39.445270 -- $GNRMC,063639.00,A,4544.35643,N,00453.48171,E,0.034,,240125,,,D*6A

2025-01-24 07:36:40.439018 -- $GNRMC,063640.00,A,4544.35643,N,00453.48167,E,0.023,,240125,,,D*65

2025-01-24 07:36:41.441567 -- $GNRMC,063641.00,A,4544.35643,N,00453.48163,E,0.015,,240125,,,D*65

2025-01-24 07:36:42.438659 -- $GNRMC,063642.00,A,4544.35641,N,00453.48160,E,0.018,,240125,,,D*6A

2025-01-24 07:36:43.441599 -- $GNRMC,063643.00,A,4544.35639,N,00453.48158,E,0.008,,240125,,,D*6E

2025-01-24 07:36:44.446235 -- $GNRMC,063644.00,A,4544.35638,N,00453.48157,E,0.021,,240125,,,D*6C

2025-01-24 07:36:45.450053 -- $GNRMC,063645.00,A,4544.35636,N,00453.48158,E,0.014,,240125,,,D*6A

2025-01-24 07:36:46.444331 -- $GNRMC,063646.00,A,4544.35634,N,00453.48161,E,0.015,,240125,,,D*60

2025-01-24 07:36:47.443719 -- $GNRMC,063647.00,A,4544.35629,N,00453.48166,E,0.017,,240125,,,D*68

2025-01-24 07:36:48.449677 -- $GNRMC,063648.00,A,4544.35626,N,00453.48172,E,0.012,,240125,,,D*68

2025-01-24 07:36:49.443254 -- $GNRMC,063649.00,A,4544.35625,N,00453.48172,E,0.013,,240125,,,D*6B

